{"meta":{"origin":{"lat":37.56853537429577,"lon":127.02084550975484,"name":"서울시 중구 황학동"},"origin_code":"11140670","year":"2023","month":"4월","day_type":"주말","direction":"out","label":"2023 4월 주말","dataset_key":"2023_apr_weekend_out","dates":["20230409"],"days_count":1,"note":null,"mode_labels":{},"hours":["00:00","01:00","02:00","03:00","04:00","05:00","06:00","07:00","08:00","09:00","10:00","11:00","12:00","13:00","14:00","15:00","16:00","17:00","18:00","19:00","20:00","21:00","22:00","23:00"],"generated_at":"2026-06-12T06:48:09.632Z"},"summary":{"total_pop":20466,"dest_count":492,"self_total":4978,"hour_totals":[603,493,322,226,228,232,331,519,621,829,912,1172,1428,1613,1613,1498,1398,1372,1182,1018,821,739,709,587],"mode_totals":{"도보":6266,"기타":2243,"차량":5351,"일반버스":1753,"지하철":4834,"광역버스":19},"hour_mode":[{"도보":167,"기타":80,"차량":200,"일반버스":102,"지하철":54},{"일반버스":56,"차량":165,"도보":130,"기타":54,"지하철":88},{"차량":124,"기타":38,"도보":92,"일반버스":38,"지하철":30},{"일반버스":18,"차량":86,"도보":78,"기타":26,"지하철":18},{"기타":22,"도보":71,"차량":78,"일반버스":25,"지하철":32},{"도보":55,"일반버스":28,"차량":69,"기타":27,"지하철":53},{"도보":89,"지하철":63,"일반버스":21,"기타":36,"차량":122},{"일반버스":43,"지하철":125,"도보":94,"기타":54,"차량":203},{"기타":79,"도보":150,"차량":210,"지하철":124,"일반버스":54,"광역버스":4},{"차량":249,"도보":208,"기타":93,"지하철":210,"일반버스":69},{"기타":90,"지하철":245,"차량":263,"도보":229,"일반버스":78,"광역버스":7},{"기타":127,"지하철":305,"차량":324,"일반버스":87,"도보":329},{"지하철":384,"기타":204,"도보":371,"차량":338,"일반버스":125,"광역버스":6},{"지하철":467,"일반버스":151,"차량":350,"도보":445,"기타":200},{"지하철":494,"차량":363,"기타":180,"도보":424,"일반버스":152},{"지하철":509,"도보":379,"기타":128,"차량":365,"일반버스":117},{"지하철":400,"도보":376,"기타":169,"차량":352,"일반버스":101},{"차량":347,"도보":392,"기타":150,"일반버스":128,"지하철":353,"광역버스":2},{"도보":352,"차량":311,"일반버스":96,"기타":132,"지하철":291},{"도보":384,"차량":232,"기타":103,"일반버스":69,"지하철":230},{"차량":185,"도보":363,"기타":100,"일반버스":39,"지하철":134},{"차량":190,"기타":74,"도보":306,"지하철":98,"일반버스":71},{"지하철":101,"도보":377,"차량":124,"기타":46,"일반버스":61},{"도보":405,"기타":31,"일반버스":24,"차량":101,"지하철":26}],"dist_buckets":{"0-1":5409,"1-3":4081,"3-5":2178,"5-10":3724,"10-20":2754,"20+":2320},"inout":{"단기외국인":3572,"내국인":15756,"장기외국인":1138},"nationality":{"한국":15756,"기타":3659,"중국":776,"베트남":54,"인도네시아":34,"우즈베키스탄":31,"몽골":27,"캐나다":27,"기타국가":102},"hour_dist":[{"0-1":169,"1-3":114,"3-5":65,"5-10":125,"10-20":64,"20+":66},{"1-3":85,"0-1":119,"5-10":99,"3-5":52,"10-20":67,"20+":71},{"1-3":47,"0-1":94,"3-5":54,"5-10":64,"10-20":26,"20+":37},{"0-1":79,"1-3":36,"3-5":20,"5-10":37,"10-20":22,"20+":32},{"1-3":49,"5-10":46,"20+":36,"0-1":54,"3-5":23,"10-20":20},{"0-1":44,"5-10":40,"1-3":53,"10-20":20,"20+":41,"3-5":34},{"1-3":63,"3-5":43,"0-1":53,"5-10":54,"20+":94,"10-20":24},{"3-5":67,"1-3":83,"0-1":94,"5-10":86,"10-20":86,"20+":103},{"1-3":113,"0-1":124,"3-5":104,"5-10":115,"10-20":71,"20+":94},{"1-3":169,"0-1":164,"3-5":117,"5-10":163,"10-20":109,"20+":107},{"3-5":128,"5-10":180,"1-3":171,"0-1":214,"10-20":119,"20+":100},{"3-5":156,"1-3":265,"0-1":266,"5-10":199,"10-20":179,"20+":107},{"1-3":263,"0-1":330,"3-5":172,"5-10":304,"10-20":166,"20+":193},{"3-5":171,"1-3":340,"0-1":352,"5-10":285,"10-20":271,"20+":194},{"3-5":198,"1-3":261,"0-1":389,"5-10":259,"10-20":313,"20+":193},{"3-5":170,"1-3":277,"0-1":306,"5-10":298,"10-20":272,"20+":175},{"3-5":112,"1-3":339,"0-1":279,"5-10":299,"10-20":234,"20+":135},{"1-3":299,"0-1":301,"5-10":352,"3-5":124,"10-20":164,"20+":132},{"0-1":299,"1-3":269,"3-5":77,"5-10":211,"10-20":178,"20+":148},{"0-1":355,"1-3":229,"3-5":71,"5-10":139,"10-20":122,"20+":102},{"3-5":81,"1-3":176,"0-1":349,"5-10":99,"10-20":55,"20+":61},{"1-3":142,"0-1":269,"3-5":61,"5-10":111,"10-20":89,"20+":67},{"1-3":135,"0-1":347,"3-5":55,"5-10":87,"10-20":60,"20+":25},{"1-3":103,"0-1":359,"3-5":23,"5-10":72,"10-20":23,"20+":7}],"hour_inout":[{"단기외국인":119,"내국인":469,"장기외국인":15},{"내국인":380,"장기외국인":24,"단기외국인":89},{"내국인":238,"단기외국인":72,"장기외국인":12},{"내국인":154,"단기외국인":60,"장기외국인":12},{"내국인":174,"단기외국인":54},{"단기외국인":30,"내국인":177,"장기외국인":25},{"내국인":238,"단기외국인":65,"장기외국인":28},{"단기외국인":99,"내국인":396,"장기외국인":24},{"내국인":471,"단기외국인":114,"장기외국인":36},{"내국인":635,"단기외국인":142,"장기외국인":52},{"내국인":659,"단기외국인":148,"장기외국인":105},{"내국인":852,"단기외국인":235,"장기외국인":85},{"단기외국인":240,"장기외국인":72,"내국인":1116},{"내국인":1257,"단기외국인":246,"장기외국인":110},{"내국인":1297,"장기외국인":72,"단기외국인":244},{"내국인":1190,"단기외국인":256,"장기외국인":52},{"장기외국인":53,"내국인":1088,"단기외국인":257},{"내국인":1019,"단기외국인":250,"장기외국인":103},{"내국인":985,"단기외국인":167,"장기외국인":30},{"내국인":781,"단기외국인":184,"장기외국인":53},{"내국인":629,"단기외국인":139,"장기외국인":53},{"내국인":548,"단기외국인":146,"장기외국인":45},{"내국인":554,"단기외국인":122,"장기외국인":33},{"내국인":449,"장기외국인":44,"단기외국인":94}],"hour_nat":[{"기타":122,"한국":469,"베트남":3,"몽골":3,"태국":3,"중국":3},{"한국":380,"베트남":3,"기타":89,"중국":12,"러시아":3,"인도네시아":3,"스리랑카":3},{"한국":238,"기타":75,"중국":9},{"한국":154,"기타":63,"중국":6,"베트남":3},{"한국":174,"기타":54},{"기타":30,"한국":177,"중국":22,"베트남":3},{"한국":238,"기타":65,"중국":25,"캐나다":3},{"기타":99,"한국":396,"중국":21,"몽골":3},{"한국":471,"기타":114,"중국":36},{"한국":635,"기타":151,"중국":33,"우즈베키스탄":7,"인도네시아":3},{"한국":659,"기타":160,"중국":78,"몽골":6,"우즈베키스탄":6,"네팔":3},{"한국":852,"기타":241,"중국":57,"몽골":3,"베트남":3,"캐나다":6,"인도네시아":7,"미국":3},{"기타":243,"베트남":9,"한국":1116,"중국":45,"태국":3,"러시아":3,"미국":3,"우즈베키스탄":3,"필리핀":3},{"한국":1257,"기타":249,"중국":80,"미얀마":3,"러시아":3,"일본":3,"필리핀":6,"태국":3,"프랑스":3,"캐나다":3,"스리랑카":3},{"한국":1297,"기타":250,"중국":36,"스리랑카":3,"우즈베키스탄":9,"태국":3,"필리핀":6,"베트남":3,"몽골":3,"방글라데시":3},{"한국":1190,"기타":256,"중국":40,"우즈베키스탄":3,"인도네시아":6,"방글라데시":3},{"중국":38,"한국":1088,"베트남":3,"기타":263,"네팔":3,"우즈베키스탄":3},{"한국":1019,"기타":259,"중국":61,"캐나다":3,"인도네시아":15,"필리핀":3,"베트남":3,"인도":3,"미국":6},{"한국":985,"기타":167,"중국":18,"스리랑카":3,"캐나다":6,"몽골":3},{"한국":781,"기타":190,"중국":41,"일본":3,"카자흐스탄":3},{"한국":629,"기타":145,"캐나다":6,"중국":35,"몽골":3,"베트남":3},{"한국":548,"기타":152,"중국":36,"베트남":3},{"한국":554,"기타":128,"중국":18,"몽골":3,"베트남":6},{"한국":449,"중국":26,"베트남":9,"기타":94,"태국":3,"미국":3,"카자흐스탄":3}],"avg_dist":9300.79,"avg_time":111.85,"top3_share":16.82,"top10_share":33.65},"destinations":[{"dest_code":"11200535","dest_name":"서울특별시 성동구 왕십리도선동","dest_lat":37.56685334172042,"dest_lon":127.02960478797031,"total":1359,"byHour":[50,60,31,32,14,16,9,24,23,54,48,67,85,95,72,65,87,86,92,89,70,34,79,77],"byMode":{"도보":1059,"차량":80,"기타":59,"일반버스":151,"지하철":10}},{"dest_code":"11140615","dest_name":"서울특별시 중구 신당동","dest_lat":37.56569203810708,"dest_lon":127.01370437736728,"total":1293,"byHour":[28,13,23,9,20,13,6,32,19,19,45,35,43,57,64,63,63,59,90,149,141,88,87,127],"byMode":{"도보":1137,"지하철":13,"기타":48,"일반버스":61,"차량":34}},{"dest_code":"11110710","dest_name":"서울특별시 종로구 숭인2동","dest_lat":37.57449028350606,"dest_lon":127.02034252028352,"total":791,"byHour":[33,14,12,5,13,10,3,15,28,35,43,47,79,94,57,59,26,42,24,19,39,47,29,18],"byMode":{"도보":692,"일반버스":23,"차량":18,"기타":53,"지하철":5}},{"dest_code":"11140650","dest_name":"서울특별시 중구 신당5동","dest_lat":37.56363544684656,"dest_lon":127.02186699672764,"total":690,"byHour":[16,7,9,18,8,4,10,11,12,5,38,38,26,20,51,44,43,49,35,68,48,31,51,48],"byMode":{"도보":620,"일반버스":23,"기타":25,"차량":18,"지하철":4}},{"dest_code":"11230536","dest_name":"서울특별시 동대문구 용신동","dest_lat":37.57555956991103,"dest_lon":127.03245393139196,"total":666,"byHour":[16,21,15,6,8,14,13,6,22,20,34,44,52,41,68,42,39,36,27,27,38,31,22,24],"byMode":{"차량":55,"기타":98,"도보":434,"일반버스":45,"지하철":34}},{"dest_code":"11140590","dest_name":"서울특별시 중구 광희동","dest_lat":37.56515667820614,"dest_lon":127.0037641565018,"total":602,"byHour":[15,3,0,8,1,8,9,9,13,26,30,31,48,60,27,18,57,30,40,58,6,30,42,33],"byMode":{"기타":97,"차량":66,"도보":334,"일반버스":70,"지하철":32,"광역버스":3}},{"dest_code":"11110615","dest_name":"서울특별시 종로구 종로1.2.3.4가동","dest_lat":37.5751851101178,"dest_lon":126.98986468781813,"total":489,"byHour":[4,17,0,0,7,7,15,10,13,35,28,38,39,52,48,63,55,17,18,0,9,0,6,8],"byMode":{"기타":91,"일반버스":57,"지하철":175,"도보":137,"차량":27,"광역버스":2}},{"dest_code":"11200520","dest_name":"서울특별시 성동구 왕십리2동","dest_lat":37.56145032465671,"dest_lon":127.02772577618587,"total":345,"byHour":[22,6,7,4,7,0,3,3,7,16,9,18,16,12,18,3,11,22,24,27,15,27,39,29],"byMode":{"차량":58,"도보":220,"일반버스":18,"기타":45,"지하철":4}},{"dest_code":"41360000","dest_name":"경기도 남양주시","dest_lat":37.499986848135734,"dest_lon":127.13013581339527,"total":342,"byHour":[5,2,0,6,6,6,11,3,11,24,23,30,44,28,26,23,45,23,16,3,0,7,0,0],"byMode":{"차량":269,"지하철":65,"일반버스":8}},{"dest_code":"11140665","dest_name":"서울특별시 중구 동화동","dest_lat":37.56071034367642,"dest_lon":127.01865212037563,"total":310,"byHour":[16,3,0,5,1,0,13,0,14,6,14,12,30,23,43,17,8,17,31,3,7,13,26,8],"byMode":{"도보":235,"기타":35,"지하철":3,"차량":28,"일반버스":9}},{"dest_code":"11110670","dest_name":"서울특별시 종로구 창신1동","dest_lat":37.572369409740254,"dest_lon":127.0138035667275,"total":257,"byHour":[3,1,3,0,0,0,4,7,9,16,3,23,5,23,37,7,9,12,7,0,12,4,12,60],"byMode":{"도보":216,"차량":10,"지하철":7,"기타":19,"일반버스":5}},{"dest_code":"11140550","dest_name":"서울특별시 중구 명동","dest_lat":37.56395198524864,"dest_lon":126.9843039812854,"total":222,"byHour":[15,3,6,4,0,3,0,14,20,15,26,7,17,15,16,13,13,11,14,0,3,0,7,0],"byMode":{"지하철":86,"도보":33,"일반버스":63,"기타":24,"광역버스":4,"차량":12}},{"dest_code":"11230545","dest_name":"서울특별시 동대문구 제기동","dest_lat":37.58374909763264,"dest_lon":127.037224891713,"total":183,"byHour":[6,3,3,0,0,0,0,4,0,8,0,19,24,13,13,15,21,17,7,2,5,13,4,6],"byMode":{"차량":25,"지하철":36,"기타":56,"도보":43,"일반버스":23}},{"dest_code":"41281000","dest_name":"경기도 고양시 덕양구","dest_lat":37.649627638041935,"dest_lon":126.8792915793041,"total":168,"byHour":[3,3,4,0,3,0,3,4,7,9,10,6,4,25,9,17,17,9,6,17,0,7,5,0],"byMode":{"일반버스":9,"차량":95,"지하철":64}},{"dest_code":"11110630","dest_name":"서울특별시 종로구 종로5.6가동","dest_lat":37.57285780172435,"dest_lon":127.00439896298904,"total":163,"byHour":[0,0,2,3,0,0,3,0,3,12,13,10,11,26,12,20,20,23,2,0,0,3,0,0],"byMode":{"차량":26,"도보":92,"기타":21,"지하철":22,"일반버스":2}},{"dest_code":"11110700","dest_name":"서울특별시 종로구 숭인1동","dest_lat":37.57718293099928,"dest_lon":127.01689100283882,"total":159,"byHour":[0,6,3,0,4,0,0,6,3,3,5,13,13,3,18,5,17,10,15,3,24,2,3,3],"byMode":{"일반버스":3,"도보":111,"기타":25,"차량":17,"지하철":3}},{"dest_code":"11200540","dest_name":"서울특별시 성동구 마장동","dest_lat":37.567419343061054,"dest_lon":127.04059659160532,"total":158,"byHour":[7,6,3,0,0,7,6,0,11,7,6,9,6,4,15,15,13,19,3,8,3,3,7,0],"byMode":{"일반버스":19,"도보":42,"기타":48,"차량":25,"지하철":24}},{"dest_code":"11140625","dest_name":"서울특별시 중구 다산동","dest_lat":37.55493348743512,"dest_lon":127.00835522995278,"total":151,"byHour":[2,12,0,0,0,3,0,0,3,6,2,13,7,18,10,18,6,18,3,7,4,1,12,6],"byMode":{"차량":23,"기타":13,"도보":82,"지하철":24,"일반버스":9}},{"dest_code":"11440660","dest_name":"서울특별시 마포구 서교동","dest_lat":37.55474825664686,"dest_lon":126.9209373158581,"total":145,"byHour":[7,3,3,0,6,3,0,0,4,5,5,7,10,0,0,26,15,18,9,2,3,10,6,3],"byMode":{"도보":3,"지하철":102,"차량":20,"일반버스":12,"기타":8}},{"dest_code":"11200560","dest_name":"서울특별시 성동구 행당1동","dest_lat":37.55908846394766,"dest_lon":127.03617446091934,"total":141,"byHour":[10,0,0,0,5,4,6,6,4,10,12,9,5,17,3,3,1,4,14,12,11,3,2,0],"byMode":{"차량":21,"일반버스":41,"도보":36,"기타":17,"지하철":26}},{"dest_code":"11200550","dest_name":"서울특별시 성동구 사근동","dest_lat":37.55812210462368,"dest_lon":127.04539498048128,"total":137,"byHour":[9,2,3,0,3,0,8,3,0,6,0,3,17,10,6,8,8,6,20,7,0,2,10,6],"byMode":{"도보":36,"차량":19,"지하철":25,"기타":19,"일반버스":38}},{"dest_code":"11290610","dest_name":"서울특별시 성북구 보문동","dest_lat":37.58282567320133,"dest_lon":127.01913116701168,"total":134,"byHour":[8,0,0,0,0,0,0,0,3,0,3,12,0,7,5,16,9,9,8,14,27,13,0,0],"byMode":{"기타":56,"차량":22,"도보":39,"지하철":15,"일반버스":2}},{"dest_code":"11230705","dest_name":"서울특별시 동대문구 청량리동","dest_lat":37.58884114906816,"dest_lon":127.0452159465382,"total":130,"byHour":[0,6,0,4,0,3,0,1,3,0,9,8,22,21,14,15,6,3,0,6,3,6,0,0],"byMode":{"도보":23,"일반버스":40,"차량":31,"기타":15,"지하철":21}},{"dest_code":"11140520","dest_name":"서울특별시 중구 소공동","dest_lat":37.56425948239558,"dest_lon":126.974374701073,"total":128,"byHour":[0,0,3,0,4,0,4,7,15,9,6,11,9,10,11,15,8,8,3,1,4,0,0,0],"byMode":{"일반버스":28,"지하철":74,"차량":18,"도보":8}},{"dest_code":"41190000","dest_name":"경기도 부천시","dest_lat":37.50550297629228,"dest_lon":126.78368581527641,"total":127,"byHour":[2,3,0,0,0,0,3,4,0,0,3,2,16,3,3,19,17,3,14,15,7,10,3,0],"byMode":{"차량":47,"지하철":80}},{"dest_code":"41150000","dest_name":"경기도 의정부시","dest_lat":37.734716357852676,"dest_lon":127.06725685346728,"total":127,"byHour":[3,3,0,0,0,0,0,0,3,0,3,10,12,16,34,11,6,6,11,3,0,3,3,0],"byMode":{"차량":57,"지하철":70}},{"dest_code":"41450000","dest_name":"경기도 하남시","dest_lat":37.36950416558832,"dest_lon":127.0198651107115,"total":125,"byHour":[0,0,8,0,5,0,0,3,11,10,0,4,4,11,20,7,11,6,8,7,3,3,4,0],"byMode":{"차량":105,"지하철":20}},{"dest_code":"11200570","dest_name":"서울특별시 성동구 행당2동","dest_lat":37.55667485645122,"dest_lon":127.0296559501475,"total":124,"byHour":[3,12,0,3,0,0,0,4,2,4,0,5,6,6,6,11,10,12,6,18,0,13,3,0],"byMode":{"도보":49,"차량":16,"기타":25,"일반버스":31,"지하철":3}},{"dest_code":"11140645","dest_name":"서울특별시 중구 청구동","dest_lat":37.556881523903606,"dest_lon":127.01518808451291,"total":122,"byHour":[2,5,0,6,0,0,0,0,4,6,3,9,3,21,13,10,6,6,7,12,3,6,0,0],"byMode":{"기타":28,"차량":8,"일반버스":7,"도보":64,"지하철":15}},{"dest_code":"41135000","dest_name":"경기도 성남시 분당구","dest_lat":37.343356152174294,"dest_lon":127.0475848297475,"total":121,"byHour":[3,5,0,3,0,0,0,14,11,3,0,3,7,16,4,8,13,3,12,11,2,3,0,0],"byMode":{"차량":85,"지하철":36}},{"dest_code":"11680640","dest_name":"서울특별시 강남구 역삼1동","dest_lat":37.50084456440553,"dest_lon":127.03549896919056,"total":112,"byHour":[6,5,0,5,0,0,4,7,3,18,0,0,7,3,13,14,6,3,6,7,5,0,0,0],"byMode":{"차량":36,"일반버스":11,"지하철":49,"기타":16}},{"dest_code":"11230560","dest_name":"서울특별시 동대문구 전농1동","dest_lat":37.57921920382841,"dest_lon":127.05095444400315,"total":109,"byHour":[3,6,3,3,0,0,0,0,0,3,11,6,12,0,0,17,10,19,0,4,9,0,0,3],"byMode":{"일반버스":23,"기타":40,"도보":12,"차량":21,"지하철":13}},{"dest_code":"41310000","dest_name":"경기도 구리시","dest_lat":37.60586949409455,"dest_lon":127.13384534548024,"total":108,"byHour":[1,6,0,0,0,0,0,0,0,2,0,3,10,16,10,7,12,17,7,6,0,6,2,3],"byMode":{"차량":76,"일반버스":12,"지하철":17,"기타":3}},{"dest_code":"11290600","dest_name":"서울특별시 성북구 안암동","dest_lat":37.58772731341445,"dest_lon":127.0272202199731,"total":105,"byHour":[6,0,4,3,0,3,0,0,6,4,4,0,12,10,6,0,9,3,1,7,10,11,3,3],"byMode":{"일반버스":13,"기타":21,"지하철":32,"도보":36,"차량":3}},{"dest_code":"41590000","dest_name":"경기도 화성시","dest_lat":37.188721290130374,"dest_lon":126.91692195199953,"total":102,"byHour":[17,3,0,2,0,6,7,6,0,6,3,3,10,3,3,9,6,0,10,3,2,3,0,0],"byMode":{"차량":79,"지하철":23}},{"dest_code":"41480000","dest_name":"경기도 파주시","dest_lat":37.83456901910601,"dest_lon":126.81843235288909,"total":98,"byHour":[3,0,0,0,0,1,0,0,5,0,6,12,17,3,9,11,3,4,18,0,2,4,0,0],"byMode":{"차량":75,"지하철":19,"일반버스":4}},{"dest_code":"41630000","dest_name":"경기도 양주시","dest_lat":37.80669130418161,"dest_lon":127.02693543621365,"total":97,"byHour":[3,3,0,0,0,0,0,6,3,4,0,9,6,19,2,14,0,0,20,6,2,0,0,0],"byMode":{"차량":86,"지하철":11}},{"dest_code":"11200615","dest_name":"서울특별시 성동구 금호2.3가동","dest_lat":37.551403228517714,"dest_lon":127.01996841446868,"total":95,"byHour":[4,0,0,3,3,3,3,12,0,10,0,0,3,0,0,7,15,3,13,0,10,3,3,0],"byMode":{"기타":46,"차량":15,"일반버스":10,"도보":14,"지하철":10}},{"dest_code":"11680545","dest_name":"서울특별시 강남구 압구정동","dest_lat":37.52975201322973,"dest_lon":127.0343137422465,"total":95,"byHour":[0,4,0,3,3,6,11,6,3,6,0,7,6,9,10,9,6,3,0,0,0,0,3,0],"byMode":{"차량":23,"기타":19,"지하철":25,"일반버스":21,"도보":7}},{"dest_code":"11140540","dest_name":"서울특별시 중구 회현동","dest_lat":37.556941169823126,"dest_lon":126.97710184371688,"total":91,"byHour":[3,0,7,0,3,0,0,0,10,11,6,2,3,10,8,4,0,3,5,3,0,5,8,0],"byMode":{"일반버스":43,"도보":6,"지하철":14,"차량":16,"기타":12}},{"dest_code":"11290555","dest_name":"서울특별시 성북구 삼선동","dest_lat":37.58655334505262,"dest_lon":127.01170655968308,"total":82,"byHour":[7,2,3,0,0,0,0,0,4,0,13,0,7,0,0,0,13,16,10,0,5,0,2,0],"byMode":{"기타":37,"일반버스":3,"차량":25,"도보":14,"지하철":3}},{"dest_code":"11170685","dest_name":"서울특별시 용산구 한남동","dest_lat":37.53752670451259,"dest_lon":127.00517642150815,"total":81,"byHour":[8,4,2,0,4,0,0,0,0,4,8,3,0,6,2,7,3,6,2,3,7,4,2,6],"byMode":{"기타":25,"차량":19,"일반버스":16,"지하철":12,"도보":9}},{"dest_code":"11110680","dest_name":"서울특별시 종로구 창신2동","dest_lat":37.576027279824935,"dest_lon":127.01018845877414,"total":81,"byHour":[0,2,3,0,3,0,3,0,3,3,0,9,0,9,9,2,13,9,7,3,3,0,0,0],"byMode":{"기타":19,"차량":7,"도보":52,"일반버스":3}},{"dest_code":"11560540","dest_name":"서울특별시 영등포구 여의동","dest_lat":37.52850578910781,"dest_lon":126.92847171849878,"total":81,"byHour":[0,10,2,0,2,0,7,0,2,0,15,0,9,5,0,4,12,5,0,5,0,0,0,3],"byMode":{"차량":34,"지하철":47}},{"dest_code":"11200590","dest_name":"서울특별시 성동구 금호1가동","dest_lat":37.55358521026265,"dest_lon":127.02498152648928,"total":79,"byHour":[0,0,0,0,0,3,0,7,3,0,2,8,0,6,0,11,6,0,16,7,7,3,0,0],"byMode":{"일반버스":24,"도보":28,"기타":14,"차량":13}},{"dest_code":"11140605","dest_name":"서울특별시 중구 을지로동","dest_lat":37.56662089067183,"dest_lon":126.99656106916466,"total":78,"byHour":[0,0,0,3,0,0,3,0,6,0,2,19,4,8,0,3,2,10,12,6,0,0,0,0],"byMode":{"차량":9,"기타":20,"도보":11,"지하철":23,"일반버스":15}},{"dest_code":"11170625","dest_name":"서울특별시 용산구 한강로동","dest_lat":37.529126544010914,"dest_lon":126.96859195571264,"total":78,"byHour":[0,0,0,2,0,0,0,7,0,7,8,10,7,10,0,6,4,3,7,0,5,0,2,0],"byMode":{"지하철":36,"차량":27,"기타":15}},{"dest_code":"11200580","dest_name":"서울특별시 성동구 응봉동","dest_lat":37.55088018231112,"dest_lon":127.03372254688416,"total":77,"byHour":[0,4,0,0,0,0,0,0,0,0,0,8,8,10,7,10,0,0,3,7,3,6,11,0],"byMode":{"일반버스":27,"기타":15,"차량":10,"도보":15,"지하철":10}},{"dest_code":"11170660","dest_name":"서울특별시 용산구 이태원2동","dest_lat":37.54176099713294,"dest_lon":126.99205543091884,"total":77,"byHour":[0,2,4,0,0,3,0,0,3,0,11,7,6,7,0,3,16,3,0,5,7,0,0,0],"byMode":{"일반버스":5,"기타":28,"도보":12,"지하철":15,"차량":17}},{"dest_code":"11110640","dest_name":"서울특별시 종로구 이화동","dest_lat":37.579720415124406,"dest_lon":127.00302249905796,"total":76,"byHour":[2,0,0,0,3,0,0,0,8,0,3,11,4,13,5,9,3,3,2,3,0,5,2,0],"byMode":{"기타":27,"도보":24,"일반버스":10,"차량":8,"지하철":7}},{"dest_code":"11650581","dest_name":"서울특별시 서초구 반포4동","dest_lat":37.49955079316065,"dest_lon":127.00335326541664,"total":76,"byHour":[0,0,3,3,0,0,0,6,9,9,10,12,0,2,3,8,4,7,0,0,0,0,0,0],"byMode":{"차량":29,"기타":11,"일반버스":7,"지하철":25,"도보":4}},{"dest_code":"41610000","dest_name":"경기도 광주시","dest_lat":37.40548200343057,"dest_lon":127.07867581047574,"total":75,"byHour":[3,0,3,0,0,3,0,3,0,6,0,3,13,13,4,3,0,7,5,6,3,0,0,0],"byMode":{"차량":62,"지하철":9,"일반버스":4}},{"dest_code":"11140570","dest_name":"서울특별시 중구 필동","dest_lat":37.55686552734,"dest_lon":126.9937710670784,"total":74,"byHour":[0,3,3,0,0,0,0,4,3,3,9,4,8,3,11,2,0,3,3,4,2,3,5,1],"byMode":{"기타":23,"일반버스":20,"도보":12,"지하철":8,"차량":11}},{"dest_code":"11710710","dest_name":"서울특별시 송파구 잠실6동","dest_lat":37.51977242300996,"dest_lon":127.09946333893738,"total":71,"byHour":[3,3,3,0,0,0,1,4,0,6,10,7,7,3,8,3,6,0,0,0,3,0,4,0],"byMode":{"지하철":54,"기타":3,"차량":14}},{"dest_code":"41133000","dest_name":"경기도 성남시 중원구","dest_lat":37.4401898442391,"dest_lon":127.15643515376328,"total":70,"byHour":[0,3,0,0,0,0,0,0,0,7,2,7,9,4,9,7,3,5,9,0,0,3,2,0],"byMode":{"차량":12,"지하철":54,"일반버스":4}},{"dest_code":"11200645","dest_name":"서울특별시 성동구 옥수동","dest_lat":37.5408468250741,"dest_lon":127.02058131269956,"total":70,"byHour":[0,0,0,0,0,0,0,10,4,3,4,3,6,5,6,3,10,0,3,0,3,3,7,0],"byMode":{"기타":25,"일반버스":15,"차량":6,"도보":12,"지하철":12}},{"dest_code":"11200650","dest_name":"서울특별시 성동구 성수1가1동","dest_lat":37.54079129639183,"dest_lon":127.0422669149362,"total":69,"byHour":[0,0,7,0,0,0,0,0,3,12,2,11,5,6,8,0,4,2,3,0,0,0,3,3],"byMode":{"일반버스":17,"기타":16,"도보":6,"지하철":21,"차량":9}},{"dest_code":"11140580","dest_name":"서울특별시 중구 장충동","dest_lat":37.55556223301621,"dest_lon":127.00216552652044,"total":68,"byHour":[1,0,0,0,0,6,0,3,5,12,3,0,11,3,9,3,3,0,0,3,1,0,3,2],"byMode":{"지하철":7,"기타":22,"일반버스":13,"도보":20,"차량":6}},{"dest_code":"41461000","dest_name":"경기도 용인시 처인구","dest_lat":37.28629442750663,"dest_lon":127.26600758788916,"total":67,"byHour":[6,4,0,0,0,4,0,0,0,13,0,0,3,10,7,13,2,2,3,0,0,0,0,0],"byMode":{"차량":64,"지하철":3}},{"dest_code":"11200660","dest_name":"서울특별시 성동구 성수1가2동","dest_lat":37.54901484449546,"dest_lon":127.0436492176911,"total":67,"byHour":[0,9,4,0,0,0,0,0,0,4,3,11,3,0,17,5,0,6,0,1,0,4,0,0],"byMode":{"차량":6,"지하철":46,"일반버스":14,"도보":1}},{"dest_code":"11200690","dest_name":"서울특별시 성동구 성수2가3동","dest_lat":37.54557042563956,"dest_lon":127.0580830001602,"total":67,"byHour":[0,3,0,3,0,0,3,0,3,6,2,0,8,9,0,0,2,6,8,3,0,8,3,0],"byMode":{"지하철":37,"차량":15,"도보":3,"일반버스":9,"기타":3}},{"dest_code":"11110690","dest_name":"서울특별시 종로구 창신3동","dest_lat":37.578954002650136,"dest_lon":127.01322200243024,"total":66,"byHour":[6,3,0,0,0,0,3,3,3,11,0,0,6,6,3,0,3,6,4,9,0,0,0,0],"byMode":{"도보":47,"차량":9,"기타":10}},{"dest_code":"11110650","dest_name":"서울특별시 종로구 혜화동","dest_lat":37.58747073793072,"dest_lon":126.99742981655449,"total":66,"byHour":[0,3,0,0,0,0,0,0,0,5,0,0,2,6,4,6,7,10,0,3,14,3,3,0],"byMode":{"도보":28,"지하철":18,"일반버스":5,"차량":12,"기타":3}},{"dest_code":"11305555","dest_name":"서울특별시 강북구 송천동","dest_lat":37.61818602699557,"dest_lon":127.02490811255753,"total":66,"byHour":[0,0,0,0,3,3,0,3,0,0,0,0,0,11,3,13,3,5,6,0,7,0,7,2],"byMode":{"지하철":27,"일반버스":3,"기타":26,"차량":10}},{"dest_code":"28260000","dest_name":"인천광역시 서구","dest_lat":37.551917632324844,"dest_lon":126.66445682677698,"total":66,"byHour":[0,0,0,0,0,0,5,0,0,0,3,0,6,18,3,6,0,3,6,0,8,8,0,0],"byMode":{"차량":41,"지하철":25}},{"dest_code":"11110530","dest_name":"서울특별시 종로구 사직동","dest_lat":37.573888361464974,"dest_lon":126.97037626951352,"total":62,"byHour":[0,0,0,0,0,0,0,4,7,3,10,14,9,7,2,0,3,0,0,3,0,0,0,0],"byMode":{"지하철":25,"일반버스":13,"도보":5,"기타":17,"차량":2}},{"dest_code":"28110000","dest_name":"인천광역시 중구","dest_lat":37.47141496060051,"dest_lon":126.52395854381086,"total":61,"byHour":[3,0,6,13,3,3,6,11,0,5,0,2,0,0,3,0,0,6,0,0,0,0,0,0],"byMode":{"차량":46,"지하철":15}},{"dest_code":"11680565","dest_name":"서울특별시 강남구 청담동","dest_lat":37.52439200058359,"dest_lon":127.05046431883062,"total":60,"byHour":[5,0,0,0,3,4,0,1,8,7,0,2,3,0,5,0,7,5,6,0,0,2,2,0],"byMode":{"차량":19,"기타":14,"지하철":25,"일반버스":2}},{"dest_code":"41390000","dest_name":"경기도 시흥시","dest_lat":37.47485799700193,"dest_lon":126.7731409367625,"total":60,"byHour":[5,0,0,0,0,0,0,0,4,4,6,4,6,4,14,0,7,6,0,0,0,0,0,0],"byMode":{"차량":28,"지하철":32}},{"dest_code":"11230660","dest_name":"서울특별시 동대문구 장안2동","dest_lat":37.575642244821466,"dest_lon":127.07207254160916,"total":60,"byHour":[0,7,3,0,0,0,0,0,0,4,3,0,7,4,4,10,4,3,3,3,3,0,0,2],"byMode":{"일반버스":10,"기타":15,"차량":28,"지하철":7}},{"dest_code":"41570000","dest_name":"경기도 김포시","dest_lat":37.67143532627648,"dest_lon":126.65858277486879,"total":59,"byHour":[0,0,0,0,0,0,0,3,3,3,4,6,4,3,0,9,6,5,3,0,3,3,4,0],"byMode":{"차량":44,"지하철":15}},{"dest_code":"11410585","dest_name":"서울특별시 서대문구 신촌동","dest_lat":37.56407622470931,"dest_lon":126.94157870314548,"total":58,"byHour":[2,8,0,0,0,0,6,0,0,11,0,0,4,3,7,0,0,7,0,4,0,3,3,0],"byMode":{"일반버스":9,"차량":17,"지하철":29,"기타":3}},{"dest_code":"11680580","dest_name":"서울특별시 강남구 삼성1동","dest_lat":37.515304490815694,"dest_lon":127.06080229728146,"total":57,"byHour":[0,0,0,0,0,6,0,0,4,0,9,10,3,3,5,0,2,3,7,0,0,5,0,0],"byMode":{"지하철":34,"차량":21,"기타":2}},{"dest_code":"11290705","dest_name":"서울특별시 성북구 종암동","dest_lat":37.59744123601206,"dest_lon":127.03386559835234,"total":56,"byHour":[2,0,0,0,3,0,4,0,0,0,3,2,3,11,14,3,0,0,6,0,3,0,2,0],"byMode":{"일반버스":19,"차량":12,"지하철":9,"기타":13,"도보":3}},{"dest_code":"28237000","dest_name":"인천광역시 부평구","dest_lat":37.49675976287217,"dest_lon":126.72142590462538,"total":56,"byHour":[0,7,0,0,0,0,0,0,3,7,4,0,0,9,0,7,7,5,0,0,7,0,0,0],"byMode":{"지하철":34,"차량":22}},{"dest_code":"11110515","dest_name":"서울특별시 종로구 청운효자동","dest_lat":37.58441429722301,"dest_lon":126.96991655860823,"total":56,"byHour":[0,0,0,0,0,0,0,0,6,9,4,6,0,12,4,0,11,0,0,2,2,0,0,0],"byMode":{"차량":26,"지하철":18,"기타":5,"일반버스":3,"도보":4}},{"dest_code":"11290725","dest_name":"서울특별시 성북구 월곡2동","dest_lat":37.60322817296127,"dest_lon":127.04540282444948,"total":56,"byHour":[0,0,0,0,0,0,0,0,0,3,3,2,5,5,10,13,0,7,0,0,3,5,0,0],"byMode":{"기타":15,"지하철":28,"차량":5,"일반버스":4,"도보":4}},{"dest_code":"11170510","dest_name":"서울특별시 용산구 후암동","dest_lat":37.54990604425638,"dest_lon":126.9806148822003,"total":55,"byHour":[3,0,10,3,0,0,0,6,0,3,0,6,0,0,8,0,3,6,0,0,4,0,3,0],"byMode":{"도보":3,"차량":10,"지하철":7,"기타":15,"일반버스":20}},{"dest_code":"11290810","dest_name":"서울특별시 성북구 석관동","dest_lat":37.6082777586919,"dest_lon":127.06135785311592,"total":54,"byHour":[3,3,0,0,0,0,0,6,0,0,0,6,0,4,3,6,0,7,3,0,0,0,3,10],"byMode":{"기타":6,"차량":22,"일반버스":16,"지하철":10}},{"dest_code":"41285000","dest_name":"경기도 고양시 일산동구","dest_lat":37.67448923708656,"dest_lon":126.78860001158372,"total":54,"byHour":[0,3,0,0,0,2,3,0,0,0,3,0,6,3,14,0,6,0,3,6,2,3,0,0],"byMode":{"차량":25,"지하철":26,"일반버스":3}},{"dest_code":"11230600","dest_name":"서울특별시 동대문구 답십리1동","dest_lat":37.57127849359092,"dest_lon":127.05187621664231,"total":54,"byHour":[0,0,4,0,0,0,0,3,3,0,0,9,0,3,4,3,5,8,0,5,3,4,0,0],"byMode":{"도보":4,"기타":18,"차량":11,"일반버스":21}},{"dest_code":"11140635","dest_name":"서울특별시 중구 약수동","dest_lat":37.55014909147207,"dest_lon":127.010287617014,"total":53,"byHour":[0,0,0,0,3,0,0,0,0,0,0,4,3,0,5,6,5,10,12,0,2,0,3,0],"byMode":{"기타":20,"지하철":11,"도보":13,"차량":9}},{"dest_code":"11230650","dest_name":"서울특별시 동대문구 장안1동","dest_lat":37.56623849893862,"dest_lon":127.06852139262412,"total":52,"byHour":[3,0,0,0,0,0,0,3,0,0,3,3,14,3,3,4,4,0,0,6,3,3,0,0],"byMode":{"차량":19,"일반버스":13,"기타":9,"도보":4,"지하철":7}},{"dest_code":"11230720","dest_name":"서울특별시 동대문구 휘경1동","dest_lat":37.59195524614219,"dest_lon":127.062600743137,"total":52,"byHour":[3,0,0,0,0,4,0,0,0,0,0,0,0,9,0,8,5,4,5,3,2,0,6,3],"byMode":{"일반버스":6,"차량":13,"기타":7,"지하철":26}},{"dest_code":"11680521","dest_name":"서울특별시 강남구 논현1동","dest_lat":37.51187028229869,"dest_lon":127.0264993269889,"total":52,"byHour":[2,4,2,3,0,3,0,0,7,3,5,0,3,0,3,0,3,3,3,0,5,0,3,0],"byMode":{"차량":27,"기타":6,"일반버스":7,"지하철":12}},{"dest_code":"11215840","dest_name":"서울특별시 광진구 자양3동","dest_lat":37.53136730001344,"dest_lon":127.07101776119092,"total":52,"byHour":[2,0,0,0,0,0,0,0,2,0,5,0,7,3,3,12,11,7,0,0,0,0,0,0],"byMode":{"기타":18,"지하철":15,"차량":13,"도보":3,"일반버스":3}},{"dest_code":"11410615","dest_name":"서울특별시 서대문구 연희동","dest_lat":37.57222900345364,"dest_lon":126.9327932236587,"total":51,"byHour":[0,1,0,4,0,0,3,0,3,0,0,4,0,5,9,0,7,3,3,6,0,3,0,0],"byMode":{"차량":27,"지하철":16,"기타":8}},{"dest_code":"41650000","dest_name":"경기도 포천시","dest_lat":37.96171946575621,"dest_lon":127.26610407319367,"total":51,"byHour":[0,0,11,0,5,0,3,0,0,0,0,10,7,6,0,3,6,0,0,0,0,0,0,0],"byMode":{"차량":51}},{"dest_code":"11350600","dest_name":"서울특별시 노원구 공릉2동","dest_lat":37.63162259238021,"dest_lon":127.0943219666906,"total":51,"byHour":[0,0,0,0,0,0,0,0,6,3,6,0,6,7,3,3,0,11,0,0,0,3,3,0],"byMode":{"차량":30,"지하철":15,"기타":6}},{"dest_code":"11230610","dest_name":"서울특별시 동대문구 답십리2동","dest_lat":37.57077961957078,"dest_lon":127.061035791701,"total":50,"byHour":[6,0,0,0,0,0,3,5,0,0,0,3,10,0,7,12,0,4,0,0,0,0,0,0],"byMode":{"차량":22,"일반버스":3,"기타":18,"도보":7}},{"dest_code":"11215847","dest_name":"서울특별시 광진구 자양4동","dest_lat":37.533751301916645,"dest_lon":127.06362060389492,"total":50,"byHour":[0,0,3,0,0,0,10,0,0,4,0,0,2,3,0,3,7,6,4,2,0,6,0,0],"byMode":{"일반버스":3,"기타":10,"지하철":30,"차량":3,"도보":4}},{"dest_code":"11680531","dest_name":"서울특별시 강남구 논현2동","dest_lat":37.515240004514055,"dest_lon":127.03621131519049,"total":49,"byHour":[0,4,2,0,0,0,2,0,0,0,0,0,0,0,2,4,0,18,3,9,0,3,2,0],"byMode":{"차량":30,"기타":2,"지하철":13,"일반버스":4}},{"dest_code":"11560535","dest_name":"서울특별시 영등포구 영등포동","dest_lat":37.5215927643813,"dest_lon":126.90759905216817,"total":49,"byHour":[0,0,0,0,0,3,0,0,0,0,0,4,8,11,6,12,0,3,0,0,0,0,2,0],"byMode":{"지하철":32,"차량":9,"기타":6,"일반버스":2}},{"dest_code":"41465000","dest_name":"경기도 용인시 수지구","dest_lat":37.326248248516436,"dest_lon":127.0934288338114,"total":48,"byHour":[3,0,0,3,0,0,0,0,0,0,4,0,0,7,6,3,0,2,5,9,3,3,0,0],"byMode":{"차량":41,"지하철":7}},{"dest_code":"11680510","dest_name":"서울특별시 강남구 신사동","dest_lat":37.48582557530138,"dest_lon":126.91862482695264,"total":48,"byHour":[0,5,0,0,0,4,3,0,0,2,0,9,5,0,12,0,3,0,5,0,0,0,0,0],"byMode":{"차량":22,"지하철":4,"기타":19,"일반버스":3}},{"dest_code":"11290575","dest_name":"서울특별시 성북구 동선동","dest_lat":37.5936493450371,"dest_lon":127.01851500591876,"total":47,"byHour":[3,1,0,0,0,0,1,0,1,0,0,3,2,3,0,3,9,8,11,0,0,2,0,0],"byMode":{"기타":18,"차량":5,"도보":7,"지하철":13,"일반버스":4}},{"dest_code":"28200000","dest_name":"인천광역시 남동구","dest_lat":37.43192339404375,"dest_lon":126.72860496443539,"total":46,"byHour":[0,3,0,0,0,0,0,3,0,3,0,0,3,0,2,0,9,8,9,0,3,0,3,0],"byMode":{"차량":28,"지하철":18}},{"dest_code":"41287000","dest_name":"경기도 고양시 일산서구","dest_lat":37.68371227665847,"dest_lon":126.73667598673386,"total":45,"byHour":[0,4,0,0,0,0,0,0,0,0,4,3,6,0,5,3,0,3,10,4,0,3,0,0],"byMode":{"차량":25,"지하철":20}},{"dest_code":"41131000","dest_name":"경기도 성남시 수정구","dest_lat":37.37105411909495,"dest_lon":127.08463771782306,"total":43,"byHour":[0,0,3,2,0,0,0,0,2,0,0,0,4,9,11,7,0,0,3,0,0,2,0,0],"byMode":{"일반버스":3,"차량":10,"지하철":30}},{"dest_code":"11215710","dest_name":"서울특별시 광진구 화양동","dest_lat":37.54324391553551,"dest_lon":127.07320129238096,"total":42,"byHour":[4,3,2,0,0,0,0,0,0,0,9,3,0,0,2,5,0,5,3,3,0,0,0,3],"byMode":{"차량":7,"일반버스":2,"지하철":23,"기타":10}},{"dest_code":"41463000","dest_name":"경기도 용인시 기흥구","dest_lat":37.27016138149834,"dest_lon":127.12174222261396,"total":42,"byHour":[0,0,2,0,3,0,0,0,0,3,5,3,0,0,3,0,0,4,0,10,3,0,3,3],"byMode":{"차량":26,"지하철":16}},{"dest_code":"11290630","dest_name":"서울특별시 성북구 정릉2동","dest_lat":37.60367473957296,"dest_lon":127.00849918964212,"total":42,"byHour":[0,0,0,0,3,0,0,0,4,3,0,3,0,9,9,0,0,6,3,2,0,0,0,0],"byMode":{"기타":15,"차량":10,"지하철":17}},{"dest_code":"11440600","dest_name":"서울특별시 마포구 대흥동","dest_lat":37.55203673830288,"dest_lon":126.941465433121,"total":41,"byHour":[0,1,0,0,3,0,0,0,3,6,0,2,5,0,0,2,14,3,2,0,0,0,0,0],"byMode":{"차량":6,"일반버스":7,"기타":3,"지하철":25}},{"dest_code":"11200670","dest_name":"서울특별시 성동구 성수2가1동","dest_lat":37.53635415252142,"dest_lon":127.05530799237364,"total":41,"byHour":[0,3,3,0,0,0,0,0,0,6,4,0,0,0,3,7,0,0,0,6,3,0,3,3],"byMode":{"기타":6,"차량":24,"지하철":3,"일반버스":8}},{"dest_code":"41820000","dest_name":"경기도 가평군","dest_lat":37.79892909371546,"dest_lon":127.4184547911432,"total":40,"byHour":[0,6,0,0,0,7,0,3,3,0,8,4,0,2,3,4,0,0,0,0,0,0,0,0],"byMode":{"지하철":13,"차량":27}},{"dest_code":"11650652","dest_name":"서울특별시 서초구 양재2동","dest_lat":37.45115190053303,"dest_lon":127.04575266779251,"total":39,"byHour":[0,3,0,0,0,0,0,7,3,3,0,3,0,4,7,0,3,0,4,2,0,0,0,0],"byMode":{"차량":25,"기타":3,"지하철":8,"일반버스":3}},{"dest_code":"11260550","dest_name":"서울특별시 중랑구 면목5동","dest_lat":37.58251779356648,"dest_lon":127.07887986158896,"total":39,"byHour":[0,3,0,0,0,0,0,0,0,3,0,0,7,3,0,0,7,16,0,0,0,0,0,0],"byMode":{"차량":15,"일반버스":10,"기타":14}},{"dest_code":"28245000","dest_name":"인천광역시 계양구","dest_lat":37.550593316649156,"dest_lon":126.73155771181368,"total":39,"byHour":[0,0,0,0,0,0,0,0,0,0,3,4,0,7,8,8,0,6,0,0,0,0,3,0],"byMode":{"차량":13,"지하철":26}},{"dest_code":"41290000","dest_name":"경기도 과천시","dest_lat":37.423740962106564,"dest_lon":127.05507263330537,"total":38,"byHour":[3,0,3,0,0,0,0,6,7,0,3,6,0,3,0,4,0,0,3,0,0,0,0,0],"byMode":{"차량":17,"지하철":21}},{"dest_code":"28177000","dest_name":"인천광역시 미추홀구","dest_lat":37.454993999101355,"dest_lon":126.6669174900286,"total":38,"byHour":[0,6,0,0,0,0,4,0,0,0,0,4,0,4,8,3,0,3,4,0,0,2,0,0],"byMode":{"차량":21,"지하철":17}},{"dest_code":"11200790","dest_name":"서울특별시 성동구 용답동","dest_lat":37.55891652518783,"dest_lon":127.0574723637532,"total":38,"byHour":[0,0,0,0,0,0,0,0,0,0,0,4,9,2,0,0,0,5,4,3,5,6,0,0],"byMode":{"차량":17,"지하철":4,"일반버스":8,"기타":4,"도보":5}},{"dest_code":"11170530","dest_name":"서울특별시 용산구 남영동","dest_lat":37.54402977875616,"dest_lon":126.97482841022224,"total":37,"byHour":[0,3,0,0,0,3,3,0,0,0,0,3,4,0,10,3,2,3,3,0,0,0,0,0],"byMode":{"지하철":25,"일반버스":12}},{"dest_code":"41670000","dest_name":"경기도 여주시","dest_lat":37.31553893114828,"dest_lon":127.43933036990093,"total":36,"byHour":[0,3,0,0,0,3,0,2,3,0,7,4,0,0,7,0,0,5,2,0,0,0,0,0],"byMode":{"차량":33,"기타":3}},{"dest_code":"11320690","dest_name":"서울특별시 도봉구 방학1동","dest_lat":37.66504454735848,"dest_lon":127.04347666289463,"total":36,"byHour":[0,4,0,0,0,0,0,0,4,0,0,0,0,0,4,0,0,4,4,16,0,0,0,0],"byMode":{"차량":16,"지하철":20}},{"dest_code":"11215730","dest_name":"서울특별시 광진구 군자동","dest_lat":37.55304249812136,"dest_lon":127.0737075306132,"total":36,"byHour":[0,0,2,8,0,0,3,0,0,0,3,0,7,0,0,0,5,2,0,0,0,3,0,3],"byMode":{"차량":18,"광역버스":6,"지하철":4,"일반버스":7,"기타":1}},{"dest_code":"11530530","dest_name":"서울특별시 구로구 구로2동","dest_lat":37.49687628698088,"dest_lon":126.8799181309095,"total":36,"byHour":[0,0,0,0,0,0,0,0,0,0,4,0,0,3,3,10,8,0,0,4,0,4,0,0],"byMode":{"차량":15,"지하철":21}},{"dest_code":"11440565","dest_name":"서울특별시 마포구 공덕동","dest_lat":37.54931836441306,"dest_lon":126.9579452158936,"total":35,"byHour":[2,3,0,0,0,0,0,2,0,0,3,0,2,0,0,3,7,0,0,7,3,0,3,0],"byMode":{"차량":2,"기타":5,"지하철":21,"일반버스":7}},{"dest_code":"41430000","dest_name":"경기도 의왕시","dest_lat":37.361396006690704,"dest_lon":126.94030436907624,"total":35,"byHour":[3,3,0,3,3,0,0,0,4,0,3,4,4,3,3,2,0,0,0,0,0,0,0,0],"byMode":{"차량":21,"지하철":14}},{"dest_code":"11170650","dest_name":"서울특별시 용산구 이태원1동","dest_lat":37.53336138104397,"dest_lon":126.9932419402934,"total":35,"byHour":[0,0,2,0,0,4,0,0,0,0,0,0,0,8,0,0,0,8,0,3,3,4,0,3],"byMode":{"지하철":15,"일반버스":3,"기타":7,"차량":10}},{"dest_code":"41273000","dest_name":"경기도 안산시 단원구","dest_lat":37.339212489724645,"dest_lon":126.87047300470854,"total":35,"byHour":[0,0,0,0,0,0,3,2,0,3,0,0,3,0,7,3,4,6,0,0,0,0,4,0],"byMode":{"지하철":24,"차량":11}},{"dest_code":"11260575","dest_name":"서울특별시 중랑구 면목3.8동","dest_lat":37.58448873711785,"dest_lon":127.09834881069246,"total":35,"byHour":[0,0,0,0,0,0,0,0,0,0,0,0,3,11,4,7,4,0,0,3,0,3,0,0],"byMode":{"차량":6,"지하철":12,"기타":10,"일반버스":7}},{"dest_code":"11290760","dest_name":"서울특별시 성북구 장위1동","dest_lat":37.61509907407851,"dest_lon":127.04465522374312,"total":34,"byHour":[3,0,0,0,0,0,0,0,3,0,0,11,10,0,3,0,0,0,4,0,0,0,0,0],"byMode":{"차량":14,"일반버스":10,"지하철":7,"기타":3}},{"dest_code":"41410000","dest_name":"경기도 군포시","dest_lat":37.38749950050759,"dest_lon":126.87595792662376,"total":34,"byHour":[0,0,0,0,0,0,3,0,0,0,3,0,13,0,8,0,0,0,7,0,0,0,0,0],"byMode":{"차량":20,"지하철":14}},{"dest_code":"11305660","dest_name":"서울특별시 강북구 인수동","dest_lat":37.63740468445943,"dest_lon":127.00354840273708,"total":33,"byHour":[3,0,0,0,0,0,0,0,0,0,3,6,3,4,4,0,4,3,3,0,0,0,0,0],"byMode":{"차량":12,"기타":6,"지하철":15}},{"dest_code":"11440680","dest_name":"서울특별시 마포구 합정동","dest_lat":37.54696313264598,"dest_lon":126.90895734464794,"total":33,"byHour":[3,4,2,0,0,0,0,0,3,0,4,2,3,4,0,0,3,0,3,2,0,0,0,0],"byMode":{"일반버스":3,"지하철":28,"기타":2}},{"dest_code":"11305635","dest_name":"서울특별시 강북구 수유3동","dest_lat":37.64050078144628,"dest_lon":127.02344785512156,"total":33,"byHour":[3,3,0,0,0,0,0,0,0,0,0,0,3,0,0,4,0,9,8,0,0,0,0,3],"byMode":{"일반버스":7,"기타":9,"차량":7,"지하철":10}},{"dest_code":"41210000","dest_name":"경기도 광명시","dest_lat":37.45442116993489,"dest_lon":126.86309350608454,"total":33,"byHour":[0,3,3,0,0,0,0,0,6,0,0,0,7,3,3,3,2,0,3,0,0,0,0,0],"byMode":{"지하철":21,"차량":12}},{"dest_code":"11230710","dest_name":"서울특별시 동대문구 회기동","dest_lat":37.59371693617452,"dest_lon":127.05151154165344,"total":32,"byHour":[0,2,0,3,0,0,0,0,0,0,6,5,0,0,0,0,2,2,6,0,3,0,3,0],"byMode":{"기타":11,"도보":3,"지하철":13,"일반버스":2,"차량":3}},{"dest_code":"11230740","dest_name":"서울특별시 동대문구 이문1동","dest_lat":37.59736775775229,"dest_lon":127.0604464534256,"total":32,"byHour":[0,0,3,0,0,0,0,0,0,0,3,6,0,0,7,3,0,0,0,0,3,2,5,0],"byMode":{"기타":11,"지하철":14,"일반버스":4,"차량":3}},{"dest_code":"11710680","dest_name":"서울특별시 송파구 잠실3동","dest_lat":37.513897495343485,"dest_lon":127.09423948416593,"total":32,"byHour":[0,0,0,0,3,0,3,0,2,6,0,0,0,0,0,2,0,9,0,4,0,0,0,3],"byMode":{"지하철":26,"차량":6}},{"dest_code":"11710610","dest_name":"서울특별시 송파구 삼전동","dest_lat":37.50190257761887,"dest_lon":127.09188809234622,"total":32,"byHour":[0,0,0,0,3,0,0,0,0,0,5,4,7,4,0,0,3,0,0,3,3,0,0,0],"byMode":{"차량":22,"지하철":7,"기타":3}},{"dest_code":"11290660","dest_name":"서울특별시 성북구 길음1동","dest_lat":37.608223678293655,"dest_lon":127.01974268027502,"total":32,"byHour":[0,0,0,0,0,0,3,0,0,0,4,0,3,8,0,0,6,6,0,2,0,0,0,0],"byMode":{"차량":6,"지하철":7,"기타":14,"일반버스":2,"도보":3}},{"dest_code":"11215870","dest_name":"서울특별시 광진구 구의3동","dest_lat":37.53695822874183,"dest_lon":127.0942221885227,"total":32,"byHour":[0,0,0,0,0,0,0,0,3,0,0,6,3,0,3,4,0,2,6,3,0,2,0,0],"byMode":{"지하철":24,"일반버스":6,"차량":2}},{"dest_code":"11215780","dest_name":"서울특별시 광진구 능동","dest_lat":37.55059049183368,"dest_lon":127.08179050874378,"total":32,"byHour":[0,0,0,0,0,0,0,0,0,0,3,12,4,4,3,3,0,0,1,0,2,0,0,0],"byMode":{"지하철":11,"기타":11,"차량":7,"일반버스":3}},{"dest_code":"11230750","dest_name":"서울특별시 동대문구 이문2동","dest_lat":37.60284072913704,"dest_lon":127.06751568293367,"total":32,"byHour":[0,0,0,0,0,0,0,0,0,0,0,0,7,0,0,7,0,8,0,0,3,4,0,3],"byMode":{"차량":14,"기타":11,"지하철":4,"도보":3}},{"dest_code":"11410620","dest_name":"서울특별시 서대문구 홍제1동","dest_lat":37.58340454932159,"dest_lon":126.94431972762148,"total":32,"byHour":[0,0,0,0,0,0,0,0,0,0,0,0,11,14,2,0,0,0,0,0,0,3,2,0],"byMode":{"지하철":15,"기타":10,"차량":4,"일반버스":3}},{"dest_code":"41117000","dest_name":"경기도 수원시 영통구","dest_lat":37.27022329808669,"dest_lon":127.05872436690058,"total":32,"byHour":[0,0,0,0,0,0,0,0,0,0,0,0,2,0,6,3,0,3,4,10,0,4,0,0],"byMode":{"지하철":5,"차량":27}},{"dest_code":"41115000","dest_name":"경기도 수원시 팔달구","dest_lat":37.278235690211076,"dest_lon":127.01464243655195,"total":31,"byHour":[0,6,4,0,0,0,0,3,3,0,0,3,0,0,0,0,3,0,2,4,3,0,0,0],"byMode":{"차량":25,"지하철":6}},{"dest_code":"11260655","dest_name":"서울특별시 중랑구 망우본동","dest_lat":37.60213706842387,"dest_lon":127.10744223116808,"total":31,"byHour":[0,0,0,0,0,3,0,0,0,0,0,3,0,3,3,3,3,3,3,0,3,4,0,0],"byMode":{"차량":17,"기타":5,"일반버스":3,"지하철":6}},{"dest_code":"11260565","dest_name":"서울특별시 중랑구 면목본동","dest_lat":37.58831624621149,"dest_lon":127.08937929154322,"total":31,"byHour":[0,0,0,0,0,0,0,0,0,0,3,0,0,0,0,4,3,7,7,2,0,3,2,0],"byMode":{"차량":14,"지하철":8,"기타":6,"일반버스":3}},{"dest_code":"11170690","dest_name":"서울특별시 용산구 서빙고동","dest_lat":37.51962188014036,"dest_lon":126.98891969879324,"total":31,"byHour":[0,0,0,0,0,0,0,0,0,0,0,3,0,13,0,0,12,0,0,0,0,0,0,3],"byMode":{"차량":13,"기타":12,"일반버스":6}},{"dest_code":"11260520","dest_name":"서울특별시 중랑구 면목2동","dest_lat":37.58928761522088,"dest_lon":127.0778399396376,"total":30,"byHour":[7,0,0,0,0,0,0,0,0,0,3,3,0,0,0,6,0,0,0,3,0,0,0,8],"byMode":{"일반버스":13,"기타":12,"차량":5}},{"dest_code":"11545510","dest_name":"서울특별시 금천구 가산동","dest_lat":37.47666082069989,"dest_lon":126.88379132868764,"total":30,"byHour":[1,4,0,0,0,0,0,0,0,0,0,7,0,4,6,3,3,0,0,0,0,2,0,0],"byMode":{"일반버스":1,"지하철":20,"차량":9}},{"dest_code":"11440555","dest_name":"서울특별시 마포구 아현동","dest_lat":37.551851292486674,"dest_lon":126.95270610587647,"total":30,"byHour":[0,0,2,0,0,3,0,0,0,0,0,3,3,7,4,0,3,0,3,0,2,0,0,0],"byMode":{"기타":2,"일반버스":9,"지하철":19}},{"dest_code":"11320710","dest_name":"서울특별시 도봉구 방학3동","dest_lat":37.663189624864266,"dest_lon":127.0235631136616,"total":30,"byHour":[0,0,0,0,0,0,0,4,0,0,0,4,0,3,0,0,4,3,9,0,3,0,0,0],"byMode":{"차량":7,"지하철":20,"기타":3}},{"dest_code":"11680590","dest_name":"서울특별시 강남구 삼성2동","dest_lat":37.51185750889962,"dest_lon":127.04877731981904,"total":30,"byHour":[0,0,0,0,0,0,0,0,0,6,0,3,6,2,0,0,0,3,0,2,3,5,0,0],"byMode":{"기타":6,"차량":17,"지하철":7}},{"dest_code":"11410565","dest_name":"서울특별시 서대문구 충현동","dest_lat":37.563940986482365,"dest_lon":126.95831857068698,"total":29,"byHour":[3,0,3,0,0,0,0,0,0,0,3,0,3,3,3,0,3,3,3,2,0,0,0,0],"byMode":{"도보":6,"차량":6,"지하철":11,"일반버스":3,"기타":3}},{"dest_code":"41830000","dest_name":"경기도 양평군","dest_lat":37.52460824822185,"dest_lon":127.56623497653196,"total":29,"byHour":[0,0,0,0,3,3,4,0,0,2,0,7,5,3,0,0,0,2,0,0,0,0,0,0],"byMode":{"차량":24,"지하철":5}},{"dest_code":"11740620","dest_name":"서울특별시 강동구 천호3동","dest_lat":37.53969320294497,"dest_lon":127.13330927913836,"total":28,"byHour":[2,0,0,0,0,0,0,4,0,3,0,3,0,4,3,6,0,0,0,0,0,3,0,0],"byMode":{"차량":10,"지하철":18}},{"dest_code":"11380580","dest_name":"서울특별시 은평구 응암1동","dest_lat":37.59834495324267,"dest_lon":126.92706516937618,"total":28,"byHour":[3,0,0,0,0,0,0,0,0,3,0,0,0,0,0,4,3,0,0,8,3,4,0,0],"byMode":{"일반버스":3,"지하철":21,"차량":4}},{"dest_code":"11290715","dest_name":"서울특별시 성북구 월곡1동","dest_lat":37.60783377708155,"dest_lon":127.03655107111472,"total":28,"byHour":[0,0,0,0,3,0,0,0,0,0,0,3,3,0,3,0,3,0,3,7,0,3,0,0],"byMode":{"지하철":10,"기타":6,"차량":3,"일반버스":9}},{"dest_code":"41271000","dest_name":"경기도 안산시 상록구","dest_lat":37.3213755300157,"dest_lon":126.86906365441195,"total":28,"byHour":[0,0,0,0,0,0,0,0,0,3,0,0,0,3,9,3,3,3,0,0,0,4,0,0],"byMode":{"차량":6,"지하철":22}},{"dest_code":"11440710","dest_name":"서울특별시 마포구 연남동","dest_lat":37.563017872295696,"dest_lon":126.92153721770806,"total":27,"byHour":[3,0,6,0,0,0,0,4,0,0,0,0,9,0,0,0,0,5,0,0,0,0,0,0],"byMode":{"차량":16,"일반버스":3,"지하철":8}},{"dest_code":"11170560","dest_name":"서울특별시 용산구 원효로1동","dest_lat":37.53749537319296,"dest_lon":126.96655767638732,"total":27,"byHour":[0,2,0,0,0,0,0,3,0,0,0,4,3,4,0,3,0,4,0,0,4,0,0,0],"byMode":{"차량":5,"지하철":11,"일반버스":11}},{"dest_code":"11560720","dest_name":"서울특별시 영등포구 대림3동","dest_lat":37.50000124220351,"dest_lon":126.8971418249189,"total":27,"byHour":[0,3,0,0,0,0,3,0,0,0,0,9,0,0,6,0,3,3,0,0,0,0,0,0],"byMode":{"지하철":21,"차량":3,"기타":3}},{"dest_code":"11260610","dest_name":"서울특별시 중랑구 중화2동","dest_lat":37.59918200919256,"dest_lon":127.07502865677068,"total":27,"byHour":[0,0,3,0,0,0,0,0,0,0,0,0,11,0,6,0,0,0,0,0,0,4,3,0],"byMode":{"차량":13,"일반버스":7,"기타":7}},{"dest_code":"11230570","dest_name":"서울특별시 동대문구 전농2동","dest_lat":37.580697660564944,"dest_lon":127.06111802845244,"total":27,"byHour":[0,0,0,7,0,0,0,0,0,0,0,0,4,8,0,4,4,0,0,0,0,0,0,0],"byMode":{"차량":13,"일반버스":10,"도보":4}},{"dest_code":"11290620","dest_name":"서울특별시 성북구 정릉1동","dest_lat":37.60327976637659,"dest_lon":127.01698172006311,"total":27,"byHour":[0,0,0,0,0,0,3,0,3,0,3,2,3,0,3,3,3,0,4,0,0,0,0,0],"byMode":{"도보":10,"기타":11,"지하철":6}},{"dest_code":"11200620","dest_name":"서울특별시 성동구 금호4가동","dest_lat":37.545391282678345,"dest_lon":127.02415996011806,"total":26,"byHour":[3,0,0,0,0,0,0,0,0,0,3,4,0,0,0,0,4,0,0,0,0,3,6,3],"byMode":{"일반버스":12,"도보":4,"지하철":4,"기타":3,"차량":3}},{"dest_code":"11260680","dest_name":"서울특별시 중랑구 신내1동","dest_lat":37.61316286799043,"dest_lon":127.1040401674988,"total":26,"byHour":[6,0,0,3,0,0,0,0,0,4,0,0,0,0,7,6,0,0,0,0,0,0,0,0],"byMode":{"일반버스":7,"지하철":10,"차량":9}},{"dest_code":"11215770","dest_name":"서울특별시 광진구 중곡4동","dest_lat":37.56387396940858,"dest_lon":127.09449412530624,"total":26,"byHour":[0,2,0,3,0,0,0,4,3,0,0,3,0,0,6,0,0,0,3,0,0,2,0,0],"byMode":{"차량":9,"기타":14,"지하철":3}},{"dest_code":"11680610","dest_name":"서울특별시 강남구 대치2동","dest_lat":37.50098747815765,"dest_lon":127.065657425748,"total":26,"byHour":[0,1,3,0,0,0,3,0,4,6,0,3,0,0,0,0,0,0,6,0,0,0,0,0],"byMode":{"지하철":16,"차량":8,"기타":2}},{"dest_code":"41500000","dest_name":"경기도 이천시","dest_lat":37.200613234051986,"dest_lon":127.48362365755307,"total":26,"byHour":[0,0,2,0,0,0,0,0,0,0,0,3,3,9,0,3,3,3,0,0,0,0,0,0],"byMode":{"차량":20,"일반버스":3,"지하철":3}},{"dest_code":"11170555","dest_name":"서울특별시 용산구 청파동","dest_lat":37.54758189433549,"dest_lon":126.96684283775078,"total":26,"byHour":[0,0,0,0,0,2,0,0,3,3,0,4,6,0,3,0,0,0,0,2,3,0,0,0],"byMode":{"일반버스":8,"기타":12,"지하철":6}},{"dest_code":"11305595","dest_name":"서울특별시 강북구 번1동","dest_lat":37.63755655490044,"dest_lon":127.0306106449884,"total":26,"byHour":[0,0,0,0,0,0,0,3,0,0,0,2,4,3,0,0,6,0,0,6,2,0,0,0],"byMode":{"차량":9,"기타":9,"지하철":8}},{"dest_code":"11545630","dest_name":"서울특별시 금천구 독산3동","dest_lat":37.47578646637848,"dest_lon":126.90460560022586,"total":26,"byHour":[0,0,0,0,0,0,0,3,0,0,0,0,0,0,3,8,8,4,0,0,0,0,0,0],"byMode":{"지하철":15,"차량":11}},{"dest_code":"11140680","dest_name":"서울특별시 중구 중림동","dest_lat":37.55734682440728,"dest_lon":126.96603667235034,"total":25,"byHour":[4,0,0,0,0,0,0,0,0,4,0,0,0,0,4,7,0,0,0,0,0,6,0,0],"byMode":{"일반버스":10,"지하철":12,"도보":3}},{"dest_code":"11215750","dest_name":"서울특별시 광진구 중곡2동","dest_lat":37.55890878945523,"dest_lon":127.08457880017404,"total":25,"byHour":[11,0,0,0,0,0,0,0,3,4,0,0,0,0,0,0,3,0,0,0,0,0,0,4],"byMode":{"차량":21,"일반버스":4}},{"dest_code":"11290685","dest_name":"서울특별시 성북구 길음2동","dest_lat":37.60828694721575,"dest_lon":127.0271636132196,"total":25,"byHour":[3,0,0,0,0,0,0,0,7,0,0,0,3,3,0,6,0,3,0,0,0,0,0,0],"byMode":{"차량":3,"도보":6,"기타":13,"일반버스":3}},{"dest_code":"11590530","dest_name":"서울특별시 동작구 상도1동","dest_lat":37.49837077818583,"dest_lon":126.9533526303038,"total":25,"byHour":[3,0,0,0,0,0,0,0,0,2,0,0,0,6,3,0,3,0,0,0,0,5,3,0],"byMode":{"지하철":11,"일반버스":3,"차량":9,"기타":2}},{"dest_code":"11215860","dest_name":"서울특별시 광진구 구의2동","dest_lat":37.55110372309933,"dest_lon":127.09485666743475,"total":25,"byHour":[2,0,0,0,0,0,0,0,3,0,0,0,0,4,3,0,4,0,3,0,3,0,3,0],"byMode":{"차량":6,"지하철":12,"기타":7}},{"dest_code":"11440655","dest_name":"서울특별시 마포구 서강동","dest_lat":37.546730302214776,"dest_lon":126.92603119134738,"total":25,"byHour":[3,0,0,0,0,2,0,3,4,0,0,0,0,7,3,0,3,0,0,0,0,0,0,0],"byMode":{"일반버스":3,"지하철":18,"광역버스":4}},{"dest_code":"11305603","dest_name":"서울특별시 강북구 번2동","dest_lat":37.62948794177119,"dest_lon":127.03474522007014,"total":25,"byHour":[3,0,0,0,0,0,0,0,0,0,0,0,0,3,0,3,0,0,7,0,7,0,2,0],"byMode":{"차량":8,"기타":3,"지하철":14}},{"dest_code":"11260570","dest_name":"서울특별시 중랑구 면목7동","dest_lat":37.57713876078811,"dest_lon":127.09279824137629,"total":25,"byHour":[0,0,0,0,0,0,4,0,0,0,3,3,8,0,0,4,3,0,0,0,0,0,0,0],"byMode":{"기타":11,"차량":6,"일반버스":8}},{"dest_code":"11350595","dest_name":"서울특별시 노원구 공릉1동","dest_lat":37.6242134099112,"dest_lon":127.07255426284723,"total":25,"byHour":[0,0,0,0,0,0,0,0,3,0,0,0,0,0,0,4,6,7,5,0,0,0,0,0],"byMode":{"지하철":14,"차량":4,"기타":7}},{"dest_code":"11530550","dest_name":"서울특별시 구로구 구로4동","dest_lat":37.49160778502839,"dest_lon":126.89030917334668,"total":25,"byHour":[0,0,0,0,0,0,0,0,0,0,3,4,0,4,3,3,4,0,0,0,0,4,0,0],"byMode":{"차량":10,"지하철":15}},{"dest_code":"11215850","dest_name":"서울특별시 광진구 구의1동","dest_lat":37.54163206971925,"dest_lon":127.085718743501,"total":25,"byHour":[0,0,0,0,0,0,0,0,0,0,0,3,0,6,0,0,3,3,0,10,0,0,0,0],"byMode":{"기타":6,"지하철":13,"차량":6}},{"dest_code":"11230730","dest_name":"서울특별시 동대문구 휘경2동","dest_lat":37.58664122719281,"dest_lon":127.06582204957049,"total":24,"byHour":[2,0,0,0,0,0,0,0,3,0,0,7,0,0,4,3,0,0,0,0,3,0,2,0],"byMode":{"차량":2,"기타":10,"지하철":8,"도보":4}},{"dest_code":"28185000","dest_name":"인천광역시 연수구","dest_lat":37.397762106912225,"dest_lon":126.65831312600358,"total":24,"byHour":[4,0,0,0,0,0,0,0,0,3,0,0,0,3,3,4,3,4,0,0,0,0,0,0],"byMode":{"차량":17,"일반버스":3,"지하철":4}},{"dest_code":"11650531","dest_name":"서울특별시 서초구 서초4동","dest_lat":37.498946997152096,"dest_lon":127.01981424252564,"total":24,"byHour":[0,3,0,0,0,4,0,0,3,0,0,0,0,3,3,0,0,4,4,0,0,0,0,0],"byMode":{"차량":3,"지하철":18,"기타":3}},{"dest_code":"11320680","dest_name":"서울특별시 도봉구 쌍문3동","dest_lat":37.64766314749173,"dest_lon":127.03058765843974,"total":24,"byHour":[0,0,0,0,0,4,0,0,0,3,0,0,3,3,0,7,0,4,0,0,0,0,0,0],"byMode":{"차량":17,"지하철":7}},{"dest_code":"41370000","dest_name":"경기도 오산시","dest_lat":37.25837614757862,"dest_lon":127.09095786660768,"total":24,"byHour":[0,0,0,0,0,0,0,9,0,0,0,0,6,3,0,3,0,0,0,0,0,0,0,3],"byMode":{"차량":12,"지하철":12}},{"dest_code":"11500535","dest_name":"서울특별시 강서구 등촌3동","dest_lat":37.561203675763885,"dest_lon":126.84619497284451,"total":24,"byHour":[0,0,0,0,0,0,0,0,0,3,9,0,3,0,0,7,2,0,0,0,0,0,0,0],"byMode":{"지하철":11,"차량":13}},{"dest_code":"11290770","dest_name":"서울특별시 성북구 장위2동","dest_lat":37.61234879180564,"dest_lon":127.05189848383364,"total":24,"byHour":[0,0,0,0,0,0,0,0,0,0,3,0,0,0,2,0,7,6,3,0,0,3,0,0],"byMode":{"차량":3,"지하철":21}},{"dest_code":"11350570","dest_name":"서울특별시 노원구 월계2동","dest_lat":37.633974259066136,"dest_lon":127.05129552388732,"total":24,"byHour":[0,0,0,0,0,0,0,0,0,0,4,0,0,10,0,0,7,0,0,0,0,3,0,0],"byMode":{"지하철":14,"기타":3,"차량":3,"일반버스":4}},{"dest_code":"11215740","dest_name":"서울특별시 광진구 중곡1동","dest_lat":37.56209979326759,"dest_lon":127.07768465357913,"total":24,"byHour":[0,0,0,0,0,0,0,0,0,0,0,0,2,3,0,2,0,3,3,8,0,0,3,0],"byMode":{"지하철":14,"일반버스":3,"기타":3,"차량":4}},{"dest_code":"11740685","dest_name":"서울특별시 강동구 길동","dest_lat":37.53969617665487,"dest_lon":127.14596636282656,"total":23,"byHour":[2,2,0,0,0,0,0,7,0,0,0,0,0,3,0,0,6,0,0,3,0,0,0,0],"byMode":{"차량":14,"지하철":9}},{"dest_code":"11710631","dest_name":"서울특별시 송파구 가락1동","dest_lat":37.49518804554753,"dest_lon":127.10827277693689,"total":23,"byHour":[0,5,0,0,0,0,0,0,0,3,0,0,0,4,7,0,0,0,0,4,0,0,0,0],"byMode":{"차량":18,"지하철":5}},{"dest_code":"41111000","dest_name":"경기도 수원시 장안구","dest_lat":37.307931147638755,"dest_lon":126.99735958826156,"total":23,"byHour":[0,0,0,0,0,0,0,0,0,0,0,0,3,0,6,12,0,2,0,0,0,0,0,0],"byMode":{"일반버스":3,"차량":18,"지하철":2}},{"dest_code":"11680750","dest_name":"서울특별시 강남구 수서동","dest_lat":37.48692072548294,"dest_lon":127.10014331040334,"total":23,"byHour":[0,0,0,0,0,0,0,0,0,0,0,0,0,3,0,0,3,3,7,0,0,0,0,7],"byMode":{"지하철":16,"차량":7}},{"dest_code":"11350695","dest_name":"서울특별시 노원구 상계6.7동","dest_lat":37.64866170644932,"dest_lon":127.06010082071658,"total":23,"byHour":[0,0,0,0,0,0,0,0,0,0,0,0,0,0,0,3,0,3,0,4,0,10,3,0],"byMode":{"지하철":6,"차량":14,"일반버스":3}},{"dest_code":"11320514","dest_name":"서울특별시 도봉구 창4동","dest_lat":37.65271901329207,"dest_lon":127.05090900345418,"total":22,"byHour":[0,0,0,3,0,0,0,0,0,0,4,0,0,0,3,6,0,0,3,0,0,0,3,0],"byMode":{"차량":19,"지하철":3}},{"dest_code":"28710000","dest_name":"인천광역시 강화군","dest_lat":37.71030363838855,"dest_lon":126.34891157564104,"total":22,"byHour":[0,0,0,4,0,0,0,0,3,6,3,0,0,3,3,0,0,0,0,0,0,0,0,0],"byMode":{"차량":19,"지하철":3}},{"dest_code":"11650540","dest_name":"서울특별시 서초구 잠원동","dest_lat":37.517079012399016,"dest_lon":127.0127367711114,"total":22,"byHour":[0,0,0,0,3,0,0,0,0,0,3,3,0,0,0,0,0,0,0,6,4,0,0,3],"byMode":{"기타":7,"일반버스":6,"차량":9}},{"dest_code":"11530595","dest_name":"서울특별시 구로구 가리봉동","dest_lat":37.482693847192856,"dest_lon":126.88806000798644,"total":22,"byHour":[0,0,0,0,0,0,0,0,3,0,0,0,0,0,3,7,0,3,0,6,0,0,0,0],"byMode":{"차량":6,"지하철":16}},{"dest_code":"11560620","dest_name":"서울특별시 영등포구 양평2동","dest_lat":37.54350560446898,"dest_lon":126.89059120594035,"total":21,"byHour":[3,3,0,0,0,0,0,0,0,0,3,0,0,0,0,0,0,0,0,0,6,5,1,0],"byMode":{"기타":3,"차량":9,"지하철":9}},{"dest_code":"11350580","dest_name":"서울특별시 노원구 월계3동","dest_lat":37.62445820424424,"dest_lon":127.06482891187626,"total":21,"byHour":[3,0,3,0,3,0,0,0,0,0,0,2,0,0,0,4,0,0,6,0,0,0,0,0],"byMode":{"기타":5,"차량":6,"지하철":4,"일반버스":6}},{"dest_code":"11290590","dest_name":"서울특별시 성북구 돈암2동","dest_lat":37.59708178772487,"dest_lon":127.0116005523684,"total":21,"byHour":[0,0,0,0,0,0,0,3,3,0,0,0,0,0,0,0,3,3,0,3,6,0,0,0],"byMode":{"지하철":3,"기타":12,"도보":3,"차량":3}},{"dest_code":"11650530","dest_name":"서울특별시 서초구 서초3동","dest_lat":37.48551989312191,"dest_lon":127.00945377766683,"total":21,"byHour":[0,0,0,0,0,0,0,0,0,3,0,0,0,3,0,4,0,3,0,5,0,0,0,3],"byMode":{"기타":3,"지하철":10,"차량":8}},{"dest_code":"11170640","dest_name":"서울특별시 용산구 이촌2동","dest_lat":37.52285650577792,"dest_lon":126.95420581951647,"total":21,"byHour":[0,0,0,0,0,0,0,0,0,0,0,0,3,7,0,4,3,4,0,0,0,0,0,0],"byMode":{"기타":3,"지하철":11,"차량":7}},{"dest_code":"11260690","dest_name":"서울특별시 중랑구 신내2동","dest_lat":37.610983653054106,"dest_lon":127.09158736207436,"total":21,"byHour":[0,0,0,0,0,0,0,0,0,0,0,0,0,3,3,0,0,6,0,0,0,9,0,0],"byMode":{"지하철":15,"기타":6}},{"dest_code":"41171000","dest_name":"경기도 안양시 만안구","dest_lat":37.403367715966176,"dest_lon":126.91261602108659,"total":21,"byHour":[0,0,0,0,0,0,0,0,0,0,0,0,0,3,0,4,0,0,2,0,4,0,8,0],"byMode":{"지하철":13,"차량":8}},{"dest_code":"11680650","dest_name":"서울특별시 강남구 역삼2동","dest_lat":37.49848371075801,"dest_lon":127.04489561333814,"total":21,"byHour":[0,0,0,0,0,0,0,0,0,0,0,0,0,0,3,7,0,0,0,0,3,5,3,0],"byMode":{"지하철":6,"차량":12,"일반버스":3}},{"dest_code":"11740570","dest_name":"서울특별시 강동구 암사1동","dest_lat":37.551848367771946,"dest_lon":127.1345954774132,"total":20,"byHour":[2,0,0,0,0,0,0,0,0,0,0,4,0,3,0,0,5,0,0,0,6,0,0,0],"byMode":{"차량":10,"지하철":10}},{"dest_code":"11560550","dest_name":"서울특별시 영등포구 당산1동","dest_lat":37.523902456055296,"dest_lon":126.89677920846194,"total":20,"byHour":[4,4,0,0,0,0,0,0,0,0,4,0,0,0,3,3,0,0,0,2,0,0,0,0],"byMode":{"지하철":15,"차량":1,"일반버스":4}},{"dest_code":"11110540","dest_name":"서울특별시 종로구 삼청동","dest_lat":37.58836360344821,"dest_lon":126.98120563602257,"total":20,"byHour":[4,0,0,0,0,0,0,0,0,0,3,3,3,0,7,0,0,0,0,0,0,0,0,0],"byMode":{"지하철":11,"차량":3,"기타":3,"도보":3}},{"dest_code":"11110570","dest_name":"서울특별시 종로구 무악동","dest_lat":37.577110679906056,"dest_lon":126.95858596490396,"total":20,"byHour":[2,4,3,0,0,0,0,0,0,0,4,0,0,0,7,0,0,0,0,0,0,0,0,0],"byMode":{"일반버스":2,"도보":4,"기타":7,"지하철":7}},{"dest_code":"11740610","dest_name":"서울특별시 강동구 천호2동","dest_lat":37.54499240788589,"dest_lon":127.12200908898424,"total":20,"byHour":[0,0,0,0,3,0,0,0,0,0,2,0,3,0,0,3,0,3,6,0,0,0,0,0],"byMode":{"지하철":9,"차량":11}},{"dest_code":"11410555","dest_name":"서울특별시 서대문구 북아현동","dest_lat":37.55929069227892,"dest_lon":126.95501974771388,"total":20,"byHour":[0,0,0,0,0,0,3,0,0,0,0,0,0,0,5,0,0,3,0,0,0,0,6,3],"byMode":{"지하철":14,"일반버스":6}},{"dest_code":"11110560","dest_name":"서울특별시 종로구 평창동","dest_lat":37.61568630251399,"dest_lon":126.96812566774555,"total":20,"byHour":[0,0,0,0,0,0,0,3,0,8,0,0,0,6,0,3,0,0,0,0,0,0,0,0],"byMode":{"지하철":3,"차량":11,"기타":3,"일반버스":3}},{"dest_code":"11740650","dest_name":"서울특별시 강동구 성내2동","dest_lat":37.53440211933332,"dest_lon":127.12770532534653,"total":20,"byHour":[0,0,0,0,0,0,0,0,4,3,0,0,3,0,3,3,4,0,0,0,0,0,0,0],"byMode":{"지하철":10,"차량":10}},{"dest_code":"41220000","dest_name":"경기도 평택시","dest_lat":37.192301993488584,"dest_lon":127.00502900097335,"total":20,"byHour":[0,0,0,0,0,0,0,0,6,0,3,0,3,4,0,0,0,0,4,0,0,0,0,0],"byMode":{"차량":13,"지하철":7}},{"dest_code":"11260580","dest_name":"서울특별시 중랑구 상봉1동","dest_lat":37.60172209475368,"dest_lon":127.08944588823316,"total":20,"byHour":[0,0,0,0,0,0,0,0,3,3,0,0,0,0,0,0,3,8,0,0,0,3,0,0],"byMode":{"차량":9,"지하철":11}},{"dest_code":"11710620","dest_name":"서울특별시 송파구 가락본동","dest_lat":37.49701933499789,"dest_lon":127.12165359074712,"total":20,"byHour":[0,0,0,0,0,0,0,0,0,0,3,2,2,0,0,3,3,2,5,0,0,0,0,0],"byMode":{"지하철":13,"차량":7}},{"dest_code":"11260590","dest_name":"서울특별시 중랑구 상봉2동","dest_lat":37.594321335650726,"dest_lon":127.08401526954532,"total":19,"byHour":[3,0,0,0,0,0,0,0,3,3,0,0,0,0,2,0,0,3,0,3,0,0,2,0],"byMode":{"차량":8,"기타":4,"지하철":3,"일반버스":4}},{"dest_code":"43130000","dest_name":"충청북도 충주시","dest_lat":36.98323979431429,"dest_lon":127.86833856760873,"total":19,"byHour":[5,0,0,0,3,0,0,4,0,0,0,0,0,0,0,0,2,0,0,5,0,0,0,0],"byMode":{"차량":19}},{"dest_code":"11590510","dest_name":"서울특별시 동작구 노량진1동","dest_lat":37.5122360275928,"dest_lon":126.94895754101177,"total":19,"byHour":[3,0,0,0,4,0,0,0,0,0,0,3,0,3,0,0,2,3,1,0,0,0,0,0],"byMode":{"지하철":10,"차량":9}},{"dest_code":"11305645","dest_name":"서울특별시 강북구 우이동","dest_lat":37.66035298208114,"dest_lon":127.00048707352931,"total":19,"byHour":[0,0,3,0,0,0,0,0,0,0,3,0,0,3,7,0,3,0,0,0,0,0,0,0],"byMode":{"차량":12,"지하철":7}},{"dest_code":"11290525","dest_name":"서울특별시 성북구 성북동","dest_lat":37.59668268834572,"dest_lon":126.9941320143127,"total":19,"byHour":[0,0,3,0,0,0,0,0,0,0,0,0,0,0,6,2,2,2,0,0,0,2,2,0],"byMode":{"차량":9,"도보":6,"일반버스":2,"기타":2}},{"dest_code":"11500620","dest_name":"서울특별시 강서구 공항동","dest_lat":37.55586440196673,"dest_lon":126.79489910642056,"total":19,"byHour":[0,0,0,3,4,0,0,0,0,0,3,0,0,0,0,0,0,0,6,0,0,0,3,0],"byMode":{"차량":9,"지하철":10}},{"dest_code":"44131000","dest_name":"충청남도 천안시 동남구","dest_lat":36.75585364623526,"dest_lon":127.22991648916417,"total":19,"byHour":[0,0,0,0,0,0,9,7,0,3,0,0,0,0,0,0,0,0,0,0,0,0,0,0],"byMode":{"차량":19}},{"dest_code":"11320700","dest_name":"서울특별시 도봉구 방학2동","dest_lat":37.669186234537605,"dest_lon":127.03269154692808,"total":19,"byHour":[0,0,0,0,0,0,0,3,0,3,0,0,3,3,0,4,3,0,0,0,0,0,0,0],"byMode":{"지하철":6,"기타":3,"차량":10}},{"dest_code":"11440630","dest_name":"서울특별시 마포구 신수동","dest_lat":37.545655989935085,"dest_lon":126.9347934259029,"total":19,"byHour":[0,0,0,0,0,0,0,0,3,0,11,0,3,0,2,0,0,0,0,0,0,0,0,0],"byMode":{"일반버스":3,"지하철":12,"기타":4}},{"dest_code":"11710570","dest_name":"서울특별시 송파구 오금동","dest_lat":37.50400495130691,"dest_lon":127.13402058316142,"total":19,"byHour":[0,0,0,0,0,0,0,0,0,3,3,0,3,0,0,0,0,0,5,0,0,2,3,0],"byMode":{"지하철":13,"차량":6}},{"dest_code":"11650610","dest_name":"서울특별시 서초구 방배2동","dest_lat":37.4732060607648,"dest_lon":126.98842374274712,"total":19,"byHour":[0,0,0,0,0,0,0,0,0,4,0,0,4,3,0,4,0,4,0,0,0,0,0,0],"byMode":{"지하철":19}},{"dest_code":"11260630","dest_name":"서울특별시 중랑구 묵2동","dest_lat":37.6108262711771,"dest_lon":127.07462292207424,"total":19,"byHour":[0,0,0,0,0,0,0,0,0,0,0,0,3,3,0,0,0,3,5,3,0,0,2,0],"byMode":{"지하철":6,"기타":11,"차량":2}},{"dest_code":"11530730","dest_name":"서울특별시 구로구 고척2동","dest_lat":37.50589528630638,"dest_lon":126.85346854924148,"total":19,"byHour":[0,0,0,0,0,0,0,0,0,0,0,0,0,0,19,0,0,0,0,0,0,0,0,0],"byMode":{"차량":15,"지하철":4}},{"dest_code":"11290780","dest_name":"서울특별시 성북구 장위3동","dest_lat":37.6182582111975,"dest_lon":127.05344990971862,"total":18,"byHour":[3,0,0,0,0,0,0,0,0,0,0,0,9,0,0,0,0,6,0,0,0,0,0,0],"byMode":{"차량":9,"일반버스":7,"지하철":2}},{"dest_code":"11560560","dest_name":"서울특별시 영등포구 당산2동","dest_lat":37.53410769973474,"dest_lon":126.90237135958655,"total":18,"byHour":[3,0,0,0,0,0,0,0,0,0,0,3,0,0,0,7,0,3,0,0,2,0,0,0],"byMode":{"도보":3,"지하철":11,"차량":4}},{"dest_code":"11215810","dest_name":"서울특별시 광진구 광장동","dest_lat":37.5478230736146,"dest_lon":127.10471379457802,"total":18,"byHour":[0,0,3,0,0,0,0,0,0,3,0,0,0,0,5,0,0,3,2,0,0,0,2,0],"byMode":{"차량":6,"기타":5,"지하철":7}},{"dest_code":"11680630","dest_name":"서울특별시 강남구 대치4동","dest_lat":37.501565333685576,"dest_lon":127.05475390419,"total":18,"byHour":[0,0,0,0,3,0,0,5,0,0,0,0,0,1,0,2,5,0,0,0,0,2,0,0],"byMode":{"차량":8,"지하철":7,"기타":3}},{"dest_code":"11650651","dest_name":"서울특별시 서초구 양재1동","dest_lat":37.46950069861567,"dest_lon":127.0224963501131,"total":18,"byHour":[0,0,0,0,0,0,0,3,0,0,0,3,0,3,3,3,3,0,0,0,0,0,0,0],"byMode":{"차량":9,"지하철":9}},{"dest_code":"11380625","dest_name":"서울특별시 은평구 역촌동","dest_lat":37.60457169193162,"dest_lon":126.9146202225324,"total":18,"byHour":[0,0,0,0,0,0,0,3,0,0,0,0,0,8,4,0,0,0,3,0,0,0,0,0],"byMode":{"지하철":18}},{"dest_code":"11380570","dest_name":"서울특별시 은평구 대조동","dest_lat":37.6122562627536,"dest_lon":126.9231543891736,"total":18,"byHour":[0,0,0,0,0,0,0,4,4,0,0,0,3,0,0,0,3,1,0,3,0,0,0,0],"byMode":{"차량":11,"지하철":7}},{"dest_code":"41173000","dest_name":"경기도 안양시 동안구","dest_lat":37.40855170806704,"dest_lon":127.0197827978124,"total":18,"byHour":[0,0,0,0,0,0,0,0,0,5,3,0,1,4,0,3,0,0,2,0,0,0,0,0],"byMode":{"지하철":13,"차량":5}},{"dest_code":"11305625","dest_name":"서울특별시 강북구 수유2동","dest_lat":37.645421219695294,"dest_lon":127.01936445955646,"total":18,"byHour":[0,0,0,0,0,0,0,0,0,0,6,0,0,0,0,0,0,3,4,0,0,3,2,0],"byMode":{"차량":11,"지하철":7}},{"dest_code":"11350665","dest_name":"서울특별시 노원구 상계3.4동","dest_lat":37.6757801445397,"dest_lon":127.0842190173459,"total":18,"byHour":[0,0,0,0,0,0,0,0,0,0,0,6,4,0,4,4,0,0,0,0,0,0,0,0],"byMode":{"차량":6,"지하철":8,"일반버스":4}},{"dest_code":"11320512","dest_name":"서울특별시 도봉구 창2동","dest_lat":37.64251171189896,"dest_lon":127.03676720651606,"total":18,"byHour":[0,0,0,0,0,0,0,0,0,0,0,0,0,6,0,3,0,4,0,0,2,3,0,0],"byMode":{"차량":3,"기타":3,"지하철":12}},{"dest_code":"11710670","dest_name":"서울특별시 송파구 잠실2동","dest_lat":37.51742878273864,"dest_lon":127.07934228766362,"total":17,"byHour":[3,0,0,0,0,0,0,0,0,0,0,3,2,3,0,0,0,3,3,0,0,0,0,0],"byMode":{"지하철":11,"차량":6}},{"dest_code":"11290650","dest_name":"서울특별시 성북구 정릉4동","dest_lat":37.62394777143803,"dest_lon":126.99489715361848,"total":17,"byHour":[0,3,3,0,0,0,0,0,0,0,0,0,0,0,0,0,0,4,0,4,0,3,0,0],"byMode":{"일반버스":7,"도보":3,"차량":7}},{"dest_code":"11170700","dest_name":"서울특별시 용산구 보광동","dest_lat":37.52688649842343,"dest_lon":127.00090084800838,"total":17,"byHour":[0,2,0,0,0,0,0,0,6,0,0,3,0,0,0,3,0,3,0,0,0,0,0,0],"byMode":{"기타":8,"도보":3,"지하철":6}},{"dest_code":"11650510","dest_name":"서울특별시 서초구 서초1동","dest_lat":37.48693597480006,"dest_lon":127.0201008696518,"total":17,"byHour":[0,0,4,0,0,3,2,0,0,0,0,0,0,0,0,0,5,0,3,0,0,0,0,0],"byMode":{"차량":12,"지하철":5}},{"dest_code":"11320521","dest_name":"서울특별시 도봉구 도봉1동","dest_lat":37.6853214078324,"dest_lon":127.02679827026442,"total":17,"byHour":[0,0,0,0,0,0,0,0,0,3,4,0,3,0,0,0,0,4,0,0,3,0,0,0],"byMode":{"지하철":14,"일반버스":3}},{"dest_code":"11350611","dest_name":"서울특별시 노원구 하계1동","dest_lat":37.63851375656488,"dest_lon":127.0750677453248,"total":17,"byHour":[0,0,0,0,0,0,0,0,0,0,0,2,0,3,2,0,7,0,0,0,0,0,3,0],"byMode":{"차량":5,"지하철":9,"기타":3}},{"dest_code":"11530510","dest_name":"서울특별시 구로구 신도림동","dest_lat":37.51003038058756,"dest_lon":126.88217457888476,"total":17,"byHour":[0,0,0,0,0,0,0,0,0,0,0,7,3,0,3,4,0,0,0,0,0,0,0,0],"byMode":{"지하철":17}},{"dest_code":"11470650","dest_name":"서울특별시 양천구 신정4동","dest_lat":37.52541055129687,"dest_lon":126.85761807645274,"total":17,"byHour":[0,0,0,0,0,0,0,0,0,0,0,0,1,3,0,0,6,3,4,0,0,0,0,0],"byMode":{"지하철":10,"차량":7}},{"dest_code":"43113000","dest_name":"충청북도 청주시 흥덕구","dest_lat":36.64329905552659,"dest_lon":127.3952788173003,"total":17,"byHour":[0,0,0,0,0,0,0,0,0,0,0,0,0,3,2,0,6,0,0,3,0,3,0,0],"byMode":{"차량":17}},{"dest_code":"11170570","dest_name":"서울특별시 용산구 원효로2동","dest_lat":37.53385302392906,"dest_lon":126.95246009027296,"total":16,"byHour":[3,0,0,0,0,0,0,0,0,0,0,0,0,3,5,0,3,0,0,0,0,0,2,0],"byMode":{"차량":3,"지하철":3,"기타":3,"일반버스":7}},{"dest_code":"11380631","dest_name":"서울특별시 은평구 신사1동","dest_lat":37.59913960449797,"dest_lon":126.90850630017172,"total":16,"byHour":[2,0,0,0,0,0,0,0,0,0,3,0,0,0,4,7,0,0,0,0,0,0,0,0],"byMode":{"차량":12,"지하철":4}},{"dest_code":"11710562","dest_name":"서울특별시 송파구 방이2동","dest_lat":37.51324706836732,"dest_lon":127.113892442997,"total":16,"byHour":[0,0,2,0,0,0,0,0,0,0,0,0,0,0,0,4,0,0,0,7,3,0,0,0],"byMode":{"차량":13,"지하철":3}},{"dest_code":"11440740","dest_name":"서울특별시 마포구 상암동","dest_lat":37.57072643445334,"dest_lon":126.87990132971456,"total":16,"byHour":[0,0,0,3,0,0,0,0,0,0,0,0,0,7,4,0,2,0,0,0,0,0,0,0],"byMode":{"차량":11,"지하철":3,"일반버스":2}},{"dest_code":"42110000","dest_name":"강원도 춘천시","dest_lat":37.8744378137003,"dest_lon":127.75357700812097,"total":16,"byHour":[0,0,0,0,0,3,0,0,7,0,3,0,0,0,0,3,0,0,0,0,0,0,0,0],"byMode":{"차량":16}},{"dest_code":"42770000","dest_name":"강원도 정선군","dest_lat":37.46533500631418,"dest_lon":128.23568274547117,"total":16,"byHour":[0,0,0,0,0,3,0,7,3,0,0,0,0,0,0,0,0,3,0,0,0,0,0,0],"byMode":{"차량":16}},{"dest_code":"11710600","dest_name":"서울특별시 송파구 석촌동","dest_lat":37.502726246270925,"dest_lon":127.10251283152732,"total":16,"byHour":[0,0,0,0,0,0,0,3,3,0,0,0,0,0,0,3,0,3,2,2,0,0,0,0],"byMode":{"지하철":9,"차량":7}},{"dest_code":"11350625","dest_name":"서울특별시 노원구 중계2.3동","dest_lat":37.64343981053121,"dest_lon":127.06589372902808,"total":16,"byHour":[0,0,0,0,0,0,0,4,0,4,0,0,4,0,4,0,0,0,0,0,0,0,0,0],"byMode":{"차량":8,"지하철":8}},{"dest_code":"11530780","dest_name":"서울특별시 구로구 오류2동","dest_lat":37.4852998581557,"dest_lon":126.8384511815049,"total":16,"byHour":[0,0,0,0,0,0,0,0,3,0,4,2,0,0,3,0,0,4,0,0,0,0,0,0],"byMode":{"차량":8,"지하철":8}},{"dest_code":"44200000","dest_name":"충청남도 아산시","dest_lat":36.807211663717894,"dest_lon":126.96879811889504,"total":16,"byHour":[0,0,0,0,0,0,0,0,4,0,5,0,0,3,0,0,3,0,0,1,0,0,0,0],"byMode":{"차량":16}},{"dest_code":"11560605","dest_name":"서울특별시 영등포구 문래동","dest_lat":37.51653109707488,"dest_lon":126.89105913725837,"total":16,"byHour":[0,0,0,0,0,0,0,0,0,3,0,4,6,0,0,3,0,0,0,0,0,0,0,0],"byMode":{"차량":13,"지하철":3}},{"dest_code":"11500570","dest_name":"서울특별시 강서구 화곡4동","dest_lat":37.53608099048408,"dest_lon":126.85859684945628,"total":16,"byHour":[0,0,0,0,0,0,0,0,0,0,2,0,0,3,0,0,0,0,4,4,0,0,3,0],"byMode":{"지하철":9,"차량":7}},{"dest_code":"11170520","dest_name":"서울특별시 용산구 용산2가동","dest_lat":37.537883593164416,"dest_lon":126.9850861680424,"total":16,"byHour":[0,0,0,0,0,0,0,0,0,0,0,2,0,4,4,3,0,0,0,0,0,0,3,0],"byMode":{"지하철":8,"기타":4,"차량":4}},{"dest_code":"11620725","dest_name":"서울특별시 관악구 조원동","dest_lat":37.48282396573309,"dest_lon":126.9073482716966,"total":16,"byHour":[0,0,0,0,0,0,0,0,0,0,0,3,3,3,0,0,0,0,3,0,4,0,0,0],"byMode":{"차량":3,"지하철":13}},{"dest_code":"11440585","dest_name":"서울특별시 마포구 도화동","dest_lat":37.538644433810624,"dest_lon":126.9491081749089,"total":16,"byHour":[0,0,0,0,0,0,0,0,0,0,0,0,2,4,4,3,0,3,0,0,0,0,0,0],"byMode":{"기타":2,"일반버스":4,"지하철":10}},{"dest_code":"11545680","dest_name":"서울특별시 금천구 시흥2동","dest_lat":37.45090382022978,"dest_lon":126.91982352271675,"total":16,"byHour":[0,0,0,0,0,0,0,0,0,0,0,0,4,8,0,0,4,0,0,0,0,0,0,0],"byMode":{"지하철":16}},{"dest_code":"11620775","dest_name":"서울특별시 관악구 난곡동","dest_lat":37.47063724580372,"dest_lon":126.9211377542852,"total":15,"byHour":[4,0,0,0,0,0,0,4,0,0,0,0,0,4,0,0,0,0,0,3,0,0,0,0],"byMode":{"차량":4,"지하철":11}},{"dest_code":"11305535","dest_name":"서울특별시 강북구 미아동","dest_lat":37.62864302072378,"dest_lon":127.02638883236092,"total":15,"byHour":[0,3,0,0,0,0,0,0,0,0,0,0,2,0,4,6,0,0,0,0,0,0,0,0],"byMode":{"기타":9,"지하철":6}},{"dest_code":"11410640","dest_name":"서울특별시 서대문구 홍제3동","dest_lat":37.59238563329103,"dest_lon":126.95161456142748,"total":15,"byHour":[0,3,0,0,3,0,0,0,0,0,0,0,0,3,0,0,0,3,0,0,0,0,0,3],"byMode":{"기타":3,"차량":3,"일반버스":6,"지하철":3}},{"dest_code":"11500603","dest_name":"서울특별시 강서구 가양1동","dest_lat":37.57187746731984,"dest_lon":126.83490847348328,"total":15,"byHour":[0,1,0,0,0,0,0,2,0,0,0,0,3,3,0,0,3,3,0,0,0,0,0,0],"byMode":{"차량":6,"지하철":9}},{"dest_code":"41800000","dest_name":"경기도 연천군","dest_lat":38.0964023422725,"dest_lon":126.98300625016638,"total":15,"byHour":[0,0,0,0,1,0,7,3,1,0,0,0,0,0,0,0,0,3,0,0,0,0,0,0],"byMode":{"차량":15}},{"dest_code":"11710566","dest_name":"서울특별시 송파구 오륜동","dest_lat":37.51742909164448,"dest_lon":127.12883529004348,"total":15,"byHour":[0,0,0,0,3,3,0,0,3,3,0,0,0,0,0,3,0,0,0,0,0,0,0,0],"byMode":{"지하철":15}},{"dest_code":"11380520","dest_name":"서울특별시 은평구 불광1동","dest_lat":37.61687033066227,"dest_lon":126.93865920467827,"total":15,"byHour":[0,0,0,0,0,0,0,0,3,0,0,0,4,0,0,4,0,4,0,0,0,0,0,0],"byMode":{"지하철":11,"차량":4}},{"dest_code":"41250000","dest_name":"경기도 동두천시","dest_lat":37.693859795058835,"dest_lon":127.09185407131379,"total":15,"byHour":[0,0,0,0,0,0,0,0,3,0,0,0,0,0,4,0,0,8,0,0,0,0,0,0],"byMode":{"지하철":12,"차량":3}},{"dest_code":"11440730","dest_name":"서울특별시 마포구 성산2동","dest_lat":37.56832883553491,"dest_lon":126.90196767073064,"total":15,"byHour":[0,0,0,0,0,0,0,0,0,0,3,3,3,0,3,0,0,0,0,3,0,0,0,0],"byMode":{"차량":6,"지하철":9}},{"dest_code":"11710580","dest_name":"서울특별시 송파구 송파1동","dest_lat":37.50717835993431,"dest_lon":127.1103660800039,"total":15,"byHour":[0,0,0,0,0,0,0,0,0,0,3,2,0,3,2,2,0,0,0,0,3,0,0,0],"byMode":{"지하철":5,"차량":7,"기타":3}},{"dest_code":"11170630","dest_name":"서울특별시 용산구 이촌1동","dest_lat":37.51517316857026,"dest_lon":126.97175838068604,"total":15,"byHour":[0,0,0,0,0,0,0,0,0,0,0,0,3,0,0,6,3,3,0,0,0,0,0,0],"byMode":{"일반버스":3,"차량":12}},{"dest_code":"11305545","dest_name":"서울특별시 강북구 송중동","dest_lat":37.61767232059256,"dest_lon":127.03298289333247,"total":15,"byHour":[0,0,0,0,0,0,0,0,0,0,0,0,3,0,0,5,0,0,0,4,3,0,0,0],"byMode":{"기타":3,"지하철":2,"차량":10}},{"dest_code":"11320670","dest_name":"서울특별시 도봉구 쌍문2동","dest_lat":37.65710965130868,"dest_lon":127.03691772548196,"total":15,"byHour":[0,0,0,0,0,0,0,0,0,0,0,0,4,2,4,0,0,0,0,5,0,0,0,0],"byMode":{"기타":6,"지하철":4,"차량":5}},{"dest_code":"11710690","dest_name":"서울특별시 송파구 잠실4동","dest_lat":37.52069986201153,"dest_lon":127.10916169551092,"total":15,"byHour":[0,0,0,0,0,0,0,0,0,0,0,0,0,0,0,4,0,3,6,0,2,0,0,0],"byMode":{"지하철":12,"차량":3}},{"dest_code":"11590605","dest_name":"서울특별시 동작구 흑석동","dest_lat":37.50542550562058,"dest_lon":126.96223687937672,"total":15,"byHour":[0,0,0,0,0,0,0,0,0,0,0,0,0,0,0,0,3,3,0,0,0,0,0,9],"byMode":{"지하철":6,"차량":9}},{"dest_code":"11305615","dest_name":"서울특별시 강북구 수유1동","dest_lat":37.6297366940976,"dest_lon":127.01001782948444,"total":14,"byHour":[2,0,0,0,0,0,0,0,0,0,0,0,0,0,3,0,0,9,0,0,0,0,0,0],"byMode":{"기타":5,"일반버스":3,"차량":3,"지하철":3}},{"dest_code":"11470510","dest_name":"서울특별시 양천구 목1동","dest_lat":37.52751904097061,"dest_lon":126.87443491547334,"total":14,"byHour":[0,4,0,0,0,0,0,0,4,0,3,0,0,0,0,3,0,0,0,0,0,0,0,0],"byMode":{"지하철":14}},{"dest_code":"11590520","dest_name":"서울특별시 동작구 노량진2동","dest_lat":37.510955974919455,"dest_lon":126.93780933679756,"total":14,"byHour":[0,0,2,0,0,0,0,0,0,0,0,0,0,3,3,0,0,2,0,4,0,0,0,0],"byMode":{"지하철":11,"차량":3}},{"dest_code":"11740525","dest_name":"서울특별시 강동구 상일1동","dest_lat":37.550638313480455,"dest_lon":127.16478735017908,"total":14,"byHour":[0,0,0,0,0,2,0,0,0,0,0,0,4,0,0,3,0,0,3,0,2,0,0,0],"byMode":{"지하철":8,"차량":6}},{"dest_code":"11305575","dest_name":"서울특별시 강북구 삼각산동","dest_lat":37.61715932760559,"dest_lon":127.0165245795677,"total":14,"byHour":[0,0,0,0,0,0,0,0,0,0,5,0,0,0,3,6,0,0,0,0,0,0,0,0],"byMode":{"차량":8,"일반버스":3,"지하철":3}},{"dest_code":"11380510","dest_name":"서울특별시 은평구 녹번동","dest_lat":37.60530749347024,"dest_lon":126.93457412417987,"total":14,"byHour":[0,0,0,0,0,0,0,0,0,0,3,2,3,0,0,0,3,0,0,0,0,0,0,3],"byMode":{"지하철":6,"차량":5,"기타":3}},{"dest_code":"11500604","dest_name":"서울특별시 강서구 가양2동","dest_lat":37.56676852402787,"dest_lon":126.8543566480916,"total":14,"byHour":[0,0,0,0,0,0,0,0,0,0,4,0,0,6,0,0,4,0,0,0,0,0,0,0],"byMode":{"지하철":14}},{"dest_code":"11410720","dest_name":"서울특별시 서대문구 북가좌2동","dest_lat":37.58117691780368,"dest_lon":126.91333898837377,"total":14,"byHour":[0,0,0,0,0,0,0,0,0,0,0,3,0,0,0,8,0,3,0,0,0,0,0,0],"byMode":{"지하철":6,"차량":8}},{"dest_code":"11470600","dest_name":"서울특별시 양천구 신월5동","dest_lat":37.5409013825356,"dest_lon":126.82943642603806,"total":13,"byHour":[3,0,0,0,0,0,0,0,0,2,0,0,0,0,0,0,8,0,0,0,0,0,0,0],"byMode":{"차량":9,"지하철":4}},{"dest_code":"11620595","dest_name":"서울특별시 관악구 청룡동","dest_lat":37.47805691041308,"dest_lon":126.94581028099184,"total":13,"byHour":[2,2,0,0,0,0,0,0,0,0,0,0,0,0,0,0,0,0,0,2,0,2,5,0],"byMode":{"차량":4,"지하철":9}},{"dest_code":"11500605","dest_name":"서울특별시 강서구 가양3동","dest_lat":37.56080688286481,"dest_lon":126.86109864446476,"total":13,"byHour":[3,0,0,0,0,0,0,0,0,0,0,0,4,0,3,0,0,3,0,0,0,0,0,0],"byMode":{"차량":3,"지하철":10}},{"dest_code":"11215820","dest_name":"서울특별시 광진구 자양1동","dest_lat":37.53559062377607,"dest_lon":127.08045420792878,"total":13,"byHour":[0,3,0,0,0,0,0,0,0,0,0,3,0,3,0,0,4,0,0,0,0,0,0,0],"byMode":{"차량":13}},{"dest_code":"11410685","dest_name":"서울특별시 서대문구 홍은2동","dest_lat":37.5871708157449,"dest_lon":126.93212944092396,"total":13,"byHour":[0,3,0,0,3,0,0,0,0,0,0,0,0,0,0,0,0,4,0,0,0,0,3,0],"byMode":{"일반버스":7,"차량":6}},{"dest_code":"11590620","dest_name":"서울특별시 동작구 사당1동","dest_lat":37.47978703194504,"dest_lon":126.97751804689942,"total":13,"byHour":[0,0,0,0,0,0,0,3,0,0,4,0,0,0,0,3,0,0,3,0,0,0,0,0],"byMode":{"지하철":13}},{"dest_code":"11350619","dest_name":"서울특별시 노원구 중계본동","dest_lat":37.64862942471432,"dest_lon":127.0860202514856,"total":13,"byHour":[0,0,0,0,0,0,0,3,0,0,0,0,0,3,0,0,0,0,4,3,0,0,0,0],"byMode":{"차량":10,"기타":3}},{"dest_code":"11650570","dest_name":"서울특별시 서초구 반포2동","dest_lat":37.50722482634657,"dest_lon":126.99596200627936,"total":13,"byHour":[0,0,0,0,0,0,0,0,4,0,3,0,3,0,0,0,3,0,0,0,0,0,0,0],"byMode":{"차량":7,"지하철":6}},{"dest_code":"30200000","dest_name":"대전광역시 유성구","dest_lat":36.38116700360014,"dest_lon":127.34522624346283,"total":13,"byHour":[0,0,0,0,0,0,0,0,3,0,0,0,0,0,0,0,0,0,0,3,7,0,0,0],"byMode":{"지하철":3,"차량":10}},{"dest_code":"11620735","dest_name":"서울특별시 관악구 대학동","dest_lat":37.45291112083013,"dest_lon":126.94852030298784,"total":13,"byHour":[0,0,0,0,0,0,0,0,0,7,0,0,0,3,0,3,0,0,0,0,0,0,0,0],"byMode":{"차량":7,"지하철":6}},{"dest_code":"11560650","dest_name":"서울특별시 영등포구 신길3동","dest_lat":37.506238488162886,"dest_lon":126.90577245220663,"total":13,"byHour":[0,0,0,0,0,0,0,0,0,0,0,3,0,4,0,0,0,3,3,0,0,0,0,0],"byMode":{"차량":3,"지하철":10}},{"dest_code":"11620565","dest_name":"서울특별시 관악구 성현동","dest_lat":37.48955017818484,"dest_lon":126.95104675932345,"total":13,"byHour":[0,0,0,0,0,0,0,0,0,0,0,0,7,3,0,0,0,0,0,0,0,0,0,3],"byMode":{"차량":13}},{"dest_code":"11440700","dest_name":"서울특별시 마포구 망원2동","dest_lat":37.55898791228325,"dest_lon":126.900176504276,"total":13,"byHour":[0,0,0,0,0,0,0,0,0,0,0,0,0,3,0,7,0,0,0,0,3,0,0,0],"byMode":{"지하철":13}},{"dest_code":"11350700","dest_name":"서울특별시 노원구 상계8동","dest_lat":37.66652471977377,"dest_lon":127.05350427757747,"total":13,"byHour":[0,0,0,0,0,0,0,0,0,0,0,0,0,0,3,0,7,0,0,3,0,0,0,0],"byMode":{"지하철":9,"차량":4}},{"dest_code":"11215830","dest_name":"서울특별시 광진구 자양2동","dest_lat":37.529103216756376,"dest_lon":127.08275137179692,"total":12,"byHour":[9,0,0,0,0,0,0,0,0,0,3,0,0,0,0,0,0,0,0,0,0,0,0,0],"byMode":{"일반버스":9,"차량":3}},{"dest_code":"42130000","dest_name":"강원도 원주시","dest_lat":37.312346367873374,"dest_lon":127.94799030344927,"total":12,"byHour":[0,3,0,0,0,0,0,3,0,6,0,0,0,0,0,0,0,0,0,0,0,0,0,0],"byMode":{"차량":12}},{"dest_code":"11380551","dest_name":"서울특별시 은평구 갈현1동","dest_lat":37.625194351134994,"dest_lon":126.91473683285209,"total":12,"byHour":[0,0,3,0,0,0,0,0,0,0,0,0,0,3,3,3,0,0,0,0,0,0,0,0],"byMode":{"기타":3,"지하철":9}},{"dest_code":"11440720","dest_name":"서울특별시 마포구 성산1동","dest_lat":37.562001970808,"dest_lon":126.91184564810614,"total":12,"byHour":[0,0,2,0,0,0,0,0,0,0,0,0,3,0,0,0,0,3,4,0,0,0,0,0],"byMode":{"차량":2,"지하철":7,"기타":3}},{"dest_code":"11320511","dest_name":"서울특별시 도봉구 창1동","dest_lat":37.64709093129404,"dest_lon":127.04354230346514,"total":12,"byHour":[0,0,0,0,4,0,0,0,0,0,0,0,0,4,4,0,0,0,0,0,0,0,0,0],"byMode":{"차량":12}},{"dest_code":"11350624","dest_name":"서울특별시 노원구 중계4동","dest_lat":37.65936386768401,"dest_lon":127.08251558546104,"total":12,"byHour":[0,0,0,0,0,0,0,3,0,3,0,0,0,3,0,0,0,0,0,0,0,3,0,0],"byMode":{"차량":9,"지하철":3}},{"dest_code":"11380690","dest_name":"서울특별시 은평구 진관동","dest_lat":37.63967752919758,"dest_lon":126.93782340570208,"total":12,"byHour":[0,0,0,0,0,0,0,0,0,3,0,0,0,3,4,2,0,0,0,0,0,0,0,0],"byMode":{"차량":9,"지하철":3}},{"dest_code":"11530740","dest_name":"서울특별시 구로구 개봉1동","dest_lat":37.500003575772105,"dest_lon":126.84912655135652,"total":12,"byHour":[0,0,0,0,0,0,0,0,0,2,0,0,4,0,0,0,0,3,0,0,0,3,0,0],"byMode":{"지하철":12}},{"dest_code":"11710642","dest_name":"서울특별시 송파구 문정2동","dest_lat":37.481196589583,"dest_lon":127.11914118070632,"total":12,"byHour":[0,0,0,0,0,0,0,0,0,3,0,0,0,0,9,0,0,0,0,0,0,0,0,0],"byMode":{"차량":6,"지하철":6}},{"dest_code":"11680655","dest_name":"서울특별시 강남구 도곡1동","dest_lat":37.488887657674894,"dest_lon":127.04101114838812,"total":12,"byHour":[0,0,0,0,0,0,0,0,0,0,2,0,3,0,0,0,0,7,0,0,0,0,0,0],"byMode":{"차량":9,"지하철":3}},{"dest_code":"11320522","dest_name":"서울특별시 도봉구 도봉2동","dest_lat":37.68125464671829,"dest_lon":127.0477027712937,"total":12,"byHour":[0,0,0,0,0,0,0,0,0,0,0,6,0,0,0,3,0,0,0,0,0,3,0,0],"byMode":{"지하철":12}},{"dest_code":"11740550","dest_name":"서울특별시 강동구 고덕1동","dest_lat":37.56170532192555,"dest_lon":127.15093601669224,"total":12,"byHour":[0,0,0,0,0,0,0,0,0,0,0,0,3,6,0,3,0,0,0,0,0,0,0,0],"byMode":{"차량":9,"지하철":3}},{"dest_code":"11350640","dest_name":"서울특별시 노원구 상계2동","dest_lat":37.65665170508147,"dest_lon":127.06709982703664,"total":12,"byHour":[0,0,0,0,0,0,0,0,0,0,0,0,2,6,0,0,2,2,0,0,0,0,0,0],"byMode":{"차량":8,"지하철":4}},{"dest_code":"11500591","dest_name":"서울특별시 강서구 화곡6동","dest_lat":37.55172114803463,"dest_lon":126.85123082314595,"total":12,"byHour":[0,0,0,0,0,0,0,0,0,0,0,0,0,3,0,0,4,3,0,0,2,0,0,0],"byMode":{"지하철":3,"차량":9}},{"dest_code":"11500590","dest_name":"서울특별시 강서구 화곡본동","dest_lat":37.5426355037639,"dest_lon":126.84811811679272,"total":12,"byHour":[0,0,0,0,0,0,0,0,0,0,0,0,0,0,3,0,6,3,0,0,0,0,0,0],"byMode":{"지하철":6,"차량":6}},{"dest_code":"11260620","dest_name":"서울특별시 중랑구 묵1동","dest_lat":37.61372612547999,"dest_lon":127.08253301501492,"total":12,"byHour":[0,0,0,0,0,0,0,0,0,0,0,0,0,0,0,0,3,3,3,3,0,0,0,0],"byMode":{"지하철":6,"차량":3,"일반버스":3}},{"dest_code":"11560660","dest_name":"서울특별시 영등포구 신길4동","dest_lat":37.50688049196096,"dest_lon":126.91282913998464,"total":11,"byHour":[3,0,0,0,0,0,0,0,0,0,0,0,0,0,0,0,4,4,0,0,0,0,0,0],"byMode":{"차량":3,"지하철":4,"기타":4}},{"dest_code":"11710510","dest_name":"서울특별시 송파구 풍납1동","dest_lat":37.53843743078575,"dest_lon":127.11465989451312,"total":11,"byHour":[0,2,0,0,0,0,0,0,0,0,0,0,6,0,0,0,0,0,0,0,3,0,0,0],"byMode":{"차량":8,"지하철":3}},{"dest_code":"44133000","dest_name":"충청남도 천안시 서북구","dest_lat":36.863184163031605,"dest_lon":127.16454618470004,"total":11,"byHour":[0,0,0,4,0,0,3,0,0,4,0,0,0,0,0,0,0,0,0,0,0,0,0,0],"byMode":{"차량":11}},{"dest_code":"11650621","dest_name":"서울특별시 서초구 방배4동","dest_lat":37.48983219519618,"dest_lon":126.990978616156,"total":11,"byHour":[0,0,0,0,0,0,0,4,0,0,1,0,0,0,0,0,0,3,0,0,0,3,0,0],"byMode":{"지하철":5,"차량":6}},{"dest_code":"11530720","dest_name":"서울특별시 구로구 고척1동","dest_lat":37.50070751188327,"dest_lon":126.86370017463868,"total":11,"byHour":[0,0,0,0,0,0,0,3,0,0,0,0,0,0,0,3,0,3,2,0,0,0,0,0],"byMode":{"차량":6,"지하철":5}},{"dest_code":"11380530","dest_name":"서울특별시 은평구 불광2동","dest_lat":37.624278541092735,"dest_lon":126.92869863673612,"total":11,"byHour":[0,0,0,0,0,0,0,3,0,0,0,0,0,0,3,0,2,0,3,0,0,0,0,0],"byMode":{"일반버스":3,"차량":3,"지하철":5}},{"dest_code":"11650520","dest_name":"서울특별시 서초구 서초2동","dest_lat":37.48882759709113,"dest_lon":127.0279086854325,"total":11,"byHour":[0,0,0,0,0,0,0,0,4,0,0,0,4,0,3,0,0,0,0,0,0,0,0,0],"byMode":{"차량":7,"기타":4}},{"dest_code":"11680670","dest_name":"서울특별시 강남구 개포2동","dest_lat":37.48467354804906,"dest_lon":127.0690107921515,"total":11,"byHour":[0,0,0,0,0,0,0,0,0,0,4,3,0,0,4,0,0,0,0,0,0,0,0,0],"byMode":{"지하철":11}},{"dest_code":"11260660","dest_name":"서울특별시 중랑구 망우3동","dest_lat":37.591884956932,"dest_lon":127.10282860833864,"total":11,"byHour":[0,0,0,0,0,0,0,0,0,0,0,0,4,0,4,0,0,0,0,0,3,0,0,0],"byMode":{"차량":4,"기타":7}},{"dest_code":"11440610","dest_name":"서울특별시 마포구 염리동","dest_lat":37.549897792767865,"dest_lon":126.947537319435,"total":11,"byHour":[0,0,0,0,0,0,0,0,0,0,0,0,0,3,3,0,2,0,0,0,0,0,3,0],"byMode":{"지하철":11}},{"dest_code":"11440690","dest_name":"서울특별시 마포구 망원1동","dest_lat":37.55361948433182,"dest_lon":126.89975173517158,"total":11,"byHour":[0,0,0,0,0,0,0,0,0,0,0,0,0,4,3,0,4,0,0,0,0,0,0,0],"byMode":{"지하철":8,"차량":3}},{"dest_code":"11740660","dest_name":"서울특별시 강동구 성내3동","dest_lat":37.52834784600046,"dest_lon":127.13377221408268,"total":10,"byHour":[2,0,0,0,0,0,0,0,0,0,2,0,2,0,0,0,0,4,0,0,0,0,0,0],"byMode":{"차량":10}},{"dest_code":"11410700","dest_name":"서울특별시 서대문구 남가좌2동","dest_lat":37.57792789374408,"dest_lon":126.92134583020304,"total":10,"byHour":[0,0,4,0,0,0,0,0,0,3,0,0,3,0,0,0,0,0,0,0,0,0,0,0],"byMode":{"지하철":4,"차량":6}},{"dest_code":"44710000","dest_name":"충청남도 금산군","dest_lat":36.11676941398032,"dest_lon":127.4770167468835,"total":10,"byHour":[0,0,0,0,0,0,10,0,0,0,0,0,0,0,0,0,0,0,0,0,0,0,0,0],"byMode":{"지하철":3,"차량":7}},{"dest_code":"11290640","dest_name":"서울특별시 성북구 정릉3동","dest_lat":37.61209700278061,"dest_lon":126.99458959683868,"total":10,"byHour":[0,0,0,0,0,0,0,7,0,0,3,0,0,0,0,0,0,0,0,0,0,0,0,0],"byMode":{"차량":6,"기타":4}},{"dest_code":"11620630","dest_name":"서울특별시 관악구 남현동","dest_lat":37.464112163050295,"dest_lon":126.977768370847,"total":10,"byHour":[0,0,0,0,0,0,0,3,0,0,0,2,3,0,0,2,0,0,0,0,0,0,0,0],"byMode":{"지하철":8,"차량":2}},{"dest_code":"11320513","dest_name":"서울특별시 도봉구 창3동","dest_lat":37.63729397628067,"dest_lon":127.04172477409548,"total":10,"byHour":[0,0,0,0,0,0,0,7,0,0,0,0,3,0,0,0,0,0,0,0,0,0,0,0],"byMode":{"차량":7,"지하철":3}},{"dest_code":"11320660","dest_name":"서울특별시 도봉구 쌍문1동","dest_lat":37.65306893249887,"dest_lon":127.01951564530228,"total":10,"byHour":[0,0,0,0,0,0,0,3,0,3,0,0,0,0,0,4,0,0,0,0,0,0,0,0],"byMode":{"지하철":3,"차량":3,"기타":4}},{"dest_code":"11500593","dest_name":"서울특별시 강서구 화곡8동","dest_lat":37.53426695337341,"dest_lon":126.84877256833798,"total":10,"byHour":[0,0,0,0,0,0,0,0,0,0,3,0,0,0,3,0,0,3,1,0,0,0,0,0],"byMode":{"지하철":10}},{"dest_code":"11620695","dest_name":"서울특별시 관악구 신림동","dest_lat":37.4871415005715,"dest_lon":126.92716843915656,"total":10,"byHour":[0,0,0,0,0,0,0,0,0,0,3,0,0,0,2,0,0,0,0,0,0,3,2,0],"byMode":{"지하철":8,"차량":2}},{"dest_code":"11470680","dest_name":"서울특별시 양천구 신정7동","dest_lat":37.50987688932637,"dest_lon":126.86540807073112,"total":10,"byHour":[0,0,0,0,0,0,0,0,0,0,0,4,0,0,3,0,0,0,3,0,0,0,0,0],"byMode":{"지하철":7,"도보":3}},{"dest_code":"11590560","dest_name":"서울특별시 동작구 상도4동","dest_lat":37.49742138615788,"dest_lon":126.94066964463084,"total":10,"byHour":[0,0,0,0,0,0,0,0,0,0,0,7,0,0,0,0,0,0,0,0,3,0,0,0],"byMode":{"지하철":7,"차량":3}},{"dest_code":"11710650","dest_name":"서울특별시 송파구 잠실본동","dest_lat":37.50598801506433,"dest_lon":127.08262032317404,"total":10,"byHour":[0,0,0,0,0,0,0,0,0,0,0,2,0,0,3,0,0,3,2,0,0,0,0,0],"byMode":{"차량":2,"지하철":8}},{"dest_code":"11530560","dest_name":"서울특별시 구로구 구로5동","dest_lat":37.501992406102005,"dest_lon":126.88855063913384,"total":10,"byHour":[0,0,0,0,0,0,0,0,0,0,0,3,0,3,0,0,0,0,4,0,0,0,0,0],"byMode":{"차량":3,"지하철":7}},{"dest_code":"11590660","dest_name":"서울특별시 동작구 대방동","dest_lat":37.506904126207175,"dest_lon":126.9280462203087,"total":10,"byHour":[0,0,0,0,0,0,0,0,0,0,0,0,3,0,0,7,0,0,0,0,0,0,0,0],"byMode":{"지하철":10}},{"dest_code":"11170580","dest_name":"서울특별시 용산구 효창동","dest_lat":37.5428121998644,"dest_lon":126.96094385659588,"total":10,"byHour":[0,0,0,0,0,0,0,0,0,0,0,0,0,4,0,3,0,0,0,3,0,0,0,0],"byMode":{"지하철":4,"차량":6}},{"dest_code":"11620525","dest_name":"서울특별시 관악구 보라매동","dest_lat":37.4903997651064,"dest_lon":126.93257631802736,"total":10,"byHour":[0,0,0,0,0,0,0,0,0,0,0,0,0,0,0,0,4,4,0,0,0,0,2,0],"byMode":{"지하철":8,"차량":2}},{"dest_code":"11380560","dest_name":"서울특별시 은평구 구산동","dest_lat":37.611069000619466,"dest_lon":126.90730854008928,"total":9,"byHour":[2,0,0,0,0,0,0,0,0,0,0,0,0,0,0,7,0,0,0,0,0,0,0,0],"byMode":{"차량":5,"지하철":4}},{"dest_code":"11350670","dest_name":"서울특별시 노원구 상계5동","dest_lat":37.66600955926868,"dest_lon":127.06999865156484,"total":9,"byHour":[3,0,0,0,0,0,0,0,0,0,0,0,0,0,2,0,0,4,0,0,0,0,0,0],"byMode":{"차량":9}},{"dest_code":"11740580","dest_name":"서울특별시 강동구 암사2동","dest_lat":37.55703258047762,"dest_lon":127.12368602677375,"total":9,"byHour":[3,0,0,0,0,0,0,0,0,0,0,0,0,0,3,0,0,0,0,0,0,0,3,0],"byMode":{"지하철":9}},{"dest_code":"11530540","dest_name":"서울특별시 구로구 구로3동","dest_lat":37.48487331436084,"dest_lon":126.89491415645765,"total":9,"byHour":[3,0,0,0,0,0,2,0,0,0,0,0,0,0,0,0,0,0,0,0,0,0,0,4],"byMode":{"지하철":9}},{"dest_code":"43750000","dest_name":"충청북도 진천군","dest_lat":36.88828939121019,"dest_lon":127.4414355177651,"total":9,"byHour":[0,6,0,0,0,0,0,0,0,3,0,0,0,0,0,0,0,0,0,0,0,0,0,0],"byMode":{"차량":9}},{"dest_code":"11740526","dest_name":"서울특별시 강동구 상일2동","dest_lat":37.5518559256497,"dest_lon":127.17747417503182,"total":9,"byHour":[0,0,0,3,0,0,0,0,0,0,0,2,0,0,0,0,0,4,0,0,0,0,0,0],"byMode":{"차량":3,"일반버스":2,"지하철":4}},{"dest_code":"11560515","dest_name":"서울특별시 영등포구 영등포본동","dest_lat":37.5136750265938,"dest_lon":126.90953128957892,"total":9,"byHour":[0,0,0,3,0,3,0,0,0,0,0,3,0,0,0,0,0,0,0,0,0,0,0,0],"byMode":{"지하철":6,"차량":3}},{"dest_code":"43114000","dest_name":"충청북도 청주시 청원구","dest_lat":36.69832402456021,"dest_lon":127.48474075703272,"total":9,"byHour":[0,0,0,0,6,0,0,0,0,0,0,0,0,0,0,0,3,0,0,0,0,0,0,0],"byMode":{"차량":9}},{"dest_code":"11320515","dest_name":"서울특별시 도봉구 창5동","dest_lat":37.655371937488496,"dest_lon":127.0427893433785,"total":9,"byHour":[0,0,0,0,0,3,0,0,0,0,0,3,0,0,0,0,0,0,0,0,3,0,0,0],"byMode":{"차량":6,"지하철":3}},{"dest_code":"11110600","dest_name":"서울특별시 종로구 가회동","dest_lat":37.58251427458714,"dest_lon":126.986547119483,"total":9,"byHour":[0,0,0,0,0,0,4,0,0,0,2,0,0,0,0,0,0,0,0,0,0,3,0,0],"byMode":{"지하철":4,"기타":2,"도보":3}},{"dest_code":"11500640","dest_name":"서울특별시 강서구 방화2동","dest_lat":37.58271423824387,"dest_lon":126.80402677763084,"total":9,"byHour":[0,0,0,0,0,0,3,0,0,0,0,0,0,0,0,0,3,0,0,3,0,0,0,0],"byMode":{"차량":6,"지하철":3}},{"dest_code":"11560630","dest_name":"서울특별시 영등포구 신길1동","dest_lat":37.51243114812717,"dest_lon":126.91947932501792,"total":9,"byHour":[0,0,0,0,0,0,3,0,0,0,0,0,0,0,0,0,0,0,4,0,0,0,2,0],"byMode":{"차량":5,"지하철":4}},{"dest_code":"11650660","dest_name":"서울특별시 서초구 내곡동","dest_lat":37.455858973063,"dest_lon":127.07063192337948,"total":9,"byHour":[0,0,0,0,0,0,3,0,0,3,0,0,0,0,3,0,0,0,0,0,0,0,0,0],"byMode":{"차량":9}},{"dest_code":"11740530","dest_name":"서울특별시 강동구 명일1동","dest_lat":37.55034957453017,"dest_lon":127.14594542077988,"total":9,"byHour":[0,0,0,0,0,0,0,3,0,0,0,0,0,0,3,0,0,0,0,0,3,0,0,0],"byMode":{"차량":6,"지하철":3}},{"dest_code":"11680660","dest_name":"서울특별시 강남구 개포1동","dest_lat":37.47778212319665,"dest_lon":127.06232388097084,"total":9,"byHour":[0,0,0,0,0,0,0,0,3,6,0,0,0,0,0,0,0,0,0,0,0,0,0,0],"byMode":{"일반버스":3,"차량":6}},{"dest_code":"43770000","dest_name":"충청북도 음성군","dest_lat":36.98909996439357,"dest_lon":127.62173799111324,"total":9,"byHour":[0,0,0,0,0,0,0,0,0,3,0,0,0,0,0,0,4,0,0,0,0,2,0,0],"byMode":{"차량":9}},{"dest_code":"11215760","dest_name":"서울특별시 광진구 중곡3동","dest_lat":37.56791070389989,"dest_lon":127.082017158444,"total":9,"byHour":[0,0,0,0,0,0,0,0,0,2,0,4,0,0,0,3,0,0,0,0,0,0,0,0],"byMode":{"차량":6,"지하철":3}},{"dest_code":"11350630","dest_name":"서울특별시 노원구 상계1동","dest_lat":37.68338646996146,"dest_lon":127.06511513804952,"total":9,"byHour":[0,0,0,0,0,0,0,0,0,0,0,6,0,0,0,0,3,0,0,0,0,0,0,0],"byMode":{"차량":6,"지하철":3}},{"dest_code":"11650560","dest_name":"서울특별시 서초구 반포1동","dest_lat":37.50552851610613,"dest_lon":127.0167625320726,"total":9,"byHour":[0,0,0,0,0,0,0,0,0,0,0,0,3,0,3,0,0,3,0,0,0,0,0,0],"byMode":{"차량":3,"기타":3,"일반버스":3}},{"dest_code":"11740700","dest_name":"서울특별시 강동구 둔촌2동","dest_lat":37.531308450368925,"dest_lon":127.14724337088715,"total":9,"byHour":[0,0,0,0,0,0,0,0,0,0,0,0,3,0,0,3,0,0,3,0,0,0,0,0],"byMode":{"차량":9}},{"dest_code":"11560610","dest_name":"서울특별시 영등포구 양평1동","dest_lat":37.52545711949541,"dest_lon":126.88671756480686,"total":9,"byHour":[0,0,0,0,0,0,0,0,0,0,0,0,6,3,0,0,0,0,0,0,0,0,0,0],"byMode":{"차량":6,"지하철":3}},{"dest_code":"11680730","dest_name":"서울특별시 강남구 일원1동","dest_lat":37.49346648686934,"dest_lon":127.08924187143631,"total":9,"byHour":[0,0,0,0,0,0,0,0,0,0,0,0,0,7,0,0,0,0,0,0,0,0,0,2],"byMode":{"지하철":3,"일반버스":4,"차량":2}},{"dest_code":"11545640","dest_name":"서울특별시 금천구 독산4동","dest_lat":37.46917496173048,"dest_lon":126.90409064565073,"total":9,"byHour":[0,0,0,0,0,0,0,0,0,0,0,0,0,0,4,2,0,0,3,0,0,0,0,0],"byMode":{"지하철":4,"차량":5}},{"dest_code":"45720000","dest_name":"전라북도 진안군","dest_lat":35.66583374989909,"dest_lon":127.44625496174308,"total":8,"byHour":[0,0,0,0,0,0,0,4,4,0,0,0,0,0,0,0,0,0,0,0,0,0,0,0],"byMode":{"차량":8}},{"dest_code":"11530760","dest_name":"서울특별시 구로구 개봉3동","dest_lat":37.48653804415758,"dest_lon":126.85221969569102,"total":8,"byHour":[0,0,0,0,0,0,0,0,0,0,4,0,0,0,0,0,4,0,0,0,0,0,0,0],"byMode":{"지하철":4,"차량":4}},{"dest_code":"11620605","dest_name":"서울특별시 관악구 은천동","dest_lat":37.48699909360007,"dest_lon":126.94209911030376,"total":8,"byHour":[0,0,0,0,0,0,0,0,0,0,4,0,0,0,0,0,0,4,0,0,0,0,0,0],"byMode":{"지하철":8}},{"dest_code":"11410520","dest_name":"서울특별시 서대문구 천연동","dest_lat":37.57131965007134,"dest_lon":126.9566540266542,"total":8,"byHour":[0,0,0,0,0,0,0,0,0,0,0,4,0,0,0,0,4,0,0,0,0,0,0,0],"byMode":{"지하철":4,"차량":4}},{"dest_code":"11680600","dest_name":"서울특별시 강남구 대치1동","dest_lat":37.49336319439959,"dest_lon":127.05908993466304,"total":8,"byHour":[0,0,0,0,0,0,0,0,0,0,0,0,5,3,0,0,0,0,0,0,0,0,0,0],"byMode":{"차량":2,"지하철":6}},{"dest_code":"11650580","dest_name":"서울특별시 서초구 반포3동","dest_lat":37.51232734794036,"dest_lon":127.00397631455913,"total":8,"byHour":[0,0,0,0,0,0,0,0,0,0,0,0,0,0,3,2,0,0,0,0,3,0,0,0],"byMode":{"차량":5,"지하철":3}},{"dest_code":"11470610","dest_name":"서울특별시 양천구 신월6동","dest_lat":37.51598465548159,"dest_lon":126.84216224664964,"total":8,"byHour":[0,0,0,0,0,0,0,0,0,0,0,0,0,0,4,4,0,0,0,0,0,0,0,0],"byMode":{"차량":4,"지하철":4}},{"dest_code":"11590630","dest_name":"서울특별시 동작구 사당2동","dest_lat":37.497195989262906,"dest_lon":126.9748305493792,"total":8,"byHour":[0,0,0,0,0,0,0,0,0,0,0,0,0,0,3,5,0,0,0,0,0,0,0,0],"byMode":{"지하철":8}},{"dest_code":"11710647","dest_name":"서울특별시 송파구 위례동","dest_lat":37.48159973774568,"dest_lon":127.14122731389826,"total":8,"byHour":[0,0,0,0,0,0,0,0,0,0,0,0,0,0,3,0,0,0,0,0,2,3,0,0],"byMode":{"지하철":6,"차량":2}},{"dest_code":"11680690","dest_name":"서울특별시 강남구 개포4동","dest_lat":37.47533332020373,"dest_lon":127.05341069324228,"total":8,"byHour":[0,0,0,0,0,0,0,0,0,0,0,0,0,0,0,0,8,0,0,0,0,0,0,0],"byMode":{"지하철":4,"일반버스":4}},{"dest_code":"11470540","dest_name":"서울특별시 양천구 목4동","dest_lat":37.53535345473459,"dest_lon":126.86695621196822,"total":8,"byHour":[0,0,0,0,0,0,0,0,0,0,0,0,0,0,0,0,0,0,0,4,0,0,4,0],"byMode":{"지하철":8}},{"dest_code":"11410655","dest_name":"서울특별시 서대문구 홍제2동","dest_lat":37.584386176185454,"dest_lon":126.95251363483156,"total":7,"byHour":[3,0,0,0,0,0,0,0,0,0,0,0,0,4,0,0,0,0,0,0,0,0,0,0],"byMode":{"일반버스":3,"기타":4}},{"dest_code":"11590640","dest_name":"서울특별시 동작구 사당3동","dest_lat":37.48875334371872,"dest_lon":126.97097662017023,"total":7,"byHour":[4,3,0,0,0,0,0,0,0,0,0,0,0,0,0,0,0,0,0,0,0,0,0,0],"byMode":{"차량":7}},{"dest_code":"11380552","dest_name":"서울특별시 은평구 갈현2동","dest_lat":37.61798039239918,"dest_lon":126.91245240262892,"total":7,"byHour":[3,0,0,0,0,0,0,0,0,0,0,0,0,0,0,4,0,0,0,0,0,0,0,0],"byMode":{"차량":3,"지하철":4}},{"dest_code":"11710720","dest_name":"서울특별시 송파구 잠실7동","dest_lat":37.50731814805191,"dest_lon":127.07388403732652,"total":7,"byHour":[0,0,0,0,0,0,0,3,0,0,4,0,0,0,0,0,0,0,0,0,0,0,0,0],"byMode":{"지하철":7}},{"dest_code":"11740590","dest_name":"서울특별시 강동구 암사3동","dest_lat":37.56118661306365,"dest_lon":127.13863777415892,"total":7,"byHour":[0,0,0,0,0,0,0,0,4,0,0,0,0,0,0,0,0,3,0,0,0,0,0,0],"byMode":{"차량":7}},{"dest_code":"11500611","dest_name":"서울특별시 강서구 발산1동","dest_lat":37.55050719249973,"dest_lon":126.82526217896871,"total":7,"byHour":[0,0,0,0,0,0,0,0,0,0,0,4,0,0,3,0,0,0,0,0,0,0,0,0],"byMode":{"지하철":7}},{"dest_code":"11410660","dest_name":"서울특별시 서대문구 홍은1동","dest_lat":37.600634867740176,"dest_lon":126.94693487801828,"total":7,"byHour":[0,0,0,0,0,0,0,0,0,0,0,4,0,0,0,0,3,0,0,0,0,0,0,0],"byMode":{"지하철":7}},{"dest_code":"11545610","dest_name":"서울특별시 금천구 독산1동","dest_lat":37.46430767232536,"dest_lon":126.89249564631804,"total":7,"byHour":[0,0,0,0,0,0,0,0,0,0,0,0,0,4,0,0,0,0,0,3,0,0,0,0],"byMode":{"지하철":7}},{"dest_code":"11530770","dest_name":"서울특별시 구로구 오류1동","dest_lat":37.4968684057227,"dest_lon":126.84164833495925,"total":7,"byHour":[0,0,0,0,0,0,0,0,0,0,0,0,0,3,0,4,0,0,0,0,0,0,0,0],"byMode":{"지하철":7}},{"dest_code":"11170590","dest_name":"서울특별시 용산구 용문동","dest_lat":37.53797895957467,"dest_lon":126.95851292087411,"total":7,"byHour":[0,0,0,0,0,0,0,0,0,0,0,0,0,0,7,0,0,0,0,0,0,0,0,0],"byMode":{"지하철":7}},{"dest_code":"11500641","dest_name":"서울특별시 강서구 방화3동","dest_lat":37.58211504505231,"dest_lon":126.81759007551284,"total":7,"byHour":[0,0,0,0,0,0,0,0,0,0,0,0,0,0,7,0,0,0,0,0,0,0,0,0],"byMode":{"차량":7}},{"dest_code":"11710646","dest_name":"서울특별시 송파구 장지동","dest_lat":37.482973920923705,"dest_lon":127.13150452137992,"total":7,"byHour":[0,0,0,0,0,0,0,0,0,0,0,0,0,0,4,0,0,3,0,0,0,0,0,0],"byMode":{"차량":4,"지하철":3}},{"dest_code":"11620645","dest_name":"서울특별시 관악구 서원동","dest_lat":37.48059931523777,"dest_lon":126.93333223242752,"total":7,"byHour":[0,0,0,0,0,0,0,0,0,0,0,0,0,0,4,0,0,0,0,0,0,0,3,0],"byMode":{"지하철":7}},{"dest_code":"11545670","dest_name":"서울특별시 금천구 시흥1동","dest_lat":37.45241027086715,"dest_lon":126.90014751611682,"total":7,"byHour":[0,0,0,0,0,0,0,0,0,0,0,0,0,0,4,0,3,0,0,0,0,0,0,0],"byMode":{"차량":4,"지하철":3}},{"dest_code":"11620715","dest_name":"서울특별시 관악구 난향동","dest_lat":37.46150295546033,"dest_lon":126.91852421534638,"total":7,"byHour":[0,0,0,0,0,0,0,0,0,0,0,0,0,0,0,0,3,4,0,0,0,0,0,0],"byMode":{"차량":7}},{"dest_code":"11260540","dest_name":"서울특별시 중랑구 면목4동","dest_lat":37.573618445205234,"dest_lon":127.08537359110592,"total":7,"byHour":[0,0,0,0,0,0,0,0,0,0,0,0,0,0,0,0,0,7,0,0,0,0,0,0],"byMode":{"일반버스":4,"지하철":3}},{"dest_code":"11620685","dest_name":"서울특별시 관악구 신사동","dest_lat":37.48582557530138,"dest_lon":126.91862482695264,"total":7,"byHour":[0,0,0,0,0,0,0,0,0,0,0,0,0,0,0,0,0,0,7,0,0,0,0,0],"byMode":{"지하철":7}},{"dest_code":"11590670","dest_name":"서울특별시 동작구 신대방1동","dest_lat":37.48998348036957,"dest_lon":126.91067169054448,"total":6,"byHour":[3,0,0,0,0,0,3,0,0,0,0,0,0,0,0,0,0,0,0,0,0,0,0,0],"byMode":{"지하철":6}},{"dest_code":"11620575","dest_name":"서울특별시 관악구 행운동","dest_lat":37.480974541256025,"dest_lon":126.96055306473508,"total":6,"byHour":[0,3,0,0,0,0,0,0,0,0,0,0,0,3,0,0,0,0,0,0,0,0,0,0],"byMode":{"차량":6}},{"dest_code":"11350720","dest_name":"서울특별시 노원구 상계10동","dest_lat":37.65971816335463,"dest_lon":127.05838376138938,"total":6,"byHour":[0,0,3,0,0,0,0,0,0,0,0,0,0,0,0,0,3,0,0,0,0,0,0,0],"byMode":{"차량":3,"지하철":3}},{"dest_code":"11500550","dest_name":"서울특별시 강서구 화곡2동","dest_lat":37.532261887349534,"dest_lon":126.85438256155751,"total":6,"byHour":[0,0,0,2,0,0,0,0,0,0,0,0,4,0,0,0,0,0,0,0,0,0,0,0],"byMode":{"차량":2,"지하철":4}},{"dest_code":"11680700","dest_name":"서울특별시 강남구 세곡동","dest_lat":37.470658793453936,"dest_lon":127.10430477063892,"total":6,"byHour":[0,0,0,0,0,3,0,0,0,0,0,0,0,0,0,0,3,0,0,0,0,0,0,0],"byMode":{"차량":6}},{"dest_code":"11710520","dest_name":"서울특별시 송파구 풍납2동","dest_lat":37.5301666178514,"dest_lon":127.10816320640797,"total":6,"byHour":[0,0,0,0,0,0,0,3,0,0,0,0,3,0,0,0,0,0,0,0,0,0,0,0],"byMode":{"차량":6}},{"dest_code":"11500540","dest_name":"서울특별시 강서구 화곡1동","dest_lat":37.53377324482262,"dest_lon":126.84092197413597,"total":6,"byHour":[0,0,0,0,0,0,0,3,0,0,0,3,0,0,0,0,0,0,0,0,0,0,0,0],"byMode":{"지하철":6}},{"dest_code":"11470630","dest_name":"서울특별시 양천구 신정2동","dest_lat":37.51940749286847,"dest_lon":126.8747941940831,"total":6,"byHour":[0,0,0,0,0,0,0,3,0,0,0,0,0,0,0,0,0,0,0,0,0,0,3,0],"byMode":{"지하철":3,"일반버스":3}},{"dest_code":"42150000","dest_name":"강원도 강릉시","dest_lat":37.62382066474987,"dest_lon":128.3400597919195,"total":6,"byHour":[0,0,0,0,0,0,0,3,0,0,0,0,0,0,0,0,0,3,0,0,0,0,0,0],"byMode":{"차량":6}},{"dest_code":"11200720","dest_name":"서울특별시 성동구 송정동","dest_lat":37.55237277778798,"dest_lon":127.06426341681592,"total":6,"byHour":[0,0,0,0,0,0,0,3,0,0,0,0,3,0,0,0,0,0,0,0,0,0,0,0],"byMode":{"차량":3,"기타":3}},{"dest_code":"11650600","dest_name":"서울특별시 서초구 방배1동","dest_lat":37.48487654628929,"dest_lon":126.99625988652642,"total":6,"byHour":[0,0,0,0,0,0,0,0,4,0,2,0,0,0,0,0,0,0,0,0,0,0,0,0],"byMode":{"차량":6}},{"dest_code":"44210000","dest_name":"충청남도 서산시","dest_lat":36.8161789846435,"dest_lon":126.47969787731947,"total":6,"byHour":[0,0,0,0,0,0,0,0,3,0,0,0,3,0,0,0,0,0,0,0,0,0,0,0],"byMode":{"차량":6}},{"dest_code":"11305608","dest_name":"서울특별시 강북구 번3동","dest_lat":37.623687055768,"dest_lon":127.04218511039488,"total":6,"byHour":[0,0,0,0,0,0,0,0,0,0,0,0,3,0,0,0,0,0,3,0,0,0,0,0],"byMode":{"지하철":3,"일반버스":3}},{"dest_code":"46230000","dest_name":"전라남도 광양시","dest_lat":35.018549347100105,"dest_lon":127.66042035127415,"total":6,"byHour":[0,0,0,0,0,0,0,0,0,0,0,0,0,6,0,0,0,0,0,0,0,0,0,0],"byMode":{"지하철":6}},{"dest_code":"36110000","dest_name":"세종특별자치시","dest_lat":36.58318068314505,"dest_lon":127.27393201909061,"total":6,"byHour":[0,0,0,0,0,0,0,0,0,0,0,0,0,3,0,0,0,3,0,0,0,0,0,0],"byMode":{"차량":6}},{"dest_code":"11260600","dest_name":"서울특별시 중랑구 중화1동","dest_lat":37.60259303945304,"dest_lon":127.08307073246408,"total":6,"byHour":[0,0,0,0,0,0,0,0,0,0,0,0,0,0,3,0,0,0,3,0,0,0,0,0],"byMode":{"기타":3,"일반버스":3}},{"dest_code":"43112000","dest_name":"충청북도 청주시 서원구","dest_lat":36.56459912756954,"dest_lon":127.45778957953205,"total":6,"byHour":[0,0,0,0,0,0,0,0,0,0,0,0,0,0,6,0,0,0,0,0,0,0,0,0],"byMode":{"차량":6}},{"dest_code":"11350560","dest_name":"서울특별시 노원구 월계1동","dest_lat":37.62192632316921,"dest_lon":127.05833892768436,"total":6,"byHour":[0,0,0,0,0,0,0,0,0,0,0,0,0,0,0,3,0,0,0,0,0,3,0,0],"byMode":{"일반버스":3,"차량":3}},{"dest_code":"11380600","dest_name":"서울특별시 은평구 응암3동","dest_lat":37.58892573969037,"dest_lon":126.9175543119417,"total":6,"byHour":[0,0,0,0,0,0,0,0,0,0,0,0,0,0,0,3,3,0,0,0,0,0,0,0],"byMode":{"차량":3,"일반버스":3}},{"dest_code":"11350710","dest_name":"서울특별시 노원구 상계9동","dest_lat":37.6676001331898,"dest_lon":127.0621817927983,"total":6,"byHour":[0,0,0,0,0,0,0,0,0,0,0,0,0,0,0,4,2,0,0,0,0,0,0,0],"byMode":{"차량":4,"지하철":2}},{"dest_code":"11740560","dest_name":"서울특별시 강동구 고덕2동","dest_lat":37.5651037879116,"dest_lon":127.16275604487758,"total":6,"byHour":[0,0,0,0,0,0,0,0,0,0,0,0,0,0,0,3,0,0,0,0,3,0,0,0],"byMode":{"차량":6}},{"dest_code":"41113000","dest_name":"경기도 수원시 권선구","dest_lat":37.26334766629814,"dest_lon":126.98565750659293,"total":6,"byHour":[0,0,0,0,0,0,0,0,0,0,0,0,0,0,0,0,0,3,0,3,0,0,0,0],"byMode":{"차량":3,"지하철":3}},{"dest_code":"11650590","dest_name":"서울특별시 서초구 방배본동","dest_lat":37.495050793874505,"dest_lon":126.98772523527354,"total":6,"byHour":[0,0,0,0,0,0,0,0,0,0,0,0,0,0,0,0,0,0,3,0,3,0,0,0],"byMode":{"차량":3,"지하철":3}},{"dest_code":"11710632","dest_name":"서울특별시 송파구 가락2동","dest_lat":37.495853177386486,"dest_lon":127.13076636683432,"total":6,"byHour":[0,0,0,0,0,0,0,0,0,0,0,0,0,0,0,0,0,0,6,0,0,0,0,0],"byMode":{"지하철":6}},{"dest_code":"11500630","dest_name":"서울특별시 강서구 방화1동","dest_lat":37.56860631833828,"dest_lon":126.81757799691684,"total":6,"byHour":[0,0,0,0,0,0,0,0,0,0,0,0,0,0,0,0,0,0,0,0,3,3,0,0],"byMode":{"지하철":6}},{"dest_code":"11500510","dest_name":"서울특별시 강서구 염창동","dest_lat":37.55454504668768,"dest_lon":126.87180143362478,"total":5,"byHour":[0,0,0,0,2,0,0,0,0,0,0,0,0,0,0,0,0,0,0,0,0,3,0,0],"byMode":{"차량":2,"지하철":3}},{"dest_code":"45111000","dest_name":"전라북도 전주시 완산구","dest_lat":35.80192055904271,"dest_lon":127.13386233726979,"total":5,"byHour":[0,0,0,0,0,0,0,0,0,0,2,0,0,0,0,0,0,0,3,0,0,0,0,0],"byMode":{"차량":5}},{"dest_code":"11350621","dest_name":"서울특별시 노원구 중계1동","dest_lat":37.65014907056829,"dest_lon":127.07370051549012,"total":5,"byHour":[0,0,0,0,0,0,0,0,0,0,0,0,2,0,0,3,0,0,0,0,0,0,0,0],"byMode":{"지하철":2,"차량":3}},{"dest_code":"11710590","dest_name":"서울특별시 송파구 송파2동","dest_lat":37.50285324752867,"dest_lon":127.11700927557912,"total":5,"byHour":[0,0,0,0,0,0,0,0,0,0,0,0,3,0,2,0,0,0,0,0,0,0,0,0],"byMode":{"지하철":3,"차량":2}},{"dest_code":"11710641","dest_name":"서울특별시 송파구 문정1동","dest_lat":37.48844250844521,"dest_lon":127.12690351618788,"total":5,"byHour":[0,0,0,0,0,0,0,0,0,0,0,0,0,0,3,0,2,0,0,0,0,0,0,0],"byMode":{"차량":5}},{"dest_code":"11380650","dest_name":"서울특별시 은평구 수색동","dest_lat":37.58559042350748,"dest_lon":126.89453127260626,"total":5,"byHour":[0,0,0,0,0,0,0,0,0,0,0,0,0,0,0,3,0,0,0,0,0,0,2,0],"byMode":{"일반버스":3,"지하철":2}},{"dest_code":"11500520","dest_name":"서울특별시 강서구 등촌1동","dest_lat":37.55585907387817,"dest_lon":126.85960959745547,"total":5,"byHour":[0,0,0,0,0,0,0,0,0,0,0,0,0,0,0,0,2,0,3,0,0,0,0,0],"byMode":{"차량":2,"지하철":3}},{"dest_code":"44150000","dest_name":"충청남도 공주시","dest_lat":36.46277292567498,"dest_lon":127.09229625202715,"total":5,"byHour":[0,0,0,0,0,0,0,0,0,0,0,0,0,0,0,0,0,0,2,0,0,3,0,0],"byMode":{"차량":5}},{"dest_code":"11350612","dest_name":"서울특별시 노원구 하계2동","dest_lat":37.63504657876006,"dest_lon":127.06496551885496,"total":4,"byHour":[4,0,0,0,0,0,0,0,0,0,0,0,0,0,0,0,0,0,0,0,0,0,0,0],"byMode":{"차량":4}},{"dest_code":"47770000","dest_name":"경상북도 영덕군","dest_lat":36.460817688478,"dest_lon":129.31665101629406,"total":4,"byHour":[0,0,0,0,0,0,4,0,0,0,0,0,0,0,0,0,0,0,0,0,0,0,0,0],"byMode":{"차량":4}},{"dest_code":"27140000","dest_name":"대구광역시 동구","dest_lat":35.91939945504537,"dest_lon":128.6752365956277,"total":4,"byHour":[0,0,0,0,0,0,4,0,0,0,0,0,0,0,0,0,0,0,0,0,0,0,0,0],"byMode":{"지하철":4}},{"dest_code":"42720000","dest_name":"강원도 홍천군","dest_lat":37.780816866581404,"dest_lon":128.00310130753468,"total":4,"byHour":[0,0,0,0,0,0,0,0,4,0,0,0,0,0,0,0,0,0,0,0,0,0,0,0],"byMode":{"차량":4}},{"dest_code":"11380632","dest_name":"서울특별시 은평구 신사2동","dest_lat":37.592855159379226,"dest_lon":126.90619972620344,"total":4,"byHour":[0,0,0,0,0,0,0,0,0,4,0,0,0,0,0,0,0,0,0,0,0,0,0,0],"byMode":{"차량":4}},{"dest_code":"42750000","dest_name":"강원도 영월군","dest_lat":37.420899927402914,"dest_lon":128.20869898742086,"total":4,"byHour":[0,0,0,0,0,0,0,0,0,3,0,0,0,0,0,0,0,0,0,0,0,0,0,1],"byMode":{"차량":4}},{"dest_code":"11320681","dest_name":"서울특별시 도봉구 쌍문4동","dest_lat":37.65542903791273,"dest_lon":127.03042068070712,"total":4,"byHour":[0,0,0,0,0,0,0,0,0,4,0,0,0,0,0,0,0,0,0,0,0,0,0,0],"byMode":{"일반버스":4}},{"dest_code":"11380590","dest_name":"서울특별시 은평구 응암2동","dest_lat":37.59209287520322,"dest_lon":126.9228957838581,"total":4,"byHour":[0,0,0,0,0,0,0,0,0,0,0,4,0,0,0,0,0,0,0,0,0,0,0,0],"byMode":{"지하철":4}},{"dest_code":"11410690","dest_name":"서울특별시 서대문구 남가좌1동","dest_lat":37.57181729704554,"dest_lon":126.91627890035964,"total":4,"byHour":[0,0,0,0,0,0,0,0,0,0,0,4,0,0,0,0,0,0,0,0,0,0,0,0],"byMode":{"기타":4}},{"dest_code":"28140000","dest_name":"인천광역시 동구","dest_lat":37.480138163376935,"dest_lon":126.63998768136074,"total":4,"byHour":[0,0,0,0,0,0,0,0,0,0,0,0,4,0,0,0,0,0,0,0,0,0,0,0],"byMode":{"지하철":4}},