{"meta":{"origin":{"lat":37.56853537429577,"lon":127.02084550975484,"name":"서울시 중구 황학동"},"origin_code":"11140670","year":"2024","month":"1월","day_type":"주말","direction":"in","label":"2024 1월 주말","dataset_key":"2024_jan_weekend_in","dates":["20240114"],"days_count":1,"note":null,"mode_labels":{},"hours":["00:00","01:00","02:00","03:00","04:00","05:00","06:00","07:00","08:00","09:00","10:00","11:00","12:00","13:00","14:00","15:00","16:00","17:00","18:00","19:00","20:00","21:00","22:00","23:00"],"generated_at":"2026-06-12T06:48:10.462Z"},"summary":{"total_pop":15380,"dest_count":480,"self_total":4733,"hour_totals":[548,512,282,223,253,290,326,351,515,731,829,936,980,1018,1005,883,841,925,877,867,727,567,501,393],"mode_totals":{"도보":4456,"차량":4466,"기타":1571,"일반버스":1214,"지하철":3638,"광역버스":35},"hour_mode":[{"도보":197,"차량":202,"기타":50,"일반버스":44,"지하철":55},{"기타":52,"도보":195,"일반버스":46,"지하철":80,"차량":136,"광역버스":3},{"기타":35,"도보":71,"차량":114,"일반버스":21,"지하철":41},{"차량":62,"도보":86,"일반버스":18,"기타":26,"지하철":31},{"도보":82,"차량":64,"일반버스":26,"기타":39,"지하철":42},{"도보":100,"차량":92,"지하철":69,"기타":21,"일반버스":8},{"도보":70,"기타":23,"지하철":107,"차량":114,"일반버스":9,"광역버스":3},{"도보":76,"차량":112,"지하철":93,"기타":45,"일반버스":25},{"도보":102,"차량":153,"기타":37,"일반버스":64,"지하철":159},{"차량":229,"도보":127,"기타":79,"지하철":244,"일반버스":52},{"도보":226,"지하철":201,"일반버스":63,"기타":65,"차량":266,"광역버스":8},{"기타":88,"차량":303,"도보":198,"지하철":268,"일반버스":79},{"지하철":200,"기타":100,"도보":282,"차량":299,"일반버스":96,"광역버스":3},{"기타":111,"도보":272,"일반버스":104,"지하철":229,"차량":302},{"차량":302,"도보":265,"기타":122,"일반버스":71,"지하철":236,"광역버스":9},{"지하철":273,"기타":96,"도보":249,"일반버스":61,"차량":201,"광역버스":3},{"일반버스":74,"차량":242,"도보":210,"기타":91,"지하철":221,"광역버스":3},{"도보":256,"기타":116,"일반버스":87,"차량":243,"지하철":223},{"도보":265,"차량":228,"기타":107,"일반버스":53,"지하철":224},{"도보":281,"차량":237,"일반버스":73,"기타":105,"지하철":168,"광역버스":3},{"일반버스":56,"기타":59,"지하철":207,"도보":237,"차량":168},{"지하철":133,"일반버스":24,"기타":46,"차량":179,"도보":185},{"지하철":103,"차량":139,"도보":204,"기타":28,"일반버스":27},{"도보":220,"일반버스":33,"기타":30,"지하철":31,"차량":79}],"dist_buckets":{"1-3":2913,"0-1":3847,"3-5":1798,"5-10":2816,"10-20":2079,"20+":1927},"inout":{"내국인":12312,"단기외국인":2159,"장기외국인":909},"nationality":{"한국":12312,"기타":2219,"중국":577,"미국":42,"베트남":36,"우즈베키스탄":31,"일본":28,"필리핀":24,"기타국가":111},"hour_dist":[{"1-3":105,"0-1":154,"3-5":38,"5-10":128,"10-20":68,"20+":55},{"0-1":180,"1-3":77,"3-5":63,"5-10":81,"10-20":64,"20+":47},{"1-3":43,"0-1":68,"5-10":65,"3-5":44,"10-20":23,"20+":39},{"1-3":39,"0-1":75,"5-10":34,"3-5":24,"20+":32,"10-20":19},{"0-1":85,"1-3":25,"10-20":33,"5-10":66,"3-5":14,"20+":30},{"0-1":85,"1-3":29,"3-5":33,"5-10":46,"10-20":46,"20+":51},{"1-3":53,"0-1":49,"3-5":27,"5-10":61,"10-20":56,"20+":80},{"0-1":64,"5-10":65,"10-20":69,"3-5":17,"1-3":75,"20+":61},{"0-1":80,"5-10":85,"1-3":103,"3-5":44,"10-20":104,"20+":99},{"3-5":61,"0-1":118,"1-3":113,"5-10":160,"10-20":151,"20+":128},{"0-1":181,"3-5":70,"5-10":103,"1-3":162,"20+":168,"10-20":145},{"1-3":156,"0-1":160,"3-5":122,"5-10":167,"10-20":166,"20+":165},{"1-3":174,"3-5":89,"0-1":240,"5-10":172,"10-20":173,"20+":132},{"1-3":224,"0-1":231,"3-5":101,"5-10":175,"10-20":126,"20+":161},{"1-3":250,"0-1":235,"3-5":79,"5-10":194,"10-20":131,"20+":116},{"1-3":212,"0-1":188,"3-5":135,"5-10":138,"10-20":116,"20+":94},{"1-3":182,"3-5":112,"0-1":152,"5-10":214,"10-20":101,"20+":80},{"0-1":234,"1-3":198,"5-10":181,"3-5":115,"10-20":112,"20+":85},{"0-1":255,"3-5":147,"1-3":144,"5-10":163,"10-20":94,"20+":74},{"0-1":245,"1-3":165,"3-5":168,"5-10":150,"10-20":70,"20+":69},{"3-5":129,"1-3":130,"0-1":208,"5-10":122,"10-20":77,"20+":61},{"3-5":78,"1-3":116,"0-1":165,"5-10":91,"10-20":62,"20+":55},{"1-3":77,"0-1":197,"3-5":41,"5-10":106,"10-20":43,"20+":37},{"1-3":61,"3-5":47,"0-1":198,"5-10":49,"10-20":30,"20+":8}],"hour_inout":[{"내국인":402,"단기외국인":110,"장기외국인":36},{"내국인":443,"단기외국인":39,"장기외국인":30},{"내국인":237,"단기외국인":30,"장기외국인":15},{"내국인":181,"단기외국인":30,"장기외국인":12},{"내국인":202,"단기외국인":33,"장기외국인":18},{"내국인":236,"단기외국인":42,"장기외국인":12},{"내국인":266,"단기외국인":42,"장기외국인":18},{"단기외국인":33,"내국인":303,"장기외국인":15},{"내국인":446,"단기외국인":54,"장기외국인":15},{"내국인":596,"단기외국인":87,"장기외국인":48},{"장기외국인":64,"내국인":668,"단기외국인":97},{"내국인":751,"단기외국인":134,"장기외국인":51},{"내국인":802,"단기외국인":133,"장기외국인":45},{"내국인":790,"단기외국인":179,"장기외국인":49},{"내국인":798,"단기외국인":144,"장기외국인":63},{"내국인":702,"단기외국인":117,"장기외국인":64},{"내국인":699,"단기외국인":94,"장기외국인":48},{"내국인":771,"단기외국인":112,"장기외국인":42},{"내국인":690,"단기외국인":139,"장기외국인":48},{"단기외국인":156,"내국인":648,"장기외국인":63},{"내국인":572,"단기외국인":109,"장기외국인":46},{"내국인":433,"단기외국인":92,"장기외국인":42},{"단기외국인":101,"내국인":379,"장기외국인":21},{"내국인":297,"장기외국인":44,"단기외국인":52}],"hour_nat":[{"한국":402,"기타":110,"프랑스":9,"중국":18,"우즈베키스탄":3,"미국":3,"태국":3},{"한국":443,"기타":39,"중국":15,"일본":9,"필리핀":3,"몽골":3},{"한국":237,"기타":36,"러시아":6,"중국":3},{"한국":181,"기타":30,"중국":12},{"한국":202,"기타":33,"중국":15,"필리핀":3},{"한국":236,"기타":42,"중국":12},{"한국":266,"기타":42,"중국":15,"인도네시아":3},{"기타":33,"한국":303,"중국":15},{"한국":446,"기타":57,"베트남":3,"중국":9},{"한국":596,"기타":87,"태국":3,"중국":27,"러시아":6,"네팔":3,"필리핀":3,"베트남":3,"인도네시아":3},{"스리랑카":3,"한국":668,"중국":33,"기타":103,"우즈베키스탄":6,"일본":7,"인도네시아":3,"필리핀":3,"몽골":3},{"한국":751,"기타":134,"중국":24,"미국":9,"필리핀":3,"베트남":9,"인도네시아":3,"캐나다":3},{"한국":802,"기타":136,"중국":33,"베트남":3,"러시아":3,"필리핀":3},{"한국":790,"기타":185,"중국":28,"캐나다":6,"미국":3,"인도네시아":3,"몽골":3},{"한국":798,"기타":153,"파키스탄":3,"중국":36,"방글라데시":3,"필리핀":3,"프랑스":3,"우즈베키스탄":3,"베트남":3},{"한국":702,"기타":123,"중국":34,"베트남":6,"우즈베키스탄":3,"미국":9,"러시아":3,"몽골":3},{"한국":699,"기타":100,"중국":33,"미국":6,"일본":3},{"한국":771,"기타":115,"필리핀":3,"미국":3,"중국":24,"캐나다":3,"베트남":3,"일본":3},{"한국":690,"기타":139,"중국":42,"몽골":3,"미국":3},{"기타":159,"한국":648,"중국":42,"캐나다":6,"카자흐스탄":6,"몽골":3,"미국":3},{"한국":572,"기타":118,"중국":34,"미국":3},{"한국":433,"기타":92,"중국":39,"프랑스":3},{"기타":101,"한국":379,"러시아":3,"우즈베키스탄":3,"중국":12,"일본":3},{"한국":297,"베트남":6,"중국":22,"우즈베키스탄":13,"일본":3,"기타":52}],"avg_dist":10309.09,"avg_time":125.6,"top3_share":16.45,"top10_share":30.88},"destinations":[{"dest_code":"11200535","dest_name":"서울특별시 성동구 왕십리도선동","dest_lat":37.56685334172042,"dest_lon":127.02960478797031,"total":1203,"byHour":[45,87,18,28,33,14,18,25,13,41,46,54,71,57,56,34,48,69,114,79,67,45,61,80],"byMode":{"도보":962,"차량":81,"기타":84,"일반버스":67,"지하철":9}},{"dest_code":"11140615","dest_name":"서울특별시 중구 신당동","dest_lat":37.56569203810708,"dest_lon":127.01370437736728,"total":757,"byHour":[18,28,9,9,14,22,3,7,8,20,33,26,39,51,63,48,22,53,42,57,70,48,32,35],"byMode":{"도보":663,"기타":34,"차량":15,"지하철":27,"일반버스":18}},{"dest_code":"11140650","dest_name":"서울특별시 중구 신당5동","dest_lat":37.56363544684656,"dest_lon":127.02186699672764,"total":570,"byHour":[23,29,12,21,10,29,9,8,13,24,26,10,19,33,29,31,20,17,20,30,46,22,46,43],"byMode":{"도보":516,"차량":6,"일반버스":16,"기타":18,"지하철":14}},{"dest_code":"11110710","dest_name":"서울특별시 종로구 숭인2동","dest_lat":37.57449028350606,"dest_lon":127.02034252028352,"total":500,"byHour":[9,22,14,2,6,11,7,15,26,16,25,29,38,31,40,48,24,15,34,33,2,5,33,15],"byMode":{"도보":443,"기타":22,"차량":18,"지하철":9,"일반버스":8}},{"dest_code":"11230536","dest_name":"서울특별시 동대문구 용신동","dest_lat":37.57555956991103,"dest_lon":127.03245393139196,"total":473,"byHour":[26,7,13,11,19,10,16,14,20,20,21,30,25,20,46,17,40,21,16,27,12,22,11,9],"byMode":{"도보":301,"기타":68,"일반버스":42,"차량":40,"지하철":22}},{"dest_code":"11140665","dest_name":"서울특별시 중구 동화동","dest_lat":37.56071034367642,"dest_lon":127.01865212037563,"total":314,"byHour":[22,4,3,4,4,0,6,9,5,0,26,17,50,57,16,5,15,24,9,9,10,9,2,8],"byMode":{"도보":233,"지하철":6,"기타":33,"차량":26,"일반버스":16}},{"dest_code":"11140590","dest_name":"서울특별시 중구 광희동","dest_lat":37.56515667820614,"dest_lon":127.0037641565018,"total":307,"byHour":[27,1,7,8,0,5,0,1,4,6,15,3,0,23,27,39,27,19,21,18,16,7,17,16],"byMode":{"도보":160,"차량":41,"지하철":39,"기타":47,"일반버스":20}},{"dest_code":"11200520","dest_name":"서울특별시 성동구 왕십리2동","dest_lat":37.56145032465671,"dest_lon":127.02772577618587,"total":222,"byHour":[6,3,0,3,7,3,3,0,6,25,20,15,4,18,21,15,10,9,18,7,6,17,6,0],"byMode":{"도보":136,"차량":37,"일반버스":16,"기타":30,"지하철":3}},{"dest_code":"11110615","dest_name":"서울특별시 종로구 종로1.2.3.4가동","dest_lat":37.5751851101178,"dest_lon":126.98986468781813,"total":203,"byHour":[8,9,14,0,0,0,0,2,3,0,3,7,15,0,14,17,16,11,19,24,15,10,8,8],"byMode":{"도보":27,"일반버스":39,"차량":36,"광역버스":3,"기타":36,"지하철":62}},{"dest_code":"11140550","dest_name":"서울특별시 중구 명동","dest_lat":37.56395198524864,"dest_lon":126.9843039812854,"total":201,"byHour":[5,0,0,0,0,0,0,0,0,3,6,18,6,23,3,15,26,8,20,26,20,10,9,3],"byMode":{"일반버스":67,"기타":46,"지하철":52,"도보":16,"차량":20}},{"dest_code":"41360000","dest_name":"경기도 남양주시","dest_lat":37.499986848135734,"dest_lon":127.13013581339527,"total":189,"byHour":[0,7,5,0,2,3,8,13,8,5,6,14,26,18,10,0,12,13,13,10,7,0,6,3],"byMode":{"차량":148,"일반버스":11,"지하철":30}},{"dest_code":"11440660","dest_name":"서울특별시 마포구 서교동","dest_lat":37.55474825664686,"dest_lon":126.9209373158581,"total":187,"byHour":[23,14,4,2,8,3,7,0,2,2,3,9,0,2,10,14,5,15,11,10,14,7,16,6],"byMode":{"지하철":143,"차량":33,"일반버스":11}},{"dest_code":"11110670","dest_name":"서울특별시 종로구 창신1동","dest_lat":37.572369409740254,"dest_lon":127.0138035667275,"total":158,"byHour":[0,3,0,0,0,0,0,4,2,0,14,4,13,8,13,15,6,13,17,3,12,18,3,10],"byMode":{"도보":134,"기타":12,"차량":12}},{"dest_code":"11140540","dest_name":"서울특별시 중구 회현동","dest_lat":37.556941169823126,"dest_lon":126.97710184371688,"total":157,"byHour":[3,0,3,0,0,0,0,0,0,4,11,3,10,22,13,16,2,4,19,8,11,18,0,10],"byMode":{"기타":23,"일반버스":51,"지하철":65,"도보":4,"차량":11,"광역버스":3}},{"dest_code":"11200560","dest_name":"서울특별시 성동구 행당1동","dest_lat":37.55908846394766,"dest_lon":127.03617446091934,"total":156,"byHour":[11,0,3,0,1,0,0,2,2,5,15,3,10,9,11,13,0,24,13,8,14,6,3,3],"byMode":{"도보":34,"일반버스":50,"지하철":38,"차량":20,"기타":14}},{"dest_code":"11140625","dest_name":"서울특별시 중구 다산동","dest_lat":37.55493348743512,"dest_lon":127.00835522995278,"total":155,"byHour":[0,3,3,5,0,0,0,3,10,8,3,5,10,8,10,12,13,26,0,24,5,3,2,2],"byMode":{"일반버스":11,"도보":67,"기타":35,"차량":28,"지하철":14}},{"dest_code":"41150000","dest_name":"경기도 의정부시","dest_lat":37.734716357852676,"dest_lon":127.06725685346728,"total":148,"byHour":[4,9,0,0,5,3,0,5,3,9,5,22,2,9,3,14,7,5,0,0,9,27,3,4],"byMode":{"차량":88,"지하철":55,"일반버스":5}},{"dest_code":"11290610","dest_name":"서울특별시 성북구 보문동","dest_lat":37.58282567320133,"dest_lon":127.01913116701168,"total":143,"byHour":[2,2,4,0,0,3,3,8,6,9,3,12,12,15,11,22,6,0,0,0,2,17,3,3],"byMode":{"도보":55,"기타":41,"차량":30,"일반버스":9,"지하철":8}},{"dest_code":"11680545","dest_name":"서울특별시 강남구 압구정동","dest_lat":37.52975201322973,"dest_lon":127.0343137422465,"total":119,"byHour":[6,4,3,0,12,0,2,0,8,0,0,0,7,0,4,4,3,16,11,8,20,3,1,7],"byMode":{"일반버스":10,"기타":21,"차량":42,"지하철":46}},{"dest_code":"41135000","dest_name":"경기도 성남시 분당구","dest_lat":37.343356152174294,"dest_lon":127.0475848297475,"total":109,"byHour":[0,3,0,0,3,3,0,0,1,4,25,9,7,12,8,3,1,0,3,18,0,9,0,0],"byMode":{"차량":59,"지하철":50}},{"dest_code":"11170625","dest_name":"서울특별시 용산구 한강로동","dest_lat":37.529126544010914,"dest_lon":126.96859195571264,"total":107,"byHour":[7,0,3,3,3,0,0,3,2,3,2,9,0,4,6,3,4,20,2,3,17,10,3,0],"byMode":{"차량":52,"일반버스":10,"기타":13,"지하철":32}},{"dest_code":"11200550","dest_name":"서울특별시 성동구 사근동","dest_lat":37.55812210462368,"dest_lon":127.04539498048128,"total":106,"byHour":[0,4,3,6,2,2,2,5,2,8,7,4,9,7,0,3,3,5,5,0,2,7,18,2],"byMode":{"도보":37,"차량":15,"지하철":14,"일반버스":29,"기타":11}},{"dest_code":"11680640","dest_name":"서울특별시 강남구 역삼1동","dest_lat":37.50084456440553,"dest_lon":127.03549896919056,"total":105,"byHour":[4,0,6,1,0,0,3,2,0,4,0,3,1,5,6,10,15,9,11,2,10,0,13,0],"byMode":{"차량":54,"지하철":34,"기타":12,"일반버스":5}},{"dest_code":"41281000","dest_name":"경기도 고양시 덕양구","dest_lat":37.649627638041935,"dest_lon":126.8792915793041,"total":103,"byHour":[0,3,0,0,3,3,0,6,5,15,11,17,5,8,10,7,0,0,10,0,0,0,0,0],"byMode":{"차량":61,"지하철":36,"일반버스":3,"광역버스":3}},{"dest_code":"41450000","dest_name":"경기도 하남시","dest_lat":37.36950416558832,"dest_lon":127.0198651107115,"total":100,"byHour":[3,0,0,0,7,4,5,6,7,9,4,0,7,3,0,7,0,6,6,2,4,6,3,11],"byMode":{"지하철":41,"차량":59}},{"dest_code":"11230560","dest_name":"서울특별시 동대문구 전농1동","dest_lat":37.57921920382841,"dest_lon":127.05095444400315,"total":99,"byHour":[0,0,3,0,0,0,0,3,7,7,4,6,1,12,10,2,2,10,7,11,11,0,0,3],"byMode":{"도보":23,"기타":28,"일반버스":15,"차량":18,"지하철":15}},{"dest_code":"28110000","dest_name":"인천광역시 중구","dest_lat":37.47141496060051,"dest_lon":126.52395854381086,"total":98,"byHour":[0,0,2,0,0,0,9,0,3,4,13,12,9,12,3,3,3,2,4,9,10,0,0,0],"byMode":{"차량":77,"지하철":21}},{"dest_code":"11110700","dest_name":"서울특별시 종로구 숭인1동","dest_lat":37.57718293099928,"dest_lon":127.01689100283882,"total":97,"byHour":[0,9,0,0,0,3,0,3,8,6,0,3,8,3,8,4,12,13,6,4,0,4,0,3],"byMode":{"기타":20,"도보":63,"차량":6,"지하철":6,"일반버스":2}},{"dest_code":"11200540","dest_name":"서울특별시 성동구 마장동","dest_lat":37.567419343061054,"dest_lon":127.04059659160532,"total":96,"byHour":[0,3,3,0,0,0,9,3,7,9,3,8,3,10,12,0,4,0,3,14,2,3,0,0],"byMode":{"일반버스":11,"차량":13,"지하철":14,"기타":24,"도보":34}},{"dest_code":"11290600","dest_name":"서울특별시 성북구 안암동","dest_lat":37.58772731341445,"dest_lon":127.0272202199731,"total":93,"byHour":[0,4,0,2,0,0,0,4,0,5,7,0,12,13,9,3,2,15,2,3,3,3,0,6],"byMode":{"차량":23,"지하철":24,"도보":22,"기타":19,"일반버스":5}},{"dest_code":"41630000","dest_name":"경기도 양주시","dest_lat":37.80669130418161,"dest_lon":127.02693543621365,"total":92,"byHour":[0,3,0,4,0,10,0,5,5,15,6,4,10,3,3,0,4,3,0,5,6,6,0,0],"byMode":{"차량":65,"지하철":27}},{"dest_code":"11230705","dest_name":"서울특별시 동대문구 청량리동","dest_lat":37.58884114906816,"dest_lon":127.0452159465382,"total":87,"byHour":[0,0,0,0,3,0,3,6,3,3,3,12,7,0,5,6,11,6,2,6,2,3,6,0],"byMode":{"일반버스":27,"지하철":19,"기타":11,"차량":23,"도보":7}},{"dest_code":"11170685","dest_name":"서울특별시 용산구 한남동","dest_lat":37.53752670451259,"dest_lon":127.00517642150815,"total":83,"byHour":[3,6,7,0,3,0,0,0,0,0,2,0,2,6,6,3,2,2,10,10,11,3,0,7],"byMode":{"기타":31,"일반버스":10,"지하철":18,"차량":19,"도보":5}},{"dest_code":"11290555","dest_name":"서울특별시 성북구 삼선동","dest_lat":37.58655334505262,"dest_lon":127.01170655968308,"total":81,"byHour":[8,3,0,3,0,0,0,2,5,0,10,0,3,0,10,0,13,9,10,0,2,3,0,0],"byMode":{"차량":21,"도보":24,"기타":26,"일반버스":3,"지하철":7}},{"dest_code":"41310000","dest_name":"경기도 구리시","dest_lat":37.60586949409455,"dest_lon":127.13384534548024,"total":81,"byHour":[0,0,0,0,0,4,0,2,2,0,12,7,16,0,5,5,0,2,5,9,10,2,0,0],"byMode":{"지하철":21,"차량":46,"일반버스":10,"기타":4}},{"dest_code":"11290705","dest_name":"서울특별시 성북구 종암동","dest_lat":37.59744123601206,"dest_lon":127.03386559835234,"total":78,"byHour":[2,3,0,0,0,0,3,0,3,6,12,3,3,5,6,9,6,5,6,0,3,3,0,0],"byMode":{"기타":8,"도보":11,"차량":44,"일반버스":15}},{"dest_code":"41480000","dest_name":"경기도 파주시","dest_lat":37.83456901910601,"dest_lon":126.81843235288909,"total":78,"byHour":[0,0,0,0,0,6,13,0,4,6,7,6,10,14,0,3,3,3,3,0,0,0,0,0],"byMode":{"차량":65,"지하철":13}},{"dest_code":"11110640","dest_name":"서울특별시 종로구 이화동","dest_lat":37.579720415124406,"dest_lon":127.00302249905796,"total":77,"byHour":[0,0,0,0,0,0,0,0,0,0,0,0,8,15,5,3,0,5,9,17,10,3,2,0],"byMode":{"지하철":29,"기타":18,"도보":19,"차량":3,"일반버스":8}},{"dest_code":"11560540","dest_name":"서울특별시 영등포구 여의동","dest_lat":37.52850578910781,"dest_lon":126.92847171849878,"total":76,"byHour":[0,0,0,0,0,0,0,0,6,2,0,0,7,3,3,4,17,3,10,11,7,0,3,0],"byMode":{"일반버스":10,"지하철":34,"차량":27,"기타":5}},{"dest_code":"11140580","dest_name":"서울특별시 중구 장충동","dest_lat":37.55556223301621,"dest_lon":127.00216552652044,"total":73,"byHour":[6,0,0,4,5,0,0,0,0,2,0,7,5,2,6,2,7,5,3,3,10,0,6,0],"byMode":{"차량":23,"기타":28,"도보":17,"일반버스":5}},{"dest_code":"11200570","dest_name":"서울특별시 성동구 행당2동","dest_lat":37.55667485645122,"dest_lon":127.0296559501475,"total":73,"byHour":[6,7,0,2,0,0,3,6,8,3,10,3,2,6,0,3,0,6,0,3,0,0,3,2],"byMode":{"기타":8,"도보":34,"일반버스":12,"차량":13,"지하철":6}},{"dest_code":"11170650","dest_name":"서울특별시 용산구 이태원1동","dest_lat":37.53336138104397,"dest_lon":126.9932419402934,"total":73,"byHour":[0,20,8,3,3,14,3,0,0,3,0,0,0,0,3,0,0,2,2,6,3,3,0,0],"byMode":{"지하철":18,"차량":24,"기타":10,"일반버스":13,"도보":8}},{"dest_code":"11110650","dest_name":"서울특별시 종로구 혜화동","dest_lat":37.58747073793072,"dest_lon":126.99742981655449,"total":69,"byHour":[9,0,0,0,3,0,0,0,0,0,2,7,3,5,2,3,6,8,6,3,6,6,0,0],"byMode":{"기타":19,"도보":15,"일반버스":13,"지하철":16,"차량":6}},{"dest_code":"11140605","dest_name":"서울특별시 중구 을지로동","dest_lat":37.56662089067183,"dest_lon":126.99656106916466,"total":69,"byHour":[3,3,0,0,0,0,0,0,0,0,3,3,2,3,6,16,6,3,0,5,6,7,3,0],"byMode":{"도보":23,"기타":9,"일반버스":10,"지하철":21,"차량":6}},{"dest_code":"11200615","dest_name":"서울특별시 성동구 금호2.3가동","dest_lat":37.551403228517714,"dest_lon":127.01996841446868,"total":69,"byHour":[0,3,0,0,3,0,9,0,4,4,3,0,9,3,7,3,6,0,6,6,0,3,0,0],"byMode":{"도보":13,"차량":19,"기타":26,"일반버스":6,"지하철":5}},{"dest_code":"41610000","dest_name":"경기도 광주시","dest_lat":37.40548200343057,"dest_lon":127.07867581047574,"total":67,"byHour":[0,0,10,0,0,3,3,0,6,3,0,3,5,3,12,0,3,6,2,2,0,6,0,0],"byMode":{"차량":64,"지하철":3}},{"dest_code":"11215710","dest_name":"서울특별시 광진구 화양동","dest_lat":37.54324391553551,"dest_lon":127.07320129238096,"total":66,"byHour":[0,8,0,7,0,0,0,0,2,3,0,0,0,0,0,3,5,5,8,11,5,3,2,4],"byMode":{"지하철":48,"도보":4,"일반버스":9,"차량":5}},{"dest_code":"11110680","dest_name":"서울특별시 종로구 창신2동","dest_lat":37.576027279824935,"dest_lon":127.01018845877414,"total":65,"byHour":[3,0,3,0,0,0,0,3,2,2,6,9,3,7,9,6,0,6,3,0,0,0,0,3],"byMode":{"도보":45,"기타":11,"차량":9}},{"dest_code":"11230650","dest_name":"서울특별시 동대문구 장안1동","dest_lat":37.56623849893862,"dest_lon":127.06852139262412,"total":64,"byHour":[0,2,0,3,0,3,4,0,10,0,0,7,0,4,0,0,6,3,10,4,5,3,0,0],"byMode":{"지하철":19,"차량":31,"기타":7,"일반버스":4,"도보":3}},{"dest_code":"11140645","dest_name":"서울특별시 중구 청구동","dest_lat":37.556881523903606,"dest_lon":127.01518808451291,"total":63,"byHour":[2,3,0,0,0,0,3,0,4,4,7,13,7,2,0,0,4,3,0,2,3,6,0,0],"byMode":{"도보":37,"기타":15,"일반버스":4,"지하철":4,"차량":3}},{"dest_code":"41590000","dest_name":"경기도 화성시","dest_lat":37.188721290130374,"dest_lon":126.91692195199953,"total":59,"byHour":[3,0,0,0,0,6,3,3,0,7,8,2,7,3,0,2,3,0,0,9,0,3,0,0],"byMode":{"차량":53,"일반버스":3,"지하철":3}},{"dest_code":"28260000","dest_name":"인천광역시 서구","dest_lat":37.551917632324844,"dest_lon":126.66445682677698,"total":59,"byHour":[3,2,0,0,4,6,0,3,4,5,3,0,0,6,4,6,0,7,0,0,0,3,3,0],"byMode":{"지하철":35,"차량":24}},{"dest_code":"11170530","dest_name":"서울특별시 용산구 남영동","dest_lat":37.54402977875616,"dest_lon":126.97482841022224,"total":58,"byHour":[0,0,0,0,0,0,0,0,4,0,0,10,6,0,2,4,4,6,6,0,0,4,8,4],"byMode":{"지하철":48,"일반버스":4,"차량":6}},{"dest_code":"11680580","dest_name":"서울특별시 강남구 삼성1동","dest_lat":37.515304490815694,"dest_lon":127.06080229728146,"total":57,"byHour":[4,0,0,0,0,4,0,0,0,0,0,0,3,7,4,0,4,9,3,13,6,0,0,0],"byMode":{"기타":10,"지하철":36,"차량":8,"일반버스":3}},{"dest_code":"11200645","dest_name":"서울특별시 성동구 옥수동","dest_lat":37.5408468250741,"dest_lon":127.02058131269956,"total":57,"byHour":[0,0,2,3,3,0,0,4,0,3,0,4,3,13,8,0,0,4,0,3,0,0,4,3],"byMode":{"도보":12,"차량":6,"일반버스":13,"지하철":15,"기타":11}},{"dest_code":"11110630","dest_name":"서울특별시 종로구 종로5.6가동","dest_lat":37.57285780172435,"dest_lon":127.00439896298904,"total":56,"byHour":[5,0,0,0,0,0,2,0,4,0,0,2,2,0,6,4,8,16,4,0,0,0,0,3],"byMode":{"도보":31,"기타":16,"일반버스":3,"차량":3,"지하철":3}},{"dest_code":"11230660","dest_name":"서울특별시 동대문구 장안2동","dest_lat":37.575642244821466,"dest_lon":127.07207254160916,"total":55,"byHour":[10,3,2,0,0,0,0,0,0,5,2,12,0,3,0,0,0,6,5,7,0,0,0,0],"byMode":{"차량":21,"일반버스":7,"지하철":8,"기타":15,"도보":4}},{"dest_code":"41390000","dest_name":"경기도 시흥시","dest_lat":37.47485799700193,"dest_lon":126.7731409367625,"total":55,"byHour":[8,7,6,0,0,0,3,6,2,0,2,0,13,0,3,2,0,3,0,0,0,0,0,0],"byMode":{"차량":40,"지하철":15}},{"dest_code":"11200590","dest_name":"서울특별시 성동구 금호1가동","dest_lat":37.55358521026265,"dest_lon":127.02498152648928,"total":55,"byHour":[3,2,0,0,0,4,0,0,0,3,3,0,5,4,7,0,2,8,3,5,3,0,3,0],"byMode":{"일반버스":6,"도보":22,"기타":19,"차량":8}},{"dest_code":"28237000","dest_name":"인천광역시 부평구","dest_lat":37.49675976287217,"dest_lon":126.72142590462538,"total":55,"byHour":[0,0,0,3,3,0,6,0,3,2,4,7,4,0,4,5,0,0,10,0,4,0,0,0],"byMode":{"차량":16,"지하철":39}},{"dest_code":"11410585","dest_name":"서울특별시 서대문구 신촌동","dest_lat":37.56407622470931,"dest_lon":126.94157870314548,"total":53,"byHour":[4,2,0,0,0,1,0,0,0,3,0,3,3,6,8,0,7,0,0,2,3,0,8,3],"byMode":{"일반버스":7,"지하철":30,"차량":8,"광역버스":3,"기타":5}},{"dest_code":"41192000","dest_name":"경기도 부천시 원미구","dest_lat":37.4996842574673,"dest_lon":126.77945419128278,"total":53,"byHour":[0,2,3,3,0,0,0,3,3,2,3,3,0,0,3,0,5,9,0,0,3,4,7,0],"byMode":{"지하철":29,"차량":21,"일반버스":3}},{"dest_code":"41131000","dest_name":"경기도 성남시 수정구","dest_lat":37.37105411909495,"dest_lon":127.08463771782306,"total":52,"byHour":[3,3,0,0,0,0,0,3,2,5,0,7,3,13,0,0,0,0,0,3,0,4,3,3],"byMode":{"차량":37,"지하철":15}},{"dest_code":"41570000","dest_name":"경기도 김포시","dest_lat":37.67143532627648,"dest_lon":126.65858277486879,"total":52,"byHour":[3,3,0,0,0,0,0,0,0,7,5,0,4,0,0,7,3,11,0,2,4,3,0,0],"byMode":{"차량":31,"지하철":18,"도보":3}},{"dest_code":"11230545","dest_name":"서울특별시 동대문구 제기동","dest_lat":37.58374909763264,"dest_lon":127.037224891713,"total":52,"byHour":[0,0,0,0,0,2,3,0,2,3,7,9,0,0,7,8,3,2,2,0,0,0,2,2],"byMode":{"도보":13,"기타":16,"일반버스":10,"차량":10,"지하철":3}},{"dest_code":"41650000","dest_name":"경기도 포천시","dest_lat":37.96171946575621,"dest_lon":127.26610407319367,"total":50,"byHour":[3,0,0,0,0,0,0,0,0,2,3,26,9,0,0,0,3,0,0,0,4,0,0,0],"byMode":{"차량":50}},{"dest_code":"11200690","dest_name":"서울특별시 성동구 성수2가3동","dest_lat":37.54557042563956,"dest_lon":127.0580830001602,"total":50,"byHour":[0,1,0,0,0,0,0,0,0,0,0,0,0,4,3,6,12,0,1,6,8,3,3,3],"byMode":{"일반버스":13,"차량":23,"지하철":14}},{"dest_code":"51720000","dest_name":"강원특별자치도 홍천군","dest_lat":37.780816866581404,"dest_lon":128.00310130753468,"total":50,"byHour":[0,0,6,0,3,0,0,4,0,2,8,3,4,0,6,4,3,0,7,0,0,0,0,0],"byMode":{"차량":50}},{"dest_code":"11650581","dest_name":"서울특별시 서초구 반포4동","dest_lat":37.49955079316065,"dest_lon":127.00335326541664,"total":50,"byHour":[0,0,0,0,0,0,0,0,0,3,4,5,0,3,11,0,3,0,12,3,6,0,0,0],"byMode":{"지하철":41,"기타":3,"차량":6}},{"dest_code":"11140570","dest_name":"서울특별시 중구 필동","dest_lat":37.55686552734,"dest_lon":126.9937710670784,"total":48,"byHour":[0,4,4,3,0,0,0,0,0,0,3,7,2,0,2,6,0,2,4,0,7,3,1,0],"byMode":{"도보":20,"기타":11,"일반버스":7,"차량":4,"지하철":6}},{"dest_code":"11200660","dest_name":"서울특별시 성동구 성수1가2동","dest_lat":37.54901484449546,"dest_lon":127.0436492176911,"total":48,"byHour":[0,0,0,0,0,0,0,0,3,3,0,3,0,0,2,10,3,5,3,12,0,4,0,0],"byMode":{"일반버스":27,"지하철":13,"기타":5,"차량":3}},{"dest_code":"11230600","dest_name":"서울특별시 동대문구 답십리1동","dest_lat":37.57127849359092,"dest_lon":127.05187621664231,"total":46,"byHour":[0,0,0,0,0,6,0,0,0,1,6,5,3,6,4,6,0,0,3,3,3,0,0,0],"byMode":{"차량":18,"지하철":6,"도보":16,"기타":6}},{"dest_code":"11440565","dest_name":"서울특별시 마포구 공덕동","dest_lat":37.54931836441306,"dest_lon":126.9579452158936,"total":44,"byHour":[3,3,2,0,0,0,0,0,3,10,2,3,3,3,7,0,5,0,0,0,0,0,0,0],"byMode":{"지하철":18,"차량":11,"기타":3,"일반버스":12}},{"dest_code":"11680565","dest_name":"서울특별시 강남구 청담동","dest_lat":37.52439200058359,"dest_lon":127.05046431883062,"total":44,"byHour":[5,0,3,0,0,0,3,0,0,2,5,0,3,4,0,0,3,7,0,0,6,3,0,0],"byMode":{"차량":20,"광역버스":3,"기타":9,"일반버스":6,"지하철":6}},{"dest_code":"11140520","dest_name":"서울특별시 중구 소공동","dest_lat":37.56425948239558,"dest_lon":126.974374701073,"total":44,"byHour":[0,1,0,0,0,0,0,3,0,0,0,0,3,3,0,6,0,10,3,6,6,3,0,0],"byMode":{"지하철":10,"기타":12,"일반버스":16,"차량":6}},{"dest_code":"11215847","dest_name":"서울특별시 광진구 자양4동","dest_lat":37.533751301916645,"dest_lon":127.06362060389492,"total":44,"byHour":[0,0,0,0,6,0,6,0,0,0,0,0,11,0,3,0,0,0,0,11,6,1,0,0],"byMode":{"일반버스":4,"기타":7,"차량":9,"지하철":21,"도보":3}},{"dest_code":"11680510","dest_name":"서울특별시 강남구 신사동","dest_lat":37.48582557530138,"dest_lon":126.91862482695264,"total":43,"byHour":[7,2,0,0,0,0,0,0,0,0,3,3,3,2,0,0,5,0,4,3,9,2,0,0],"byMode":{"차량":23,"지하철":6,"기타":11,"일반버스":3}},{"dest_code":"11110690","dest_name":"서울특별시 종로구 창신3동","dest_lat":37.578954002650136,"dest_lon":127.01322200243024,"total":42,"byHour":[2,0,2,0,0,0,0,0,0,0,0,0,5,0,3,0,2,10,2,6,3,0,7,0],"byMode":{"도보":24,"기타":10,"일반버스":2,"지하철":3,"차량":3}},{"dest_code":"11560720","dest_name":"서울특별시 영등포구 대림3동","dest_lat":37.50000124220351,"dest_lon":126.8971418249189,"total":42,"byHour":[3,0,0,0,0,3,0,0,0,0,0,10,3,2,6,0,3,3,3,0,3,3,0,0],"byMode":{"차량":12,"지하철":27,"일반버스":3}},{"dest_code":"41465000","dest_name":"경기도 용인시 수지구","dest_lat":37.326248248516436,"dest_lon":127.0934288338114,"total":42,"byHour":[0,2,3,0,0,0,0,0,0,0,3,7,0,6,3,7,5,0,0,0,3,0,3,0],"byMode":{"차량":39,"지하철":3}},{"dest_code":"11170555","dest_name":"서울특별시 용산구 청파동","dest_lat":37.54758189433549,"dest_lon":126.96684283775078,"total":41,"byHour":[7,0,0,0,0,0,0,0,0,3,2,3,4,5,4,6,3,0,0,0,0,0,4,0],"byMode":{"일반버스":14,"기타":6,"지하철":17,"차량":4}},{"dest_code":"41461000","dest_name":"경기도 용인시 처인구","dest_lat":37.28629442750663,"dest_lon":127.26600758788916,"total":41,"byHour":[7,0,0,0,0,0,8,2,0,0,5,0,6,0,7,0,3,0,0,0,3,0,0,0],"byMode":{"차량":38,"지하철":3}},{"dest_code":"11140635","dest_name":"서울특별시 중구 약수동","dest_lat":37.55014909147207,"dest_lon":127.010287617014,"total":40,"byHour":[3,4,0,0,0,0,0,0,0,0,0,0,5,3,3,5,3,4,4,0,3,3,0,0],"byMode":{"일반버스":6,"기타":5,"도보":13,"차량":16}},{"dest_code":"11710680","dest_name":"서울특별시 송파구 잠실3동","dest_lat":37.513897495343485,"dest_lon":127.09423948416593,"total":40,"byHour":[2,0,0,0,0,1,0,0,0,0,3,3,0,11,7,0,7,0,6,0,0,0,0,0],"byMode":{"기타":3,"지하철":19,"차량":18}},{"dest_code":"11650530","dest_name":"서울특별시 서초구 서초3동","dest_lat":37.48551989312191,"dest_lon":127.00945377766683,"total":39,"byHour":[2,2,0,8,0,3,0,0,2,0,0,0,0,0,7,3,3,0,1,7,0,0,1,0],"byMode":{"차량":17,"기타":7,"지하철":11,"광역버스":3,"일반버스":1}},{"dest_code":"11290650","dest_name":"서울특별시 성북구 정릉4동","dest_lat":37.62394777143803,"dest_lon":126.99489715361848,"total":39,"byHour":[4,0,0,0,0,0,0,4,0,0,0,6,0,6,0,3,0,3,3,10,0,0,0,0],"byMode":{"일반버스":4,"기타":14,"차량":15,"지하철":6}},{"dest_code":"11680521","dest_name":"서울특별시 강남구 논현1동","dest_lat":37.51187028229869,"dest_lon":127.0264993269889,"total":39,"byHour":[0,0,4,3,4,0,0,0,0,5,0,3,7,0,0,4,0,0,4,2,0,3,0,0],"byMode":{"차량":23,"기타":8,"지하철":8}},{"dest_code":"11680610","dest_name":"서울특별시 강남구 대치2동","dest_lat":37.50098747815765,"dest_lon":127.065657425748,"total":38,"byHour":[7,0,0,0,0,0,0,0,0,0,0,0,3,5,7,3,0,6,0,3,0,4,0,0],"byMode":{"차량":23,"지하철":12,"기타":3}},{"dest_code":"41820000","dest_name":"경기도 가평군","dest_lat":37.79892909371546,"dest_lon":127.4184547911432,"total":38,"byHour":[0,0,0,0,3,3,2,3,0,7,9,0,0,7,1,0,0,0,3,0,0,0,0,0],"byMode":{"차량":38}},{"dest_code":"11290715","dest_name":"서울특별시 성북구 월곡1동","dest_lat":37.60783377708155,"dest_lon":127.03655107111472,"total":37,"byHour":[0,3,0,0,0,0,7,0,0,0,0,7,2,3,0,6,0,0,3,3,0,3,0,0],"byMode":{"기타":8,"차량":15,"지하철":11,"일반버스":3}},{"dest_code":"11230610","dest_name":"서울특별시 동대문구 답십리2동","dest_lat":37.57077961957078,"dest_lon":127.061035791701,"total":37,"byHour":[0,5,3,0,0,0,0,3,0,3,0,3,0,0,0,0,0,13,5,0,2,0,0,0],"byMode":{"일반버스":7,"기타":15,"지하철":7,"도보":3,"차량":5}},{"dest_code":"41133000","dest_name":"경기도 성남시 중원구","dest_lat":37.4401898442391,"dest_lon":127.15643515376328,"total":37,"byHour":[0,0,0,0,0,4,3,2,0,6,7,3,0,6,3,0,0,0,0,3,0,0,0,0],"byMode":{"차량":12,"지하철":25}},{"dest_code":"11290575","dest_name":"서울특별시 성북구 동선동","dest_lat":37.5936493450371,"dest_lon":127.01851500591876,"total":36,"byHour":[4,7,3,0,0,0,0,0,1,0,1,0,0,3,7,0,0,2,3,3,0,2,0,0],"byMode":{"도보":9,"차량":13,"지하철":11,"기타":3}},{"dest_code":"28185000","dest_name":"인천광역시 연수구","dest_lat":37.397762106912225,"dest_lon":126.65831312600358,"total":36,"byHour":[3,3,4,0,0,0,0,0,0,0,0,0,7,13,3,0,0,0,0,0,3,0,0,0],"byMode":{"차량":23,"지하철":13}},{"dest_code":"11350600","dest_name":"서울특별시 노원구 공릉2동","dest_lat":37.63162259238021,"dest_lon":127.0943219666906,"total":36,"byHour":[0,3,0,0,0,0,0,0,3,0,0,3,5,0,3,12,2,0,2,0,0,3,0,0],"byMode":{"기타":3,"지하철":20,"차량":10,"일반버스":3}},{"dest_code":"11200790","dest_name":"서울특별시 성동구 용답동","dest_lat":37.55891652518783,"dest_lon":127.0574723637532,"total":36,"byHour":[0,3,0,3,0,0,0,0,2,0,0,4,2,6,13,0,0,0,0,3,0,0,0,0],"byMode":{"지하철":6,"도보":8,"차량":19,"일반버스":3}},{"dest_code":"11740610","dest_name":"서울특별시 강동구 천호2동","dest_lat":37.54499240788589,"dest_lon":127.12200908898424,"total":35,"byHour":[7,0,0,0,0,0,0,0,0,0,0,0,3,0,3,0,6,5,5,3,3,0,0,0],"byMode":{"차량":12,"기타":3,"지하철":20}},{"dest_code":"41463000","dest_name":"경기도 용인시 기흥구","dest_lat":37.27016138149834,"dest_lon":127.12174222261396,"total":35,"byHour":[5,0,0,0,0,0,0,0,0,0,3,3,3,2,3,6,5,2,0,0,0,0,3,0],"byMode":{"차량":32,"지하철":3}},{"dest_code":"11680650","dest_name":"서울특별시 강남구 역삼2동","dest_lat":37.49848371075801,"dest_lon":127.04489561333814,"total":35,"byHour":[0,1,9,0,0,0,0,0,3,3,0,3,3,3,0,0,0,0,6,0,0,0,4,0],"byMode":{"기타":7,"차량":25,"일반버스":3}},{"dest_code":"11290810","dest_name":"서울특별시 성북구 석관동","dest_lat":37.6082777586919,"dest_lon":127.06135785311592,"total":35,"byHour":[0,0,1,0,0,0,4,0,3,0,0,0,10,3,3,0,0,5,3,0,0,0,0,3],"byMode":{"일반버스":7,"지하철":15,"차량":6,"도보":4,"기타":3}},{"dest_code":"11290725","dest_name":"서울특별시 성북구 월곡2동","dest_lat":37.60322817296127,"dest_lon":127.04540282444948,"total":35,"byHour":[0,0,0,4,0,10,0,0,3,0,5,0,5,2,0,3,0,0,0,0,0,0,0,3],"byMode":{"기타":9,"지하철":7,"차량":10,"일반버스":7,"도보":2}},{"dest_code":"41194000","dest_name":"경기도 부천시 소사구","dest_lat":37.475758013141586,"dest_lon":126.78946883507467,"total":34,"byHour":[0,6,0,4,0,0,5,0,0,0,0,0,0,3,5,11,0,0,0,0,0,0,0,0],"byMode":{"차량":14,"지하철":20}},{"dest_code":"41171000","dest_name":"경기도 안양시 만안구","dest_lat":37.403367715966176,"dest_lon":126.91261602108659,"total":34,"byHour":[0,0,0,0,0,5,4,0,6,0,4,0,0,0,0,0,0,11,4,0,0,0,0,0],"byMode":{"차량":17,"지하철":17}},{"dest_code":"11170700","dest_name":"서울특별시 용산구 보광동","dest_lat":37.52688649842343,"dest_lon":127.00090084800838,"total":33,"byHour":[0,0,0,0,0,0,0,0,3,0,0,4,3,0,3,6,3,0,0,0,6,0,5,0],"byMode":{"차량":11,"지하철":10,"기타":7,"일반버스":5}},{"dest_code":"11200580","dest_name":"서울특별시 성동구 응봉동","dest_lat":37.55088018231112,"dest_lon":127.03372254688416,"total":32,"byHour":[3,3,0,0,0,0,0,3,4,0,3,5,3,0,0,0,0,3,0,5,0,0,0,0],"byMode":{"기타":8,"일반버스":12,"차량":6,"도보":6}},{"dest_code":"11680531","dest_name":"서울특별시 강남구 논현2동","dest_lat":37.515240004514055,"dest_lon":127.03621131519049,"total":32,"byHour":[3,0,0,0,0,0,2,0,0,0,0,5,3,3,0,0,2,0,7,0,0,4,3,0],"byMode":{"차량":12,"지하철":7,"기타":10,"일반버스":3}},{"dest_code":"41830000","dest_name":"경기도 양평군","dest_lat":37.52460824822185,"dest_lon":127.56623497653196,"total":32,"byHour":[0,0,0,0,0,0,0,0,6,5,0,5,2,4,1,0,2,0,3,0,4,0,0,0],"byMode":{"차량":30,"지하철":2}},{"dest_code":"51110000","dest_name":"강원특별자치도 춘천시","dest_lat":37.8744378137003,"dest_lon":127.75357700812097,"total":31,"byHour":[7,0,0,3,0,0,0,0,0,0,0,6,0,0,0,3,6,0,0,6,0,0,0,0],"byMode":{"차량":25,"지하철":6}},{"dest_code":"11260655","dest_name":"서울특별시 중랑구 망우본동","dest_lat":37.60213706842387,"dest_lon":127.10744223116808,"total":31,"byHour":[2,0,0,0,0,2,0,4,2,0,5,5,4,0,2,0,0,3,2,0,0,0,0,0],"byMode":{"지하철":17,"차량":12,"기타":2}},{"dest_code":"11410565","dest_name":"서울특별시 서대문구 충현동","dest_lat":37.563940986482365,"dest_lon":126.95831857068698,"total":31,"byHour":[2,7,0,3,0,0,0,0,0,2,3,3,0,2,2,0,0,4,0,0,0,3,0,0],"byMode":{"지하철":12,"일반버스":3,"기타":13,"차량":3}},{"dest_code":"11290685","dest_name":"서울특별시 성북구 길음2동","dest_lat":37.60828694721575,"dest_lon":127.0271636132196,"total":31,"byHour":[2,0,0,0,0,3,0,0,0,3,2,3,0,0,3,3,3,0,2,4,0,0,3,0],"byMode":{"일반버스":6,"도보":3,"지하철":6,"기타":13,"차량":3}},{"dest_code":"11350595","dest_name":"서울특별시 노원구 공릉1동","dest_lat":37.6242134099112,"dest_lon":127.07255426284723,"total":31,"byHour":[0,3,0,0,0,0,0,2,2,7,0,3,3,4,0,4,0,0,0,0,0,3,0,0],"byMode":{"지하철":15,"기타":5,"일반버스":5,"차량":6}},{"dest_code":"41285000","dest_name":"경기도 고양시 일산동구","dest_lat":37.67448923708656,"dest_lon":126.78860001158372,"total":31,"byHour":[0,0,3,3,0,0,0,0,3,5,0,0,3,2,3,0,0,0,6,0,0,0,3,0],"byMode":{"차량":20,"지하철":8,"기타":3}},{"dest_code":"11215860","dest_name":"서울특별시 광진구 구의2동","dest_lat":37.55110372309933,"dest_lon":127.09485666743475,"total":31,"byHour":[0,0,0,0,0,3,0,0,0,0,3,6,3,0,3,2,8,0,3,0,0,0,0,0],"byMode":{"기타":6,"지하철":11,"차량":6,"일반버스":5,"광역버스":3}},{"dest_code":"11740660","dest_name":"서울특별시 강동구 성내3동","dest_lat":37.52834784600046,"dest_lon":127.13377221408268,"total":31,"byHour":[0,0,0,0,0,3,3,0,2,2,0,3,0,0,3,6,0,3,0,6,0,0,0,0],"byMode":{"차량":18,"지하철":13}},{"dest_code":"11230730","dest_name":"서울특별시 동대문구 휘경2동","dest_lat":37.58664122719281,"dest_lon":127.06582204957049,"total":30,"byHour":[0,0,0,0,0,0,0,0,4,0,0,3,8,3,0,3,3,0,3,0,3,0,0,0],"byMode":{"기타":16,"차량":11,"일반버스":3}},{"dest_code":"11215740","dest_name":"서울특별시 광진구 중곡1동","dest_lat":37.56209979326759,"dest_lon":127.07768465357913,"total":29,"byHour":[0,0,4,0,0,0,0,0,0,6,9,2,3,0,1,0,0,0,0,0,1,0,3,0],"byMode":{"지하철":10,"차량":6,"일반버스":3,"기타":7,"광역버스":3}},{"dest_code":"11110515","dest_name":"서울특별시 종로구 청운효자동","dest_lat":37.58441429722301,"dest_lon":126.96991655860823,"total":29,"byHour":[0,0,0,0,0,0,0,0,0,0,2,4,0,0,0,12,0,4,0,0,4,0,3,0],"byMode":{"일반버스":4,"기타":4,"차량":7,"지하철":10,"도보":4}},{"dest_code":"11290630","dest_name":"서울특별시 성북구 정릉2동","dest_lat":37.60367473957296,"dest_lon":127.00849918964212,"total":28,"byHour":[0,3,0,0,0,3,4,2,2,2,0,0,0,2,3,2,0,0,0,2,0,0,3,0],"byMode":{"기타":12,"도보":5,"차량":6,"일반버스":2,"지하철":3}},{"dest_code":"11215770","dest_name":"서울특별시 광진구 중곡4동","dest_lat":37.56387396940858,"dest_lon":127.09449412530624,"total":28,"byHour":[0,0,0,0,3,3,0,3,0,0,0,7,0,2,0,0,4,6,0,0,0,0,0,0],"byMode":{"기타":3,"지하철":13,"차량":9,"일반버스":3}},{"dest_code":"11440710","dest_name":"서울특별시 마포구 연남동","dest_lat":37.563017872295696,"dest_lon":126.92153721770806,"total":28,"byHour":[0,0,0,0,0,0,0,0,3,0,3,0,0,2,0,0,0,3,7,3,0,7,0,0],"byMode":{"지하철":22,"기타":6}},{"dest_code":"11200620","dest_name":"서울특별시 성동구 금호4가동","dest_lat":37.545391282678345,"dest_lon":127.02415996011806,"total":27,"byHour":[7,0,0,0,0,0,0,0,0,0,0,4,3,3,0,3,0,0,0,7,0,0,0,0],"byMode":{"일반버스":9,"도보":4,"기타":14}},{"dest_code":"11560605","dest_name":"서울특별시 영등포구 문래동","dest_lat":37.51653109707488,"dest_lon":126.89105913725837,"total":27,"byHour":[4,3,0,0,0,0,0,0,2,0,0,6,0,0,0,3,0,0,2,3,0,4,0,0],"byMode":{"차량":17,"지하철":10}},{"dest_code":"11215750","dest_name":"서울특별시 광진구 중곡2동","dest_lat":37.55890878945523,"dest_lon":127.08457880017404,"total":27,"byHour":[0,4,3,0,0,0,0,0,0,0,0,0,3,4,3,7,0,0,0,3,0,0,0,0],"byMode":{"차량":10,"지하철":17}},{"dest_code":"11650540","dest_name":"서울특별시 서초구 잠원동","dest_lat":37.517079012399016,"dest_lon":127.0127367711114,"total":27,"byHour":[0,0,2,0,0,0,0,0,0,2,0,8,0,0,0,8,3,4,0,0,0,0,0,0],"byMode":{"차량":10,"기타":6,"지하철":11}},{"dest_code":"11305545","dest_name":"서울특별시 강북구 송중동","dest_lat":37.61767232059256,"dest_lon":127.03298289333247,"total":27,"byHour":[0,0,0,0,0,3,0,0,3,3,0,6,0,0,3,0,3,3,0,3,0,0,0,0],"byMode":{"차량":9,"지하철":9,"기타":9}},{"dest_code":"11620595","dest_name":"서울특별시 관악구 청룡동","dest_lat":37.47805691041308,"dest_lon":126.94581028099184,"total":27,"byHour":[0,0,0,0,0,0,2,0,0,0,0,0,0,0,6,3,0,2,6,0,8,0,0,0],"byMode":{"차량":9,"지하철":18}},{"dest_code":"11260680","dest_name":"서울특별시 중랑구 신내1동","dest_lat":37.61316286799043,"dest_lon":127.1040401674988,"total":27,"byHour":[0,0,0,0,0,0,7,0,0,5,6,0,0,3,0,3,3,0,0,0,0,0,0,0],"byMode":{"차량":14,"지하철":13}},{"dest_code":"11290590","dest_name":"서울특별시 성북구 돈암2동","dest_lat":37.59708178772487,"dest_lon":127.0116005523684,"total":27,"byHour":[0,0,0,0,0,0,3,3,0,0,6,0,3,0,0,0,6,0,0,0,3,0,0,3],"byMode":{"도보":6,"차량":15,"일반버스":6}},{"dest_code":"41117000","dest_name":"경기도 수원시 영통구","dest_lat":37.27022329808669,"dest_lon":127.05872436690058,"total":27,"byHour":[0,0,0,0,0,0,3,2,0,0,6,6,0,0,3,7,0,0,0,0,0,0,0,0],"byMode":{"지하철":12,"차량":15}},{"dest_code":"11200670","dest_name":"서울특별시 성동구 성수2가1동","dest_lat":37.53635415252142,"dest_lon":127.05530799237364,"total":27,"byHour":[0,0,0,0,0,0,0,0,0,2,0,0,4,4,3,0,0,3,4,0,0,7,0,0],"byMode":{"일반버스":10,"차량":7,"지하철":7,"기타":3}},{"dest_code":"11110530","dest_name":"서울특별시 종로구 사직동","dest_lat":37.573888361464974,"dest_lon":126.97037626951352,"total":27,"byHour":[0,0,0,0,0,0,0,0,0,0,0,7,0,0,0,7,0,2,8,3,0,0,0,0],"byMode":{"도보":3,"지하철":11,"기타":2,"일반버스":5,"차량":6}},{"dest_code":"11230740","dest_name":"서울특별시 동대문구 이문1동","dest_lat":37.59736775775229,"dest_lon":127.0604464534256,"total":26,"byHour":[2,0,0,0,0,0,0,0,0,0,4,0,0,4,0,3,0,7,6,0,0,0,0,0],"byMode":{"기타":5,"지하철":7,"차량":14}},{"dest_code":"11710710","dest_name":"서울특별시 송파구 잠실6동","dest_lat":37.51977242300996,"dest_lon":127.09946333893738,"total":26,"byHour":[6,0,0,0,0,0,0,2,0,0,0,0,0,0,3,0,0,4,0,3,0,4,4,0],"byMode":{"일반버스":3,"차량":12,"지하철":4,"기타":7}},{"dest_code":"11290660","dest_name":"서울특별시 성북구 길음1동","dest_lat":37.608223678293655,"dest_lon":127.01974268027502,"total":26,"byHour":[0,0,3,0,0,0,3,3,0,0,0,0,0,0,3,6,2,0,0,3,0,0,0,3],"byMode":{"기타":3,"차량":8,"지하철":12,"도보":3}},{"dest_code":"41287000","dest_name":"경기도 고양시 일산서구","dest_lat":37.68371227665847,"dest_lon":126.73667598673386,"total":26,"byHour":[0,0,0,0,0,0,0,0,0,9,3,0,0,3,0,1,0,4,0,1,0,2,3,0],"byMode":{"지하철":10,"차량":16}},{"dest_code":"11650580","dest_name":"서울특별시 서초구 반포3동","dest_lat":37.51232734794036,"dest_lon":127.00397631455913,"total":25,"byHour":[0,2,0,0,0,0,0,2,0,4,0,0,0,2,0,0,9,0,0,0,2,0,4,0],"byMode":{"지하철":8,"차량":4,"기타":7,"일반버스":6}},{"dest_code":"44133000","dest_name":"충청남도 천안시 서북구","dest_lat":36.863184163031605,"dest_lon":127.16454618470004,"total":25,"byHour":[0,3,0,0,0,0,0,0,0,0,0,0,0,3,1,0,3,0,0,0,0,12,3,0],"byMode":{"차량":25}},{"dest_code":"11440740","dest_name":"서울특별시 마포구 상암동","dest_lat":37.57072643445334,"dest_lon":126.87990132971456,"total":25,"byHour":[0,0,2,0,0,3,0,0,0,0,7,2,6,0,0,0,3,0,0,0,2,0,0,0],"byMode":{"기타":2,"일반버스":3,"지하철":18,"차량":2}},{"dest_code":"11560550","dest_name":"서울특별시 영등포구 당산1동","dest_lat":37.523902456055296,"dest_lon":126.89677920846194,"total":24,"byHour":[2,0,0,0,0,0,0,0,0,0,0,0,0,13,2,0,0,0,0,0,7,0,0,0],"byMode":{"지하철":24}},{"dest_code":"11230570","dest_name":"서울특별시 동대문구 전농2동","dest_lat":37.580697660564944,"dest_lon":127.06111802845244,"total":24,"byHour":[0,0,0,4,0,0,0,0,0,0,8,0,0,0,0,0,5,0,0,2,0,3,0,2],"byMode":{"일반버스":9,"기타":6,"차량":7,"도보":2}},{"dest_code":"11305555","dest_name":"서울특별시 강북구 송천동","dest_lat":37.61818602699557,"dest_lon":127.02490811255753,"total":24,"byHour":[0,0,0,0,3,3,0,0,0,6,4,5,0,0,0,0,3,0,0,0,0,0,0,0],"byMode":{"기타":5,"차량":3,"지하철":14,"도보":2}},{"dest_code":"51760000","dest_name":"강원특별자치도 평창군","dest_lat":37.51383625264824,"dest_lon":128.5008542740079,"total":24,"byHour":[0,0,0,0,0,0,0,0,9,12,0,3,0,0,0,0,0,0,0,0,0,0,0,0],"byMode":{"차량":24}},{"dest_code":"11305635","dest_name":"서울특별시 강북구 수유3동","dest_lat":37.64050078144628,"dest_lon":127.02344785512156,"total":23,"byHour":[5,0,0,0,0,0,0,3,0,3,0,3,0,0,3,6,0,0,0,0,0,0,0,0],"byMode":{"차량":8,"지하철":15}},{"dest_code":"11440590","dest_name":"서울특별시 마포구 용강동","dest_lat":37.541528802126415,"dest_lon":126.94221265006838,"total":23,"byHour":[0,3,0,0,0,3,0,0,0,10,4,0,0,0,0,0,0,0,0,0,3,0,0,0],"byMode":{"지하철":20,"차량":3}},{"dest_code":"41500000","dest_name":"경기도 이천시","dest_lat":37.200613234051986,"dest_lon":127.48362365755307,"total":23,"byHour":[0,7,0,0,0,0,0,0,0,0,0,3,0,0,0,3,0,0,0,0,3,4,0,3],"byMode":{"차량":23}},{"dest_code":"11350580","dest_name":"서울특별시 노원구 월계3동","dest_lat":37.62445820424424,"dest_lon":127.06482891187626,"total":23,"byHour":[0,4,0,0,4,0,0,0,0,0,3,3,5,0,0,0,4,0,0,0,0,0,0,0],"byMode":{"기타":4,"차량":13,"지하철":6}},{"dest_code":"41115000","dest_name":"경기도 수원시 팔달구","dest_lat":37.278235690211076,"dest_lon":127.01464243655195,"total":23,"byHour":[0,0,0,0,3,0,0,2,3,3,0,0,3,3,0,3,0,3,0,0,0,0,0,0],"byMode":{"차량":23}},{"dest_code":"41250000","dest_name":"경기도 동두천시","dest_lat":37.693859795058835,"dest_lon":127.09185407131379,"total":23,"byHour":[0,0,0,0,0,0,0,10,3,0,3,0,0,3,3,0,0,0,1,0,0,0,0,0],"byMode":{"차량":12,"지하철":8,"일반버스":3}},{"dest_code":"28245000","dest_name":"인천광역시 계양구","dest_lat":37.550593316649156,"dest_lon":126.73155771181368,"total":23,"byHour":[0,0,0,0,0,0,0,0,0,0,0,3,0,17,3,0,0,0,0,0,0,0,0,0],"byMode":{"지하철":13,"차량":10}},{"dest_code":"41173000","dest_name":"경기도 안양시 동안구","dest_lat":37.40855170806704,"dest_lon":127.0197827978124,"total":22,"byHour":[3,0,0,0,0,0,0,0,0,7,0,0,0,0,2,3,0,0,7,0,0,0,0,0],"byMode":{"차량":15,"지하철":7}},{"dest_code":"41210000","dest_name":"경기도 광명시","dest_lat":37.45442116993489,"dest_lon":126.86309350608454,"total":22,"byHour":[0,0,4,0,0,0,9,4,1,0,0,2,2,0,0,0,0,0,0,0,0,0,0,0],"byMode":{"차량":15,"지하철":7}},{"dest_code":"28177000","dest_name":"인천광역시 미추홀구","dest_lat":37.454993999101355,"dest_lon":126.6669174900286,"total":22,"byHour":[0,0,0,0,0,0,3,0,0,3,3,10,0,0,0,0,0,0,3,0,0,0,0,0],"byMode":{"차량":13,"지하철":9}},{"dest_code":"11230720","dest_name":"서울특별시 동대문구 휘경1동","dest_lat":37.59195524614219,"dest_lon":127.062600743137,"total":21,"byHour":[3,0,3,0,0,0,0,0,0,0,5,0,0,2,0,0,3,2,3,0,0,0,0,0],"byMode":{"일반버스":8,"지하철":8,"광역버스":3,"도보":2}},{"dest_code":"11530540","dest_name":"서울특별시 구로구 구로3동","dest_lat":37.48487331436084,"dest_lon":126.89491415645765,"total":21,"byHour":[4,0,0,0,0,0,0,0,0,0,0,0,2,0,9,0,0,0,6,0,0,0,0,0],"byMode":{"차량":17,"지하철":4}},{"dest_code":"11620695","dest_name":"서울특별시 관악구 신림동","dest_lat":37.4871415005715,"dest_lon":126.92716843915656,"total":21,"byHour":[0,2,2,0,0,0,0,0,2,0,0,2,0,4,2,2,0,2,0,0,3,0,0,0],"byMode":{"지하철":10,"차량":11}},{"dest_code":"11260590","dest_name":"서울특별시 중랑구 상봉2동","dest_lat":37.594321335650726,"dest_lon":127.08401526954532,"total":21,"byHour":[0,3,0,3,0,0,0,0,0,0,0,0,0,0,0,0,6,6,0,3,0,0,0,0],"byMode":{"기타":3,"차량":12,"지하철":6}},{"dest_code":"11140680","dest_name":"서울특별시 중구 중림동","dest_lat":37.55734682440728,"dest_lon":126.96603667235034,"total":21,"byHour":[0,0,0,4,0,0,0,3,0,0,0,6,2,3,0,0,3,0,0,0,0,0,0,0],"byMode":{"일반버스":6,"차량":3,"지하철":9,"기타":3}},{"dest_code":"41670000","dest_name":"경기도 여주시","dest_lat":37.31553893114828,"dest_lon":127.43933036990093,"total":21,"byHour":[0,0,0,0,0,0,4,0,0,3,0,0,0,8,3,0,0,0,0,3,0,0,0,0],"byMode":{"차량":21}},{"dest_code":"11215870","dest_name":"서울특별시 광진구 구의3동","dest_lat":37.53695822874183,"dest_lon":127.0942221885227,"total":21,"byHour":[0,0,0,0,0,0,0,0,0,3,0,3,3,0,0,0,3,3,3,0,0,3,0,0],"byMode":{"지하철":12,"기타":6,"차량":3}},{"dest_code":"11650651","dest_name":"서울특별시 서초구 양재1동","dest_lat":37.46950069861567,"dest_lon":127.0224963501131,"total":21,"byHour":[0,0,0,0,0,0,0,0,0,0,3,3,4,0,0,3,0,0,0,4,4,0,0,0],"byMode":{"기타":5,"지하철":6,"차량":10}},{"dest_code":"11740685","dest_name":"서울특별시 강동구 길동","dest_lat":37.53969617665487,"dest_lon":127.14596636282656,"total":20,"byHour":[3,0,0,0,0,0,0,2,0,0,0,0,3,0,0,0,3,0,0,6,0,0,0,3],"byMode":{"지하철":9,"차량":8,"일반버스":3}},{"dest_code":"11260575","dest_name":"서울특별시 중랑구 면목3.8동","dest_lat":37.58448873711785,"dest_lon":127.09834881069246,"total":20,"byHour":[0,2,4,0,0,0,0,0,0,0,0,4,0,0,3,0,3,0,0,0,0,0,0,4],"byMode":{"기타":2,"일반버스":14,"차량":4}},{"dest_code":"11260600","dest_name":"서울특별시 중랑구 중화1동","dest_lat":37.60259303945304,"dest_lon":127.08307073246408,"total":20,"byHour":[0,6,0,3,0,0,0,0,0,0,5,0,0,3,0,3,0,0,0,0,0,0,0,0],"byMode":{"일반버스":8,"지하철":9,"기타":3}},{"dest_code":"41290000","dest_name":"경기도 과천시","dest_lat":37.423740962106564,"dest_lon":127.05507263330537,"total":20,"byHour":[0,3,0,0,0,0,0,0,0,2,0,3,0,0,3,0,0,6,3,0,0,0,0,0],"byMode":{"차량":6,"지하철":14}},{"dest_code":"11710562","dest_name":"서울특별시 송파구 방이2동","dest_lat":37.51324706836732,"dest_lon":127.113892442997,"total":20,"byHour":[0,0,0,4,0,0,0,0,0,0,0,0,3,0,7,0,3,0,0,0,3,0,0,0],"byMode":{"차량":14,"지하철":6}},{"dest_code":"11260565","dest_name":"서울특별시 중랑구 면목본동","dest_lat":37.58831624621149,"dest_lon":127.08937929154322,"total":20,"byHour":[0,0,0,0,0,0,3,0,0,4,0,0,4,3,0,0,0,6,0,0,0,0,0,0],"byMode":{"일반버스":3,"차량":10,"지하철":4,"기타":3}},{"dest_code":"11500540","dest_name":"서울특별시 강서구 화곡1동","dest_lat":37.53377324482262,"dest_lon":126.84092197413597,"total":20,"byHour":[0,0,0,0,0,0,0,0,3,4,3,0,0,3,0,0,4,0,0,0,0,0,0,3],"byMode":{"차량":6,"지하철":14}},{"dest_code":"11530560","dest_name":"서울특별시 구로구 구로5동","dest_lat":37.501992406102005,"dest_lon":126.88855063913384,"total":20,"byHour":[0,0,0,0,0,0,0,0,0,3,0,0,7,4,0,0,4,0,2,0,0,0,0,0],"byMode":{"지하철":9,"차량":11}},{"dest_code":"11215840","dest_name":"서울특별시 광진구 자양3동","dest_lat":37.53136730001344,"dest_lon":127.07101776119092,"total":20,"byHour":[0,0,0,0,0,0,0,0,0,0,6,0,3,0,0,3,8,0,0,0,0,0,0,0],"byMode":{"차량":4,"지하철":9,"기타":3,"일반버스":4}},{"dest_code":"11740620","dest_name":"서울특별시 강동구 천호3동","dest_lat":37.53969320294497,"dest_lon":127.13330927913836,"total":19,"byHour":[3,0,0,0,0,2,0,0,0,0,0,0,0,0,0,0,3,0,11,0,0,0,0,0],"byMode":{"지하철":8,"차량":8,"기타":3}},{"dest_code":"11650570","dest_name":"서울특별시 서초구 반포2동","dest_lat":37.50722482634657,"dest_lon":126.99596200627936,"total":19,"byHour":[0,4,0,0,0,0,0,0,0,0,0,0,7,0,0,0,3,3,0,0,0,0,0,2],"byMode":{"차량":16,"지하철":3}},{"dest_code":"11680590","dest_name":"서울특별시 강남구 삼성2동","dest_lat":37.51185750889962,"dest_lon":127.04877731981904,"total":19,"byHour":[0,3,0,0,0,0,2,0,0,0,0,0,0,0,2,9,0,0,0,0,3,0,0,0],"byMode":{"지하철":10,"차량":9}},{"dest_code":"11290620","dest_name":"서울특별시 성북구 정릉1동","dest_lat":37.60327976637659,"dest_lon":127.01698172006311,"total":19,"byHour":[0,2,0,0,0,0,0,0,0,0,0,0,3,0,0,3,0,0,0,8,0,0,3,0],"byMode":{"기타":5,"차량":6,"도보":8}},{"dest_code":"11350630","dest_name":"서울특별시 노원구 상계1동","dest_lat":37.68338646996146,"dest_lon":127.06511513804952,"total":19,"byHour":[0,0,0,3,2,0,0,0,3,2,0,0,3,0,3,0,3,0,0,0,0,0,0,0],"byMode":{"지하철":11,"차량":8}},{"dest_code":"11215780","dest_name":"서울특별시 광진구 능동","dest_lat":37.55059049183368,"dest_lon":127.08179050874378,"total":19,"byHour":[0,0,0,0,0,0,0,2,2,0,0,0,0,0,4,0,0,3,4,4,0,0,0,0],"byMode":{"차량":7,"지하철":7,"기타":1,"일반버스":4}},{"dest_code":"11440680","dest_name":"서울특별시 마포구 합정동","dest_lat":37.54696313264598,"dest_lon":126.90895734464794,"total":19,"byHour":[0,0,0,0,0,0,0,3,0,0,0,0,0,0,0,0,0,0,12,4,0,0,0,0],"byMode":{"지하철":13,"차량":3,"기타":3}},{"dest_code":"11560535","dest_name":"서울특별시 영등포구 영등포동","dest_lat":37.5215927643813,"dest_lon":126.90759905216817,"total":19,"byHour":[0,0,0,0,0,0,0,0,2,0,0,0,2,4,0,0,0,5,0,0,0,6,0,0],"byMode":{"차량":6,"지하철":11,"일반버스":2}},{"dest_code":"11680630","dest_name":"서울특별시 강남구 대치4동","dest_lat":37.501565333685576,"dest_lon":127.05475390419,"total":19,"byHour":[0,0,0,0,0,0,0,0,0,0,0,0,3,0,11,0,2,3,0,0,0,0,0,0],"byMode":{"차량":12,"지하철":7}},{"dest_code":"11170690","dest_name":"서울특별시 용산구 서빙고동","dest_lat":37.51962188014036,"dest_lon":126.98891969879324,"total":18,"byHour":[6,0,0,0,0,0,0,0,0,5,0,0,0,0,0,2,0,0,0,5,0,0,0,0],"byMode":{"차량":9,"일반버스":6,"기타":3}},{"dest_code":"11320690","dest_name":"서울특별시 도봉구 방학1동","dest_lat":37.66504454735848,"dest_lon":127.04347666289463,"total":18,"byHour":[0,0,0,0,3,0,4,4,0,0,0,0,0,0,0,0,7,0,0,0,0,0,0,0],"byMode":{"차량":10,"지하철":8}},{"dest_code":"41113000","dest_name":"경기도 수원시 권선구","dest_lat":37.26334766629814,"dest_lon":126.98565750659293,"total":18,"byHour":[0,0,0,0,4,0,3,0,0,0,4,3,4,0,0,0,0,0,0,0,0,0,0,0],"byMode":{"차량":11,"지하철":7}},{"dest_code":"11215810","dest_name":"서울특별시 광진구 광장동","dest_lat":37.5478230736146,"dest_lon":127.10471379457802,"total":18,"byHour":[0,0,0,0,0,0,2,3,0,0,0,0,0,0,0,0,2,0,0,0,0,3,4,4],"byMode":{"지하철":12,"기타":2,"차량":4}},{"dest_code":"11290770","dest_name":"서울특별시 성북구 장위2동","dest_lat":37.61234879180564,"dest_lon":127.05189848383364,"total":18,"byHour":[0,0,0,0,0,0,0,6,6,3,0,0,3,0,0,0,0,0,0,0,0,0,0,0],"byMode":{"일반버스":3,"지하철":15}},{"dest_code":"28200000","dest_name":"인천광역시 남동구","dest_lat":37.43192339404375,"dest_lon":126.72860496443539,"total":18,"byHour":[0,0,0,0,0,0,0,0,4,0,8,0,3,0,3,0,0,0,0,0,0,0,0,0],"byMode":{"지하철":7,"차량":11}},{"dest_code":"11200650","dest_name":"서울특별시 성동구 성수1가1동","dest_lat":37.54079129639183,"dest_lon":127.0422669149362,"total":18,"byHour":[0,0,0,0,0,0,0,0,0,0,0,3,0,6,0,5,0,4,0,0,0,0,0,0],"byMode":{"도보":3,"일반버스":7,"차량":8}},{"dest_code":"11440585","dest_name":"서울특별시 마포구 도화동","dest_lat":37.538644433810624,"dest_lon":126.9491081749089,"total":17,"byHour":[3,0,0,0,0,0,0,0,0,0,0,0,0,2,0,0,3,2,0,0,4,3,0,0],"byMode":{"차량":3,"일반버스":2,"지하철":9,"도보":3}},{"dest_code":"11710631","dest_name":"서울특별시 송파구 가락1동","dest_lat":37.49518804554753,"dest_lon":127.10827277693689,"total":17,"byHour":[3,0,0,0,0,0,0,0,0,0,0,0,0,3,0,0,0,5,0,0,0,0,6,0],"byMode":{"차량":17}},{"dest_code":"41550000","dest_name":"경기도 안성시","dest_lat":37.01753746916071,"dest_lon":127.30793656794054,"total":17,"byHour":[0,4,0,0,0,0,0,0,0,3,3,0,0,0,0,2,3,0,0,0,0,0,0,2],"byMode":{"차량":17}},{"dest_code":"47900000","dest_name":"경상북도 예천군","dest_lat":36.42737574233362,"dest_lon":128.34602864202395,"total":17,"byHour":[0,0,0,3,0,0,0,0,0,0,0,0,0,3,11,0,0,0,0,0,0,0,0,0],"byMode":{"차량":17}},{"dest_code":"11215820","dest_name":"서울특별시 광진구 자양1동","dest_lat":37.53559062377607,"dest_lon":127.08045420792878,"total":17,"byHour":[0,0,0,0,3,0,0,1,0,0,0,0,0,0,0,0,0,0,4,0,0,6,0,3],"byMode":{"일반버스":6,"차량":8,"기타":3}},{"dest_code":"11350710","dest_name":"서울특별시 노원구 상계9동","dest_lat":37.6676001331898,"dest_lon":127.0621817927983,"total":17,"byHour":[0,0,0,0,0,3,0,0,3,0,4,0,0,0,4,0,0,3,0,0,0,0,0,0],"byMode":{"차량":6,"지하철":11}},{"dest_code":"11320514","dest_name":"서울특별시 도봉구 창4동","dest_lat":37.65271901329207,"dest_lon":127.05090900345418,"total":17,"byHour":[0,0,0,0,0,3,0,0,3,0,0,2,0,0,0,0,3,3,0,3,0,0,0,0],"byMode":{"지하철":8,"차량":9}},{"dest_code":"11305625","dest_name":"서울특별시 강북구 수유2동","dest_lat":37.645421219695294,"dest_lon":127.01936445955646,"total":17,"byHour":[0,0,0,0,0,0,7,0,0,4,3,0,0,0,3,0,0,0,0,0,0,0,0,0],"byMode":{"지하철":14,"일반버스":3}},{"dest_code":"44200000","dest_name":"충청남도 아산시","dest_lat":36.807211663717894,"dest_lon":126.96879811889504,"total":17,"byHour":[0,0,0,0,0,0,0,0,6,2,0,0,0,0,6,0,3,0,0,0,0,0,0,0],"byMode":{"지하철":3,"차량":14}},{"dest_code":"11650652","dest_name":"서울특별시 서초구 양재2동","dest_lat":37.45115190053303,"dest_lon":127.04575266779251,"total":17,"byHour":[0,0,0,0,0,0,0,0,0,0,4,0,4,0,0,0,3,6,0,0,0,0,0,0],"byMode":{"차량":13,"지하철":4}},{"dest_code":"11710670","dest_name":"서울특별시 송파구 잠실2동","dest_lat":37.51742878273864,"dest_lon":127.07934228766362,"total":17,"byHour":[0,0,0,0,0,0,0,0,0,0,0,0,0,8,0,0,3,0,0,0,3,0,3,0],"byMode":{"차량":11,"지하철":6}},{"dest_code":"11305595","dest_name":"서울특별시 강북구 번1동","dest_lat":37.63755655490044,"dest_lon":127.0306106449884,"total":16,"byHour":[0,0,0,0,3,0,0,0,0,4,0,0,0,0,0,0,0,2,0,0,0,0,0,7],"byMode":{"기타":6,"지하철":4,"차량":2,"일반버스":4}},{"dest_code":"11590660","dest_name":"서울특별시 동작구 대방동","dest_lat":37.506904126207175,"dest_lon":126.9280462203087,"total":16,"byHour":[0,0,0,0,0,0,4,0,0,3,2,0,0,0,0,0,0,7,0,0,0,0,0,0],"byMode":{"지하철":11,"차량":5}},{"dest_code":"11290525","dest_name":"서울특별시 성북구 성북동","dest_lat":37.59668268834572,"dest_lon":126.9941320143127,"total":16,"byHour":[0,0,0,0,0,0,0,5,3,0,0,0,5,0,0,0,0,3,0,0,0,0,0,0],"byMode":{"기타":3,"지하철":2,"차량":3,"일반버스":6,"도보":2}},{"dest_code":"11530780","dest_name":"서울특별시 구로구 오류2동","dest_lat":37.4852998581557,"dest_lon":126.8384511815049,"total":16,"byHour":[0,0,0,0,0,0,0,0,7,0,0,3,0,6,0,0,0,0,0,0,0,0,0,0],"byMode":{"일반버스":4,"차량":6,"지하철":6}},{"dest_code":"41196000","dest_name":"경기도 부천시 오정구","dest_lat":37.52508510402957,"dest_lon":126.79632438930368,"total":16,"byHour":[0,0,0,0,0,0,0,0,6,7,0,0,0,0,0,0,0,0,0,0,0,0,3,0],"byMode":{"지하철":13,"차량":3}},{"dest_code":"11305645","dest_name":"서울특별시 강북구 우이동","dest_lat":37.66035298208114,"dest_lon":127.00048707352931,"total":16,"byHour":[0,0,0,0,0,0,0,0,0,3,0,0,10,0,0,0,0,0,3,0,0,0,0,0],"byMode":{"지하철":8,"기타":5,"차량":3}},{"dest_code":"11410660","dest_name":"서울특별시 서대문구 홍은1동","dest_lat":37.600634867740176,"dest_lon":126.94693487801828,"total":16,"byHour":[0,0,0,0,0,0,0,0,0,0,10,0,0,0,4,0,0,0,0,0,0,0,0,2],"byMode":{"차량":12,"기타":4}},{"dest_code":"11170520","dest_name":"서울특별시 용산구 용산2가동","dest_lat":37.537883593164416,"dest_lon":126.9850861680424,"total":16,"byHour":[0,0,0,0,0,0,0,0,0,0,0,6,0,0,0,3,0,0,3,4,0,0,0,0],"byMode":{"차량":3,"도보":3,"지하철":6,"기타":4}},{"dest_code":"11170560","dest_name":"서울특별시 용산구 원효로1동","dest_lat":37.53749537319296,"dest_lon":126.96655767638732,"total":16,"byHour":[0,0,0,0,0,0,0,0,0,0,0,4,4,3,0,0,0,2,3,0,0,0,0,0],"byMode":{"차량":4,"기타":6,"일반버스":3,"지하철":3}},{"dest_code":"11350625","dest_name":"서울특별시 노원구 중계2.3동","dest_lat":37.64343981053121,"dest_lon":127.06589372902808,"total":16,"byHour":[0,0,0,0,0,0,0,0,0,0,0,0,4,7,0,3,0,2,0,0,0,0,0,0],"byMode":{"일반버스":4,"지하철":10,"차량":2}},{"dest_code":"11170660","dest_name":"서울특별시 용산구 이태원2동","dest_lat":37.54176099713294,"dest_lon":126.99205543091884,"total":15,"byHour":[3,0,0,0,0,0,0,0,0,0,0,0,3,0,0,0,0,6,0,3,0,0,0,0],"byMode":{"기타":3,"지하철":7,"일반버스":2,"차량":3}},{"dest_code":"11440700","dest_name":"서울특별시 마포구 망원2동","dest_lat":37.55898791228325,"dest_lon":126.900176504276,"total":15,"byHour":[0,0,0,3,0,0,0,0,0,0,0,5,0,0,0,0,0,7,0,0,0,0,0,0],"byMode":{"기타":3,"지하철":3,"차량":9}},{"dest_code":"11350619","dest_name":"서울특별시 노원구 중계본동","dest_lat":37.64862942471432,"dest_lon":127.0860202514856,"total":15,"byHour":[0,0,0,0,0,3,0,2,0,3,3,0,0,0,3,0,1,0,0,0,0,0,0,0],"byMode":{"차량":10,"기타":2,"지하철":3}},{"dest_code":"11680600","dest_name":"서울특별시 강남구 대치1동","dest_lat":37.49336319439959,"dest_lon":127.05908993466304,"total":15,"byHour":[0,0,0,0,0,0,2,0,2,2,0,0,0,0,0,0,2,4,0,0,0,0,3,0],"byMode":{"지하철":9,"차량":6}},{"dest_code":"11305535","dest_name":"서울특별시 강북구 미아동","dest_lat":37.62864302072378,"dest_lon":127.02638883236092,"total":15,"byHour":[0,0,0,0,0,0,0,0,0,3,0,0,0,0,3,3,0,0,0,3,3,0,0,0],"byMode":{"차량":9,"지하철":6}},{"dest_code":"11215850","dest_name":"서울특별시 광진구 구의1동","dest_lat":37.54163206971925,"dest_lon":127.085718743501,"total":15,"byHour":[0,0,0,0,0,0,0,0,0,0,0,6,0,0,0,3,4,0,0,2,0,0,0,0],"byMode":{"지하철":8,"차량":3,"일반버스":4}},{"dest_code":"41410000","dest_name":"경기도 군포시","dest_lat":37.38749950050759,"dest_lon":126.87595792662376,"total":15,"byHour":[0,0,0,0,0,0,0,0,0,0,0,4,0,0,0,0,0,0,3,0,8,0,0,0],"byMode":{"차량":4,"지하철":11}},{"dest_code":"11710600","dest_name":"서울특별시 송파구 석촌동","dest_lat":37.502726246270925,"dest_lon":127.10251283152732,"total":15,"byHour":[0,0,0,0,0,0,0,0,0,0,0,0,0,0,2,0,3,0,0,7,3,0,0,0],"byMode":{"일반버스":2,"차량":3,"지하철":10}},{"dest_code":"11650531","dest_name":"서울특별시 서초구 서초4동","dest_lat":37.498946997152096,"dest_lon":127.01981424252564,"total":14,"byHour":[3,0,3,0,0,0,0,0,0,0,0,0,0,6,0,0,2,0,0,0,0,0,0,0],"byMode":{"차량":9,"일반버스":3,"지하철":2}},{"dest_code":"11710642","dest_name":"서울특별시 송파구 문정2동","dest_lat":37.481196589583,"dest_lon":127.11914118070632,"total":14,"byHour":[0,1,0,0,0,0,0,0,0,0,0,6,0,0,0,3,0,4,0,0,0,0,0,0],"byMode":{"지하철":4,"차량":10}},{"dest_code":"51210000","dest_name":"강원특별자치도 속초시","dest_lat":38.04838921262762,"dest_lon":128.1678974252523,"total":14,"byHour":[0,0,0,0,2,0,0,0,3,0,0,3,3,3,0,0,0,0,0,0,0,0,0,0],"byMode":{"차량":14}},{"dest_code":"11680700","dest_name":"서울특별시 강남구 세곡동","dest_lat":37.470658793453936,"dest_lon":127.10430477063892,"total":14,"byHour":[0,0,0,0,0,0,0,3,0,2,3,0,0,0,0,3,0,0,3,0,0,0,0,0],"byMode":{"지하철":8,"차량":6}},{"dest_code":"11530510","dest_name":"서울특별시 구로구 신도림동","dest_lat":37.51003038058756,"dest_lon":126.88217457888476,"total":14,"byHour":[0,0,0,0,0,0,0,0,3,0,0,0,0,2,3,0,0,3,3,0,0,0,0,0],"byMode":{"지하철":6,"차량":8}},{"dest_code":"11305660","dest_name":"서울특별시 강북구 인수동","dest_lat":37.63740468445943,"dest_lon":127.00354840273708,"total":14,"byHour":[0,0,0,0,0,0,0,0,0,3,0,0,0,0,4,0,0,0,0,4,3,0,0,0],"byMode":{"지하철":14}},{"dest_code":"11590550","dest_name":"서울특별시 동작구 상도3동","dest_lat":37.49756508302333,"dest_lon":126.9329331821373,"total":14,"byHour":[0,0,0,0,0,0,0,0,0,0,0,3,3,0,3,0,0,0,0,2,3,0,0,0],"byMode":{"지하철":9,"차량":5}},{"dest_code":"11545640","dest_name":"서울특별시 금천구 독산4동","dest_lat":37.46917496173048,"dest_lon":126.90409064565073,"total":13,"byHour":[3,0,0,0,0,0,0,0,0,0,0,0,0,0,0,0,7,0,0,0,0,0,3,0],"byMode":{"차량":6,"지하철":7}},{"dest_code":"41271000","dest_name":"경기도 안산시 상록구","dest_lat":37.3213755300157,"dest_lon":126.86906365441195,"total":13,"byHour":[2,0,0,0,0,0,0,0,3,0,4,0,0,0,0,4,0,0,0,0,0,0,0,0],"byMode":{"차량":5,"지하철":8}},{"dest_code":"11350560","dest_name":"서울특별시 노원구 월계1동","dest_lat":37.62192632316921,"dest_lon":127.05833892768436,"total":13,"byHour":[0,2,0,0,0,0,0,0,0,0,0,4,0,0,0,0,7,0,0,0,0,0,0,0],"byMode":{"차량":5,"지하철":4,"일반버스":4}},{"dest_code":"11620685","dest_name":"서울특별시 관악구 신사동","dest_lat":37.48582557530138,"dest_lon":126.91862482695264,"total":13,"byHour":[0,3,0,0,0,0,0,0,3,4,0,0,3,0,0,0,0,0,0,0,0,0,0,0],"byMode":{"차량":6,"지하철":7}},{"dest_code":"41273000","dest_name":"경기도 안산시 단원구","dest_lat":37.339212489724645,"dest_lon":126.87047300470854,"total":13,"byHour":[0,2,0,0,0,0,0,0,0,0,0,3,0,3,0,3,0,2,0,0,0,0,0,0],"byMode":{"지하철":7,"차량":6}},{"dest_code":"11500593","dest_name":"서울특별시 강서구 화곡8동","dest_lat":37.53426695337341,"dest_lon":126.84877256833798,"total":13,"byHour":[0,3,0,0,0,0,0,0,0,3,0,2,2,0,3,0,0,0,0,0,0,0,0,0],"byMode":{"차량":3,"지하철":10}},{"dest_code":"11440630","dest_name":"서울특별시 마포구 신수동","dest_lat":37.545655989935085,"dest_lon":126.9347934259029,"total":13,"byHour":[0,0,3,0,0,0,0,0,0,0,0,0,0,0,0,0,3,3,0,0,0,0,0,4],"byMode":{"기타":6,"지하철":7}},{"dest_code":"11380570","dest_name":"서울특별시 은평구 대조동","dest_lat":37.6122562627536,"dest_lon":126.9231543891736,"total":13,"byHour":[0,0,0,0,3,0,0,0,0,0,0,0,0,4,3,3,0,0,0,0,0,0,0,0],"byMode":{"차량":7,"지하철":3,"일반버스":3}},{"dest_code":"11260610","dest_name":"서울특별시 중랑구 중화2동","dest_lat":37.59918200919256,"dest_lon":127.07502865677068,"total":13,"byHour":[0,0,0,0,3,0,0,0,0,0,0,0,6,3,0,0,1,0,0,0,0,0,0,0],"byMode":{"일반버스":3,"지하철":10}},{"dest_code":"11440600","dest_name":"서울특별시 마포구 대흥동","dest_lat":37.55203673830288,"dest_lon":126.941465433121,"total":13,"byHour":[0,0,0,0,0,0,2,1,0,0,0,0,0,0,3,0,1,0,0,0,0,3,3,0],"byMode":{"지하철":10,"광역버스":3}},{"dest_code":"11710650","dest_name":"서울특별시 송파구 잠실본동","dest_lat":37.50598801506433,"dest_lon":127.08262032317404,"total":13,"byHour":[0,0,0,0,0,0,0,2,2,0,0,0,0,0,0,2,0,0,4,0,0,0,3,0],"byMode":{"지하철":10,"차량":3}},{"dest_code":"11320512","dest_name":"서울특별시 도봉구 창2동","dest_lat":37.64251171189896,"dest_lon":127.03676720651606,"total":13,"byHour":[0,0,0,0,0,0,0,0,0,7,0,0,0,0,0,0,0,0,0,3,3,0,0,0],"byMode":{"차량":10,"일반버스":3}},{"dest_code":"11320515","dest_name":"서울특별시 도봉구 창5동","dest_lat":37.655371937488496,"dest_lon":127.0427893433785,"total":13,"byHour":[0,0,0,0,0,0,0,0,0,0,3,0,0,0,0,7,0,0,3,0,0,0,0,0],"byMode":{"지하철":11,"차량":2}},{"dest_code":"11500640","dest_name":"서울특별시 강서구 방화2동","dest_lat":37.58271423824387,"dest_lon":126.80402677763084,"total":13,"byHour":[0,0,0,0,0,0,0,0,0,0,0,0,0,3,0,6,0,0,0,0,0,0,4,0],"byMode":{"지하철":9,"차량":4}},{"dest_code":"11410615","dest_name":"서울특별시 서대문구 연희동","dest_lat":37.57222900345364,"dest_lon":126.9327932236587,"total":12,"byHour":[3,0,4,0,0,0,0,0,0,0,0,3,2,0,0,0,0,0,0,0,0,0,0,0],"byMode":{"차량":9,"일반버스":3}},{"dest_code":"11560515","dest_name":"서울특별시 영등포구 영등포본동","dest_lat":37.5136750265938,"dest_lon":126.90953128957892,"total":12,"byHour":[3,0,0,0,0,0,0,0,0,0,3,3,0,0,3,0,0,0,0,0,0,0,0,0],"byMode":{"차량":6,"지하철":6}},{"dest_code":"11620605","dest_name":"서울특별시 관악구 은천동","dest_lat":37.48699909360007,"dest_lon":126.94209911030376,"total":12,"byHour":[2,0,0,0,0,0,0,0,7,0,0,0,0,0,0,0,0,0,0,0,0,0,3,0],"byMode":{"차량":8,"지하철":4}},{"dest_code":"11680750","dest_name":"서울특별시 강남구 수서동","dest_lat":37.48692072548294,"dest_lon":127.10014331040334,"total":12,"byHour":[0,0,0,4,0,0,0,0,0,4,4,0,0,0,0,0,0,0,0,0,0,0,0,0],"byMode":{"지하철":12}},{"dest_code":"11500620","dest_name":"서울특별시 강서구 공항동","dest_lat":37.55586440196673,"dest_lon":126.79489910642056,"total":12,"byHour":[0,0,0,3,0,0,0,0,0,0,0,0,3,0,0,3,3,0,0,0,0,0,0,0],"byMode":{"지하철":9,"차량":3}},{"dest_code":"11560620","dest_name":"서울특별시 영등포구 양평2동","dest_lat":37.54350560446898,"dest_lon":126.89059120594035,"total":12,"byHour":[0,0,0,0,4,0,0,0,0,0,0,0,0,3,0,2,0,3,0,0,0,0,0,0],"byMode":{"지하철":12}},{"dest_code":"11380510","dest_name":"서울특별시 은평구 녹번동","dest_lat":37.60530749347024,"dest_lon":126.93457412417987,"total":12,"byHour":[0,0,0,0,4,4,0,0,0,0,0,0,4,0,0,0,0,0,0,0,0,0,0,0],"byMode":{"기타":4,"차량":8}},{"dest_code":"11410555","dest_name":"서울특별시 서대문구 북아현동","dest_lat":37.55929069227892,"dest_lon":126.95501974771388,"total":12,"byHour":[0,0,0,0,0,3,0,0,0,0,0,0,0,6,0,0,0,0,3,0,0,0,0,0],"byMode":{"지하철":3,"차량":6,"일반버스":3}},{"dest_code":"11680720","dest_name":"서울특별시 강남구 일원본동","dest_lat":37.4823085068982,"dest_lon":127.0845473617676,"total":12,"byHour":[0,0,0,0,0,0,3,0,0,3,0,0,2,0,4,0,0,0,0,0,0,0,0,0],"byMode":{"지하철":9,"차량":3}},{"dest_code":"11320511","dest_name":"서울특별시 도봉구 창1동","dest_lat":37.64709093129404,"dest_lon":127.04354230346514,"total":12,"byHour":[0,0,0,0,0,0,0,0,5,0,0,3,4,0,0,0,0,0,0,0,0,0,0,0],"byMode":{"지하철":8,"차량":4}},{"dest_code":"11440555","dest_name":"서울특별시 마포구 아현동","dest_lat":37.551851292486674,"dest_lon":126.95270610587647,"total":12,"byHour":[0,0,0,0,0,0,0,0,3,0,0,0,4,0,3,0,0,0,0,2,0,0,0,0],"byMode":{"지하철":6,"차량":6}},{"dest_code":"11440720","dest_name":"서울특별시 마포구 성산1동","dest_lat":37.562001970808,"dest_lon":126.91184564810614,"total":12,"byHour":[0,0,0,0,0,0,0,0,3,0,0,3,0,0,0,0,0,2,0,4,0,0,0,0],"byMode":{"지하철":12}},{"dest_code":"11260690","dest_name":"서울특별시 중랑구 신내2동","dest_lat":37.610983653054106,"dest_lon":127.09158736207436,"total":12,"byHour":[0,0,0,0,0,0,0,0,0,3,0,3,3,0,0,0,0,0,3,0,0,0,0,0],"byMode":{"지하철":9,"기타":3}},{"dest_code":"11500603","dest_name":"서울특별시 강서구 가양1동","dest_lat":37.57187746731984,"dest_lon":126.83490847348328,"total":12,"byHour":[0,0,0,0,0,0,0,0,0,3,0,0,0,3,6,0,0,0,0,0,0,0,0,0],"byMode":{"차량":9,"지하철":3}},{"dest_code":"11650510","dest_name":"서울특별시 서초구 서초1동","dest_lat":37.48693597480006,"dest_lon":127.0201008696518,"total":12,"byHour":[0,0,0,0,0,0,0,0,0,5,0,0,0,7,0,0,0,0,0,0,0,0,0,0],"byMode":{"차량":5,"지하철":3,"기타":4}},{"dest_code":"11200720","dest_name":"서울특별시 성동구 송정동","dest_lat":37.55237277778798,"dest_lon":127.06426341681592,"total":12,"byHour":[0,0,0,0,0,0,0,0,0,0,3,3,0,0,0,0,0,0,3,0,0,0,0,3],"byMode":{"차량":9,"지하철":3}},{"dest_code":"11500590","dest_name":"서울특별시 강서구 화곡본동","dest_lat":37.5426355037639,"dest_lon":126.84811811679272,"total":12,"byHour":[0,0,0,0,0,0,0,0,0,0,10,2,0,0,0,0,0,0,0,0,0,0,0,0],"byMode":{"차량":7,"지하철":3,"도보":2}},{"dest_code":"11740570","dest_name":"서울특별시 강동구 암사1동","dest_lat":37.551848367771946,"dest_lon":127.1345954774132,"total":11,"byHour":[0,3,0,0,0,0,0,0,3,0,0,0,3,0,0,0,0,0,0,0,0,2,0,0],"byMode":{"차량":3,"지하철":8}},{"dest_code":"11320680","dest_name":"서울특별시 도봉구 쌍문3동","dest_lat":37.64766314749173,"dest_lon":127.03058765843974,"total":11,"byHour":[0,0,0,0,0,7,0,0,0,4,0,0,0,0,0,0,0,0,0,0,0,0,0,0],"byMode":{"지하철":7,"기타":4}},{"dest_code":"11500591","dest_name":"서울특별시 강서구 화곡6동","dest_lat":37.55172114803463,"dest_lon":126.85123082314595,"total":11,"byHour":[0,0,0,0,0,0,4,4,0,3,0,0,0,0,0,0,0,0,0,0,0,0,0,0],"byMode":{"지하철":8,"차량":3}},{"dest_code":"11290760","dest_name":"서울특별시 성북구 장위1동","dest_lat":37.61509907407851,"dest_lon":127.04465522374312,"total":11,"byHour":[0,0,0,0,0,0,0,3,3,3,0,0,0,0,0,0,0,0,0,0,0,0,2,0],"byMode":{"차량":8,"일반버스":3}},{"dest_code":"11680655","dest_name":"서울특별시 강남구 도곡1동","dest_lat":37.488887657674894,"dest_lon":127.04101114838812,"total":11,"byHour":[0,0,0,0,0,0,0,2,0,0,0,0,0,0,2,0,0,0,0,0,0,4,0,3],"byMode":{"지하철":4,"기타":2,"차량":2,"도보":3}},{"dest_code":"43114000","dest_name":"충청북도 청주시 청원구","dest_lat":36.69832402456021,"dest_lon":127.48474075703272,"total":11,"byHour":[0,0,0,0,0,0,0,0,3,3,5,0,0,0,0,0,0,0,0,0,0,0,0,0],"byMode":{"차량":11}},{"dest_code":"11110540","dest_name":"서울특별시 종로구 삼청동","dest_lat":37.58836360344821,"dest_lon":126.98120563602257,"total":11,"byHour":[0,0,0,0,0,0,0,0,0,3,0,0,0,0,0,0,4,0,0,0,0,4,0,0],"byMode":{"도보":3,"차량":4,"지하철":4}},{"dest_code":"11350611","dest_name":"서울특별시 노원구 하계1동","dest_lat":37.63851375656488,"dest_lon":127.0750677453248,"total":11,"byHour":[0,0,0,0,0,0,0,0,0,0,2,0,0,0,9,0,0,0,0,0,0,0,0,0],"byMode":{"광역버스":2,"차량":3,"지하철":6}},{"dest_code":"11350700","dest_name":"서울특별시 노원구 상계8동","dest_lat":37.66652471977377,"dest_lon":127.05350427757747,"total":11,"byHour":[0,0,0,0,0,0,0,0,0,0,0,3,0,0,0,3,0,2,0,3,0,0,0,0],"byMode":{"지하철":11}},{"dest_code":"11740700","dest_name":"서울특별시 강동구 둔촌2동","dest_lat":37.531308450368925,"dest_lon":127.14724337088715,"total":11,"byHour":[0,0,0,0,0,0,0,0,0,0,0,3,0,0,0,0,2,0,3,0,3,0,0,0],"byMode":{"차량":8,"지하철":3}},{"dest_code":"51730000","dest_name":"강원특별자치도 횡성군","dest_lat":37.47831589647669,"dest_lon":128.0413573577759,"total":11,"byHour":[0,0,0,0,0,0,0,0,0,0,0,4,0,0,0,0,0,7,0,0,0,0,0,0],"byMode":{"차량":11}},{"dest_code":"11500520","dest_name":"서울특별시 강서구 등촌1동","dest_lat":37.55585907387817,"dest_lon":126.85960959745547,"total":11,"byHour":[0,0,0,0,0,0,0,0,0,0,0,0,3,0,2,0,3,0,0,0,0,0,0,3],"byMode":{"지하철":6,"차량":5}},{"dest_code":"11320670","dest_name":"서울특별시 도봉구 쌍문2동","dest_lat":37.65710965130868,"dest_lon":127.03691772548196,"total":10,"byHour":[3,0,0,0,0,0,0,0,0,4,0,0,0,0,0,0,0,3,0,0,0,0,0,0],"byMode":{"기타":3,"지하철":7}},{"dest_code":"11740526","dest_name":"서울특별시 강동구 상일2동","dest_lat":37.5518559256497,"dest_lon":127.17747417503182,"total":10,"byHour":[0,2,0,0,0,0,0,0,0,0,0,0,0,4,0,0,0,0,0,0,0,0,4,0],"byMode":{"차량":6,"일반버스":4}},{"dest_code":"11440655","dest_name":"서울특별시 마포구 서강동","dest_lat":37.546730302214776,"dest_lon":126.92603119134738,"total":10,"byHour":[0,0,2,0,0,0,0,0,0,0,0,0,0,1,0,0,0,3,0,4,0,0,0,0],"byMode":{"지하철":9,"일반버스":1}},{"dest_code":"11380632","dest_name":"서울특별시 은평구 신사2동","dest_lat":37.592855159379226,"dest_lon":126.90619972620344,"total":10,"byHour":[0,0,0,0,0,0,0,3,0,3,0,4,0,0,0,0,0,0,0,0,0,0,0,0],"byMode":{"지하철":6,"차량":4}},{"dest_code":"11380625","dest_name":"서울특별시 은평구 역촌동","dest_lat":37.60457169193162,"dest_lon":126.9146202225324,"total":10,"byHour":[0,0,0,0,0,0,0,0,6,0,0,0,0,0,0,0,4,0,0,0,0,0,0,0],"byMode":{"지하철":5,"차량":5}},{"dest_code":"11380580","dest_name":"서울특별시 은평구 응암1동","dest_lat":37.59834495324267,"dest_lon":126.92706516937618,"total":10,"byHour":[0,0,0,0,0,0,0,0,3,0,0,0,0,7,0,0,0,0,0,0,0,0,0,0],"byMode":{"일반버스":3,"지하철":7}},{"dest_code":"11710620","dest_name":"서울특별시 송파구 가락본동","dest_lat":37.49701933499789,"dest_lon":127.12165359074712,"total":10,"byHour":[0,0,0,0,0,0,0,0,3,0,2,0,0,0,3,0,0,0,0,2,0,0,0,0],"byMode":{"지하철":8,"차량":2}},{"dest_code":"11410640","dest_name":"서울특별시 서대문구 홍제3동","dest_lat":37.59238563329103,"dest_lon":126.95161456142748,"total":10,"byHour":[0,0,0,0,0,0,0,0,0,3,0,0,0,0,0,0,0,0,0,7,0,0,0,0],"byMode":{"지하철":3,"차량":7}},{"dest_code":"43800000","dest_name":"충청북도 단양군","dest_lat":36.98279067719013,"dest_lon":128.38796555779976,"total":10,"byHour":[0,0,0,0,0,0,0,0,0,0,0,4,0,6,0,0,0,0,0,0,0,0,0,0],"byMode":{"차량":10}},{"dest_code":"11380640","dest_name":"서울특별시 은평구 증산동","dest_lat":37.5841279240836,"dest_lon":126.9059397715006,"total":10,"byHour":[0,0,0,0,0,0,0,0,0,0,0,0,4,3,0,0,3,0,0,0,0,0,0,0],"byMode":{"지하철":7,"차량":3}},{"dest_code":"11215830","dest_name":"서울특별시 광진구 자양2동","dest_lat":37.529103216756376,"dest_lon":127.08275137179692,"total":10,"byHour":[0,0,0,0,0,0,0,0,0,0,0,0,0,0,5,0,0,0,0,0,3,2,0,0],"byMode":{"차량":2,"지하철":6,"기타":2}},{"dest_code":"41220000","dest_name":"경기도 평택시","dest_lat":37.192301993488584,"dest_lon":127.00502900097335,"total":9,"byHour":[5,0,0,0,0,0,0,0,0,0,1,0,0,0,0,0,0,0,3,0,0,0,0,0],"byMode":{"차량":9}},{"dest_code":"11620655","dest_name":"서울특별시 관악구 신원동","dest_lat":37.4793953186733,"dest_lon":126.92661365329724,"total":9,"byHour":[0,4,0,0,0,0,0,0,0,0,0,0,0,0,0,0,0,0,2,3,0,0,0,0],"byMode":{"지하철":4,"차량":5}},{"dest_code":"11380560","dest_name":"서울특별시 은평구 구산동","dest_lat":37.611069000619466,"dest_lon":126.90730854008928,"total":9,"byHour":[0,3,0,0,0,0,0,0,0,3,0,0,0,0,0,0,0,0,3,0,0,0,0,0],"byMode":{"지하철":9}},{"dest_code":"11350665","dest_name":"서울특별시 노원구 상계3.4동","dest_lat":37.6757801445397,"dest_lon":127.0842190173459,"total":9,"byHour":[0,3,0,0,0,0,0,0,0,0,0,3,0,0,0,3,0,0,0,0,0,0,0,0],"byMode":{"차량":9}},{"dest_code":"11545700","dest_name":"서울특별시 금천구 시흥4동","dest_lat":37.46006930273669,"dest_lon":126.90930854255716,"total":9,"byHour":[0,0,3,0,0,0,0,0,0,4,0,0,0,2,0,0,0,0,0,0,0,0,0,0],"byMode":{"지하철":5,"차량":4}},{"dest_code":"11590530","dest_name":"서울특별시 동작구 상도1동","dest_lat":37.49837077818583,"dest_lon":126.9533526303038,"total":9,"byHour":[0,0,0,0,3,0,0,0,0,0,0,0,0,0,3,0,0,3,0,0,0,0,0,0],"byMode":{"기타":3,"차량":3,"지하철":3}},{"dest_code":"28710000","dest_name":"인천광역시 강화군","dest_lat":37.71030363838855,"dest_lon":126.34891157564104,"total":9,"byHour":[0,0,0,0,0,3,0,0,3,0,0,0,3,0,0,0,0,0,0,0,0,0,0,0],"byMode":{"차량":9}},{"dest_code":"51750000","dest_name":"강원특별자치도 영월군","dest_lat":37.420899927402914,"dest_lon":128.20869898742086,"total":9,"byHour":[0,0,0,0,0,0,3,0,0,0,0,0,0,0,0,0,0,6,0,0,0,0,0,0],"byMode":{"차량":9}},{"dest_code":"11560710","dest_name":"서울특별시 영등포구 대림2동","dest_lat":37.48962033751955,"dest_lon":126.90050284330508,"total":9,"byHour":[0,0,0,0,0,0,0,3,0,0,0,0,0,0,0,0,0,0,0,6,0,0,0,0],"byMode":{"지하철":9}},{"dest_code":"11740600","dest_name":"서울특별시 강동구 천호1동","dest_lat":37.5463252427156,"dest_lon":127.13854822874764,"total":9,"byHour":[0,0,0,0,0,0,0,3,0,0,0,0,0,6,0,0,0,0,0,0,0,0,0,0],"byMode":{"차량":9}},{"dest_code":"11740530","dest_name":"서울특별시 강동구 명일1동","dest_lat":37.55034957453017,"dest_lon":127.14594542077988,"total":9,"byHour":[0,0,0,0,0,0,0,3,0,0,3,0,0,0,0,0,0,0,0,0,0,3,0,0],"byMode":{"지하철":3,"차량":6}},{"dest_code":"11710610","dest_name":"서울특별시 송파구 삼전동","dest_lat":37.50190257761887,"dest_lon":127.09188809234622,"total":9,"byHour":[0,0,0,0,0,0,0,0,4,0,0,0,0,0,0,2,0,0,0,0,0,3,0,0],"byMode":{"지하철":6,"기타":3}},{"dest_code":"11710590","dest_name":"서울특별시 송파구 송파2동","dest_lat":37.50285324752867,"dest_lon":127.11700927557912,"total":9,"byHour":[0,0,0,0,0,0,0,0,7,2,0,0,0,0,0,0,0,0,0,0,0,0,0,0],"byMode":{"지하철":7,"차량":2}},{"dest_code":"11470520","dest_name":"서울특별시 양천구 목2동","dest_lat":37.54363229277754,"dest_lon":126.87428702518918,"total":9,"byHour":[0,0,0,0,0,0,0,0,3,3,0,0,0,3,0,0,0,0,0,0,0,0,0,0],"byMode":{"차량":6,"지하철":3}},{"dest_code":"11305575","dest_name":"서울특별시 강북구 삼각산동","dest_lat":37.61715932760559,"dest_lon":127.0165245795677,"total":9,"byHour":[0,0,0,0,0,0,0,0,0,4,0,0,0,0,5,0,0,0,0,0,0,0,0,0],"byMode":{"기타":4,"차량":5}},{"dest_code":"11350570","dest_name":"서울특별시 노원구 월계2동","dest_lat":37.633974259066136,"dest_lon":127.05129552388732,"total":9,"byHour":[0,0,0,0,0,0,0,0,0,0,4,4,0,1,0,0,0,0,0,0,0,0,0,0],"byMode":{"차량":8,"지하철":1}},{"dest_code":"11470510","dest_name":"서울특별시 양천구 목1동","dest_lat":37.52751904097061,"dest_lon":126.87443491547334,"total":9,"byHour":[0,0,0,0,0,0,0,0,0,0,3,0,0,2,0,0,0,0,0,4,0,0,0,0],"byMode":{"지하철":9}},{"dest_code":"11590540","dest_name":"서울특별시 동작구 상도2동","dest_lat":37.50368119978703,"dest_lon":126.94187036566096,"total":9,"byHour":[0,0,0,0,0,0,0,0,0,0,3,0,0,0,0,0,3,0,0,3,0,0,0,0],"byMode":{"차량":6,"지하철":3}},{"dest_code":"11305615","dest_name":"서울특별시 강북구 수유1동","dest_lat":37.6297366940976,"dest_lon":127.01001782948444,"total":9,"byHour":[0,0,0,0,0,0,0,0,0,0,0,0,3,0,3,0,3,0,0,0,0,0,0,0],"byMode":{"지하철":3,"차량":6}},{"dest_code":"41430000","dest_name":"경기도 의왕시","dest_lat":37.361396006690704,"dest_lon":126.94030436907624,"total":9,"byHour":[0,0,0,0,0,0,0,0,0,0,0,0,0,3,0,0,0,6,0,0,0,0,0,0],"byMode":{"차량":9}},{"dest_code":"11170630","dest_name":"서울특별시 용산구 이촌1동","dest_lat":37.51517316857026,"dest_lon":126.97175838068604,"total":9,"byHour":[0,0,0,0,0,0,0,0,0,0,0,0,0,0,0,0,6,0,0,3,0,0,0,0],"byMode":{"차량":6,"일반버스":3}},{"dest_code":"11590640","dest_name":"서울특별시 동작구 사당3동","dest_lat":37.48875334371872,"dest_lon":126.97097662017023,"total":8,"byHour":[3,0,0,0,0,0,0,0,0,0,0,0,3,0,2,0,0,0,0,0,0,0,0,0],"byMode":{"차량":3,"지하철":5}},{"dest_code":"11260570","dest_name":"서울특별시 중랑구 면목7동","dest_lat":37.57713876078811,"dest_lon":127.09279824137629,"total":8,"byHour":[0,2,0,0,0,0,0,3,0,0,0,0,0,0,0,0,0,0,0,0,3,0,0,0],"byMode":{"일반버스":2,"차량":3,"기타":3}},{"dest_code":"11350640","dest_name":"서울특별시 노원구 상계2동","dest_lat":37.65665170508147,"dest_lon":127.06709982703664,"total":8,"byHour":[0,3,0,0,0,0,0,0,0,2,0,0,0,0,0,0,3,0,0,0,0,0,0,0],"byMode":{"차량":5,"지하철":3}},{"dest_code":"11545680","dest_name":"서울특별시 금천구 시흥2동","dest_lat":37.45090382022978,"dest_lon":126.91982352271675,"total":8,"byHour":[0,0,4,0,0,0,0,0,0,0,4,0,0,0,0,0,0,0,0,0,0,0,0,0],"byMode":{"지하철":8}},{"dest_code":"11260620","dest_name":"서울특별시 중랑구 묵1동","dest_lat":37.61372612547999,"dest_lon":127.08253301501492,"total":8,"byHour":[0,0,4,0,0,0,0,0,0,0,0,0,0,0,0,0,0,1,0,0,0,0,3,0],"byMode":{"지하철":4,"차량":1,"기타":3}},{"dest_code":"44210000","dest_name":"충청남도 서산시","dest_lat":36.8161789846435,"dest_lon":126.47969787731947,"total":8,"byHour":[0,0,0,3,0,0,3,0,0,0,0,2,0,0,0,0,0,0,0,0,0,0,0,0],"byMode":{"차량":8}},{"dest_code":"11740650","dest_name":"서울특별시 강동구 성내2동","dest_lat":37.53440211933332,"dest_lon":127.12770532534653,"total":8,"byHour":[0,0,0,0,0,2,0,0,0,0,2,0,0,0,0,0,0,0,0,0,0,0,4,0],"byMode":{"차량":4,"지하철":4}},{"dest_code":"11530595","dest_name":"서울특별시 구로구 가리봉동","dest_lat":37.482693847192856,"dest_lon":126.88806000798644,"total":8,"byHour":[0,0,0,0,0,0,3,0,0,0,0,0,0,0,3,0,2,0,0,0,0,0,0,0],"byMode":{"지하철":5,"차량":3}},{"dest_code":"11110560","dest_name":"서울특별시 종로구 평창동","dest_lat":37.61568630251399,"dest_lon":126.96812566774555,"total":8,"byHour":[0,0,0,0,0,0,2,0,0,0,0,0,0,3,0,3,0,0,0,0,0,0,0,0],"byMode":{"차량":8}},{"dest_code":"11380530","dest_name":"서울특별시 은평구 불광2동","dest_lat":37.624278541092735,"dest_lon":126.92869863673612,"total":8,"byHour":[0,0,0,0,0,0,0,0,3,3,0,0,0,0,0,2,0,0,0,0,0,0,0,0],"byMode":{"지하철":8}},{"dest_code":"11320522","dest_name":"서울특별시 도봉구 도봉2동","dest_lat":37.68125464671829,"dest_lon":127.0477027712937,"total":8,"byHour":[0,0,0,0,0,0,0,0,0,3,0,2,0,0,0,0,0,0,0,0,0,0,0,3],"byMode":{"지하철":5,"차량":3}},{"dest_code":"11590620","dest_name":"서울특별시 동작구 사당1동","dest_lat":37.47978703194504,"dest_lon":126.97751804689942,"total":8,"byHour":[0,0,0,0,0,0,0,0,0,0,3,0,0,3,0,0,0,0,0,0,0,0,2,0],"byMode":{"차량":5,"지하철":3}},{"dest_code":"11560660","dest_name":"서울특별시 영등포구 신길4동","dest_lat":37.50688049196096,"dest_lon":126.91282913998464,"total":8,"byHour":[0,0,0,0,0,0,0,0,0,0,0,4,0,4,0,0,0,0,0,0,0,0,0,0],"byMode":{"일반버스":4,"차량":4}},{"dest_code":"11590560","dest_name":"서울특별시 동작구 상도4동","dest_lat":37.49742138615788,"dest_lon":126.94066964463084,"total":8,"byHour":[0,0,0,0,0,0,0,0,0,0,0,0,4,0,0,0,4,0,0,0,0,0,0,0],"byMode":{"일반버스":4,"차량":4}},{"dest_code":"11710646","dest_name":"서울특별시 송파구 장지동","dest_lat":37.482973920923705,"dest_lon":127.13150452137992,"total":8,"byHour":[0,0,0,0,0,0,0,0,0,0,0,0,3,0,0,2,0,0,3,0,0,0,0,0],"byMode":{"지하철":3,"차량":5}},{"dest_code":"11410520","dest_name":"서울특별시 서대문구 천연동","dest_lat":37.57131965007134,"dest_lon":126.9566540266542,"total":8,"byHour":[0,0,0,0,0,0,0,0,0,0,0,0,0,0,0,0,0,8,0,0,0,0,0,0],"byMode":{"도보":4,"기타":4}},{"dest_code":"11500535","dest_name":"서울특별시 강서구 등촌3동","dest_lat":37.561203675763885,"dest_lon":126.84619497284451,"total":8,"byHour":[0,0,0,0,0,0,0,0,0,0,0,0,0,0,0,0,0,6,2,0,0,0,0,0],"byMode":{"차량":6,"지하철":2}},{"dest_code":"11530530","dest_name":"서울특별시 구로구 구로2동","dest_lat":37.49687628698088,"dest_lon":126.8799181309095,"total":7,"byHour":[3,0,0,0,0,0,0,0,4,0,0,0,0,0,0,0,0,0,0,0,0,0,0,0],"byMode":{"차량":7}},{"dest_code":"11740690","dest_name":"서울특별시 강동구 둔촌1동","dest_lat":37.523065057100446,"dest_lon":127.1404186870368,"total":7,"byHour":[3,0,0,0,0,0,0,0,0,0,0,0,0,0,0,0,0,0,0,0,4,0,0,0],"byMode":{"차량":3,"지하철":4}},{"dest_code":"11320660","dest_name":"서울특별시 도봉구 쌍문1동","dest_lat":37.65306893249887,"dest_lon":127.01951564530228,"total":7,"byHour":[0,4,0,0,0,0,0,0,0,0,0,0,0,0,0,0,3,0,0,0,0,0,0,0],"byMode":{"지하철":4,"차량":3}},{"dest_code":"11410690","dest_name":"서울특별시 서대문구 남가좌1동","dest_lat":37.57181729704554,"dest_lon":126.91627890035964,"total":7,"byHour":[0,0,0,0,4,0,0,0,0,0,0,0,0,0,0,0,3,0,0,0,0,0,0,0],"byMode":{"기타":4,"차량":3}},{"dest_code":"11380600","dest_name":"서울특별시 은평구 응암3동","dest_lat":37.58892573969037,"dest_lon":126.9175543119417,"total":7,"byHour":[0,0,0,0,4,0,0,0,0,0,0,0,0,0,3,0,0,0,0,0,0,0,0,0],"byMode":{"지하철":7}},{"dest_code":"11170640","dest_name":"서울특별시 용산구 이촌2동","dest_lat":37.52285650577792,"dest_lon":126.95420581951647,"total":7,"byHour":[0,0,0,0,4,0,0,3,0,0,0,0,0,0,0,0,0,0,0,0,0,0,0,0],"byMode":{"기타":4,"지하철":3}},{"dest_code":"11470680","dest_name":"서울특별시 양천구 신정7동","dest_lat":37.50987688932637,"dest_lon":126.86540807073112,"total":7,"byHour":[0,0,0,0,0,3,0,0,0,0,3,0,0,0,0,1,0,0,0,0,0,0,0,0],"byMode":{"지하철":3,"기타":3,"일반버스":1}},{"dest_code":"11545510","dest_name":"서울특별시 금천구 가산동","dest_lat":37.47666082069989,"dest_lon":126.88379132868764,"total":7,"byHour":[0,0,0,0,0,3,0,0,0,0,0,0,0,0,0,0,4,0,0,0,0,0,0,0],"byMode":{"차량":3,"지하철":4}},{"dest_code":"11305534","dest_name":"서울특별시 강북구 삼양동","dest_lat":37.623804265225246,"dest_lon":127.01492956330208,"total":7,"byHour":[0,0,0,0,0,0,4,0,0,0,0,0,3,0,0,0,0,0,0,0,0,0,0,0],"byMode":{"지하철":4,"차량":3}},{"dest_code":"11500530","dest_name":"서울특별시 강서구 등촌2동","dest_lat":37.54584405769225,"dest_lon":126.86002721392336,"total":7,"byHour":[0,0,0,0,0,0,3,0,0,0,0,0,0,0,0,0,0,0,0,0,0,4,0,0],"byMode":{"차량":3,"지하철":4}},{"dest_code":"11350624","dest_name":"서울특별시 노원구 중계4동","dest_lat":37.65936386768401,"dest_lon":127.08251558546104,"total":7,"byHour":[0,0,0,0,0,0,7,0,0,0,0,0,0,0,0,0,0,0,0,0,0,0,0,0],"byMode":{"지하철":4,"도보":3}},{"dest_code":"11230710","dest_name":"서울특별시 동대문구 회기동","dest_lat":37.59371693617452,"dest_lon":127.05151154165344,"total":7,"byHour":[0,0,0,0,0,0,0,0,3,0,0,0,3,0,0,0,1,0,0,0,0,0,0,0],"byMode":{"기타":3,"지하철":3,"일반버스":1}},{"dest_code":"11740590","dest_name":"서울특별시 강동구 암사3동","dest_lat":37.56118661306365,"dest_lon":127.13863777415892,"total":7,"byHour":[0,0,0,0,0,0,0,0,3,4,0,0,0,0,0,0,0,0,0,0,0,0,0,0],"byMode":{"차량":7}},{"dest_code":"11710561","dest_name":"서울특별시 송파구 방이1동","dest_lat":37.50985491489405,"dest_lon":127.1224540097014,"total":7,"byHour":[0,0,0,0,0,0,0,0,0,4,0,0,0,0,0,3,0,0,0,0,0,0,0,0],"byMode":{"차량":7}},{"dest_code":"11650621","dest_name":"서울특별시 서초구 방배4동","dest_lat":37.48983219519618,"dest_lon":126.990978616156,"total":7,"byHour":[0,0,0,0,0,0,0,0,0,3,0,0,0,0,0,0,0,0,0,0,0,0,4,0],"byMode":{"차량":3,"지하철":4}},{"dest_code":"11620735","dest_name":"서울특별시 관악구 대학동","dest_lat":37.45291112083013,"dest_lon":126.94852030298784,"total":7,"byHour":[0,0,0,0,0,0,0,0,0,2,0,2,0,0,3,0,0,0,0,0,0,0,0,0],"byMode":{"지하철":4,"일반버스":3}},{"dest_code":"11260520","dest_name":"서울특별시 중랑구 면목2동","dest_lat":37.58928761522088,"dest_lon":127.0778399396376,"total":7,"byHour":[0,0,0,0,0,0,0,0,0,0,3,0,0,0,0,0,1,0,3,0,0,0,0,0],"byMode":{"차량":4,"기타":3}},{"dest_code":"11650560","dest_name":"서울특별시 서초구 반포1동","dest_lat":37.50552851610613,"dest_lon":127.0167625320726,"total":7,"byHour":[0,0,0,0,0,0,0,0,0,0,4,0,0,3,0,0,0,0,0,0,0,0,0,0],"byMode":{"지하철":7}},{"dest_code":"11350720","dest_name":"서울특별시 노원구 상계10동","dest_lat":37.65971816335463,"dest_lon":127.05838376138938,"total":7,"byHour":[0,0,0,0,0,0,0,0,0,0,7,0,0,0,0,0,0,0,0,0,0,0,0,0],"byMode":{"지하철":7}},{"dest_code":"51230000","dest_name":"강원특별자치도 삼척시","dest_lat":37.50323770648877,"dest_lon":128.50744191343296,"total":7,"byHour":[0,0,0,0,0,0,0,0,0,0,3,0,4,0,0,0,0,0,0,0,0,0,0,0],"byMode":{"차량":7}},{"dest_code":"11560650","dest_name":"서울특별시 영등포구 신길3동","dest_lat":37.506238488162886,"dest_lon":126.90577245220663,"total":7,"byHour":[0,0,0,0,0,0,0,0,0,0,3,4,0,0,0,0,0,0,0,0,0,0,0,0],"byMode":{"차량":3,"지하철":4}},{"dest_code":"11410620","dest_name":"서울특별시 서대문구 홍제1동","dest_lat":37.58340454932159,"dest_lon":126.94431972762148,"total":7,"byHour":[0,0,0,0,0,0,0,0,0,0,0,3,0,0,0,0,0,0,0,0,0,0,4,0],"byMode":{"지하철":7}},{"dest_code":"11500510","dest_name":"서울특별시 강서구 염창동","dest_lat":37.55454504668768,"dest_lon":126.87180143362478,"total":7,"byHour":[0,0,0,0,0,0,0,0,0,0,0,4,0,0,0,3,0,0,0,0,0,0,0,0],"byMode":{"지하철":4,"차량":3}},{"dest_code":"11620725","dest_name":"서울특별시 관악구 조원동","dest_lat":37.48282396573309,"dest_lon":126.9073482716966,"total":7,"byHour":[0,0,0,0,0,0,0,0,0,0,0,0,7,0,0,0,0,0,0,0,0,0,0,0],"byMode":{"차량":7}},{"dest_code":"11710570","dest_name":"서울특별시 송파구 오금동","dest_lat":37.50400495130691,"dest_lon":127.13402058316142,"total":7,"byHour":[0,0,0,0,0,0,0,0,0,0,0,0,3,0,0,0,0,0,0,0,4,0,0,0],"byMode":{"일반버스":3,"차량":4}},{"dest_code":"11710720","dest_name":"서울특별시 송파구 잠실7동","dest_lat":37.50731814805191,"dest_lon":127.07388403732652,"total":7,"byHour":[0,0,0,0,0,0,0,0,0,0,0,0,4,3,0,0,0,0,0,0,0,0,0,0],"byMode":{"차량":4,"지하철":3}},{"dest_code":"11650660","dest_name":"서울특별시 서초구 내곡동","dest_lat":37.455858973063,"dest_lon":127.07063192337948,"total":7,"byHour":[0,0,0,0,0,0,0,0,0,0,0,0,3,0,0,0,4,0,0,0,0,0,0,0],"byMode":{"지하철":3,"차량":4}},{"dest_code":"11545670","dest_name":"서울특별시 금천구 시흥1동","dest_lat":37.45241027086715,"dest_lon":126.90014751611682,"total":7,"byHour":[0,0,0,0,0,0,0,0,0,0,0,0,0,0,4,0,0,0,0,0,0,0,3,0],"byMode":{"차량":4,"지하철":3}},{"dest_code":"47250000","dest_name":"경상북도 상주시","dest_lat":36.32767497602901,"dest_lon":128.43605069874522,"total":7,"byHour":[0,0,0,0,0,0,0,0,0,0,0,0,0,0,7,0,0,0,0,0,0,0,0,0],"byMode":{"차량":7}},{"dest_code":"11680656","dest_name":"서울특별시 강남구 도곡2동","dest_lat":37.48827562630961,"dest_lon":127.04979801350092,"total":7,"byHour":[0,0,0,0,0,0,0,0,0,0,0,0,0,0,0,0,4,0,0,0,0,3,0,0],"byMode":{"지하철":4,"차량":3}},{"dest_code":"11380551","dest_name":"서울특별시 은평구 갈현1동","dest_lat":37.625194351134994,"dest_lon":126.91473683285209,"total":6,"byHour":[3,0,0,0,0,0,0,0,0,0,0,0,0,0,0,0,3,0,0,0,0,0,0,0],"byMode":{"지하철":6}},{"dest_code":"11380520","dest_name":"서울특별시 은평구 불광1동","dest_lat":37.61687033066227,"dest_lon":126.93865920467827,"total":6,"byHour":[3,0,0,0,0,0,3,0,0,0,0,0,0,0,0,0,0,0,0,0,0,0,0,0],"byMode":{"차량":3,"지하철":3}},{"dest_code":"11560560","dest_name":"서울특별시 영등포구 당산2동","dest_lat":37.53410769973474,"dest_lon":126.90237135958655,"total":6,"byHour":[0,3,0,0,3,0,0,0,0,0,0,0,0,0,0,0,0,0,0,0,0,0,0,0],"byMode":{"지하철":6}},{"dest_code":"51820000","dest_name":"강원특별자치도 고성군","dest_lat":38.38727329053747,"dest_lon":128.40031919067016,"total":6,"byHour":[0,0,0,3,0,0,0,0,0,0,0,0,3,0,0,0,0,0,0,0,0,0,0,0],"byMode":{"차량":6}},{"dest_code":"41370000","dest_name":"경기도 오산시","dest_lat":37.25837614757862,"dest_lon":127.09095786660768,"total":6,"byHour":[0,0,0,0,0,2,0,0,0,0,0,0,0,4,0,0,0,0,0,0,0,0,0,0],"byMode":{"차량":2,"지하철":4}},{"dest_code":"43113000","dest_name":"충청북도 청주시 흥덕구","dest_lat":36.64329905552659,"dest_lon":127.3952788173003,"total":6,"byHour":[0,0,0,0,0,0,3,0,0,0,0,3,0,0,0,0,0,0,0,0,0,0,0,0],"byMode":{"차량":6}},{"dest_code":"11740560","dest_name":"서울특별시 강동구 고덕2동","dest_lat":37.5651037879116,"dest_lon":127.16275604487758,"total":6,"byHour":[0,0,0,0,0,0,0,3,0,0,0,3,0,0,0,0,0,0,0,0,0,0,0,0],"byMode":{"차량":3,"지하철":3}},{"dest_code":"11470650","dest_name":"서울특별시 양천구 신정4동","dest_lat":37.52541055129687,"dest_lon":126.85761807645274,"total":6,"byHour":[0,0,0,0,0,0,0,6,0,0,0,0,0,0,0,0,0,0,0,0,0,0,0,0],"byMode":{"지하철":6}},{"dest_code":"11260540","dest_name":"서울특별시 중랑구 면목4동","dest_lat":37.573618445205234,"dest_lon":127.08537359110592,"total":6,"byHour":[0,0,0,0,0,0,0,3,0,3,0,0,0,0,0,0,0,0,0,0,0,0,0,0],"byMode":{"일반버스":3,"지하철":3}},{"dest_code":"11350670","dest_name":"서울특별시 노원구 상계5동","dest_lat":37.66600955926868,"dest_lon":127.06999865156484,"total":6,"byHour":[0,0,0,0,0,0,0,0,3,0,0,0,0,0,0,0,0,0,3,0,0,0,0,0],"byMode":{"지하철":3,"차량":3}},{"dest_code":"11500630","dest_name":"서울특별시 강서구 방화1동","dest_lat":37.56860631833828,"dest_lon":126.81757799691684,"total":6,"byHour":[0,0,0,0,0,0,0,0,3,0,0,0,0,0,0,0,3,0,0,0,0,0,0,0],"byMode":{"지하철":6}},{"dest_code":"11260580","dest_name":"서울특별시 중랑구 상봉1동","dest_lat":37.60172209475368,"dest_lon":127.08944588823316,"total":6,"byHour":[0,0,0,0,0,0,0,0,3,3,0,0,0,0,0,0,0,0,0,0,0,0,0,0],"byMode":{"기타":3,"지하철":3}},{"dest_code":"11260550","dest_name":"서울특별시 중랑구 면목5동","dest_lat":37.58251779356648,"dest_lon":127.07887986158896,"total":6,"byHour":[0,0,0,0,0,0,0,0,3,0,0,0,0,0,0,3,0,0,0,0,0,0,0,0],"byMode":{"기타":6}},{"dest_code":"11500604","dest_name":"서울특별시 강서구 가양2동","dest_lat":37.56676852402787,"dest_lon":126.8543566480916,"total":6,"byHour":[0,0,0,0,0,0,0,0,0,3,0,0,3,0,0,0,0,0,0,0,0,0,0,0],"byMode":{"지하철":6}},{"dest_code":"11530550","dest_name":"서울특별시 구로구 구로4동","dest_lat":37.49160778502839,"dest_lon":126.89030917334668,"total":6,"byHour":[0,0,0,0,0,0,0,0,0,6,0,0,0,0,0,0,0,0,0,0,0,0,0,0],"byMode":{"지하철":6}},{"dest_code":"11290640","dest_name":"서울특별시 성북구 정릉3동","dest_lat":37.61209700278061,"dest_lon":126.99458959683868,"total":6,"byHour":[0,0,0,0,0,0,0,0,0,3,0,0,0,0,0,0,0,0,0,0,3,0,0,0],"byMode":{"기타":3,"일반버스":3}},{"dest_code":"11320513","dest_name":"서울특별시 도봉구 창3동","dest_lat":37.63729397628067,"dest_lon":127.04172477409548,"total":6,"byHour":[0,0,0,0,0,0,0,0,0,0,3,0,0,0,0,0,0,0,0,0,0,3,0,0],"byMode":{"차량":3,"지하철":3}},{"dest_code":"11500611","dest_name":"서울특별시 강서구 발산1동","dest_lat":37.55050719249973,"dest_lon":126.82526217896871,"total":6,"byHour":[0,0,0,0,0,0,0,0,0,0,0,3,0,0,0,0,0,0,0,0,3,0,0,0],"byMode":{"지하철":3,"차량":3}},{"dest_code":"11620565","dest_name":"서울특별시 관악구 성현동","dest_lat":37.48955017818484,"dest_lon":126.95104675932345,"total":6,"byHour":[0,0,0,0,0,0,0,0,0,0,0,3,3,0,0,0,0,0,0,0,0,0,0,0],"byMode":{"차량":6}},{"dest_code":"11530740","dest_name":"서울특별시 구로구 개봉1동","dest_lat":37.500003575772105,"dest_lon":126.84912655135652,"total":6,"byHour":[0,0,0,0,0,0,0,0,0,0,0,0,2,0,0,0,0,0,4,0,0,0,0,0],"byMode":{"지하철":6}},{"dest_code":"11620575","dest_name":"서울특별시 관악구 행운동","dest_lat":37.480974541256025,"dest_lon":126.96055306473508,"total":6,"byHour":[0,0,0,0,0,0,0,0,0,0,0,0,3,0,0,3,0,0,0,0,0,0,0,0],"byMode":{"차량":3,"지하철":3}},{"dest_code":"11110600","dest_name":"서울특별시 종로구 가회동","dest_lat":37.58251427458714,"dest_lon":126.986547119483,"total":6,"byHour":[0,0,0,0,0,0,0,0,0,0,0,0,0,3,3,0,0,0,0,0,0,0,0,0],"byMode":{"지하철":6}},{"dest_code":"11470550","dest_name":"서울특별시 양천구 목5동","dest_lat":37.53605179717799,"dest_lon":126.87988214388602,"total":6,"byHour":[0,0,0,0,0,0,0,0,0,0,0,0,0,0,0,6,0,0,0,0,0,0,0,0],"byMode":{"지하철":6}},{"dest_code":"11560585","dest_name":"서울특별시 영등포구 도림동","dest_lat":37.50911103838436,"dest_lon":126.90055834501898,"total":6,"byHour":[0,0,0,0,0,0,0,0,0,0,0,0,0,0,0,3,3,0,0,0,0,0,0,0],"byMode":{"지하철":6}},{"dest_code":"11710647","dest_name":"서울특별시 송파구 위례동","dest_lat":37.48159973774568,"dest_lon":127.14122731389826,"total":6,"byHour":[0,0,0,0,0,0,0,0,0,0,0,0,0,0,0,3,0,3,0,0,0,0,0,0],"byMode":{"광역버스":3,"차량":3}},{"dest_code":"11170510","dest_name":"서울특별시 용산구 후암동","dest_lat":37.54990604425638,"dest_lon":126.9806148822003,"total":6,"byHour":[0,0,0,0,0,0,0,0,0,0,0,0,0,0,0,0,3,0,0,3,0,0,0,0],"byMode":{"일반버스":6}},{"dest_code":"51130000","dest_name":"강원특별자치도 원주시","dest_lat":37.312346367873374,"dest_lon":127.94799030344927,"total":6,"byHour":[0,0,0,0,0,0,0,0,0,0,0,0,0,0,0,0,0,0,3,3,0,0,0,0],"byMode":{"차량":6}},{"dest_code":"11620525","dest_name":"서울특별시 관악구 보라매동","dest_lat":37.4903997651064,"dest_lon":126.93257631802736,"total":5,"byHour":[3,0,0,0,0,0,0,0,0,0,0,0,0,0,2,0,0,0,0,0,0,0,0,0],"byMode":{"지하철":5}},{"dest_code":"11620585","dest_name":"서울특별시 관악구 낙성대동","dest_lat":37.467688419684144,"dest_lon":126.95984335131286,"total":5,"byHour":[3,0,0,0,0,0,0,0,0,0,0,0,0,0,0,0,0,2,0,0,0,0,0,0],"byMode":{"차량":5}},{"dest_code":"11620630","dest_name":"서울특별시 관악구 남현동","dest_lat":37.464112163050295,"dest_lon":126.977768370847,"total":5,"byHour":[1,0,0,0,0,0,0,0,0,0,0,0,0,0,0,2,2,0,0,0,0,0,0,0],"byMode":{"차량":1,"지하철":4}},{"dest_code":"11650610","dest_name":"서울특별시 서초구 방배2동","dest_lat":37.4732060607648,"dest_lon":126.98842374274712,"total":5,"byHour":[0,4,0,0,0,0,0,0,0,0,0,0,0,0,0,0,0,0,0,0,0,0,1,0],"byMode":{"차량":4,"지하철":1}},{"dest_code":"11350695","dest_name":"서울특별시 노원구 상계6.7동","dest_lat":37.64866170644932,"dest_lon":127.06010082071658,"total":5,"byHour":[0,0,0,0,3,0,0,0,0,0,2,0,0,0,0,0,0,0,0,0,0,0,0,0],"byMode":{"차량":3,"지하철":2}},{"dest_code":"41111000","dest_name":"경기도 수원시 장안구","dest_lat":37.307931147638755,"dest_lon":126.99735958826156,"total":5,"byHour":[0,0,0,0,0,0,0,3,0,0,2,0,0,0,0,0,0,0,0,0,0,0,0,0],"byMode":{"차량":5}},{"dest_code":"11740515","dest_name":"서울특별시 강동구 강일동","dest_lat":37.568941079825045,"dest_lon":127.1733563199527,"total":5,"byHour":[0,0,0,0,0,0,0,0,0,2,0,0,0,0,3,0,0,0,0,0,0,0,0,0],"byMode":{"차량":5}},{"dest_code":"11170570","dest_name":"서울특별시 용산구 원효로2동","dest_lat":37.53385302392906,"dest_lon":126.95246009027296,"total":5,"byHour":[0,0,0,0,0,0,0,0,0,3,0,2,0,0,0,0,0,0,0,0,0,0,0,0],"byMode":{"지하철":3,"기타":2}},{"dest_code":"11290780","dest_name":"서울특별시 성북구 장위3동","dest_lat":37.6182582111975,"dest_lon":127.05344990971862,"total":5,"byHour":[0,0,0,0,0,0,0,0,0,0,0,3,0,0,2,0,0,0,0,0,0,0,0,0],"byMode":{"차량":3,"지하철":2}},{"dest_code":"11410655","dest_name":"서울특별시 서대문구 홍제2동","dest_lat":37.584386176185454,"dest_lon":126.95251363483156,"total":5,"byHour":[0,0,0,0,0,0,0,0,0,0,0,3,0,0,0,0,0,0,0,0,2,0,0,0],"byMode":{"일반버스":3,"지하철":2}},{"dest_code":"11530720","dest_name":"서울특별시 구로구 고척1동","dest_lat":37.50070751188327,"dest_lon":126.86370017463868,"total":5,"byHour":[0,0,0,0,0,0,0,0,0,0,0,2,3,0,0,0,0,0,0,0,0,0,0,0],"byMode":{"지하철":5}},{"dest_code":"11500560","dest_name":"서울특별시 강서구 화곡3동","dest_lat":37.54399420314511,"dest_lon":126.83430514445963,"total":5,"byHour":[0,0,0,0,0,0,0,0,0,0,0,0,3,0,0,0,0,0,0,0,0,0,2,0],"byMode":{"기타":3,"차량":2}},{"dest_code":"11215760","dest_name":"서울특별시 광진구 중곡3동","dest_lat":37.56791070389989,"dest_lon":127.082017158444,"total":5,"byHour":[0,0,0,0,0,0,0,0,0,0,0,0,0,3,0,0,2,0,0,0,0,0,0,0],"byMode":{"일반버스":3,"차량":2}},{"dest_code":"11545610","dest_name":"서울특별시 금천구 독산1동","dest_lat":37.46430767232536,"dest_lon":126.89249564631804,"total":5,"byHour":[0,0,0,0,0,0,0,0,0,0,0,0,0,2,0,0,0,0,0,0,0,0,3,0],"byMode":{"지하철":5}},{"dest_code":"11710531","dest_name":"서울특별시 송파구 거여1동","dest_lat":37.494753358006825,"dest_lon":127.14186322700304,"total":4,"byHour":[0,2,0,0,0,0,0,0,0,0,0,0,0,0,2,0,0,0,0,0,0,0,0,0],"byMode":{"일반버스":2,"지하철":2}},{"dest_code":"11680675","dest_name":"서울특별시 강남구 개포3동","dest_lat":37.496288055464696,"dest_lon":127.07882839297903,"total":4,"byHour":[0,4,0,0,0,0,0,0,0,0,0,0,0,0,0,0,0,0,0,0,0,0,0,0],"byMode":{"지하철":4}},{"dest_code":"11620765","dest_name":"서울특별시 관악구 미성동","dest_lat":37.47592782983057,"dest_lon":126.91547491932536,"total":4,"byHour":[0,0,2,0,0,0,0,0,0,0,0,0,0,0,2,0,0,0,0,0,0,0,0,0],"byMode":{"차량":4}},{"dest_code":"11410720","dest_name":"서울특별시 서대문구 북가좌2동","dest_lat":37.58117691780368,"dest_lon":126.91333898837377,"total":4,"byHour":[0,0,2,0,0,0,0,0,0,2,0,0,0,0,0,0,0,0,0,0,0,0,0,0],"byMode":{"지하철":4}},{"dest_code":"11380690","dest_name":"서울특별시 은평구 진관동","dest_lat":37.63967752919758,"dest_lon":126.93782340570208,"total":4,"byHour":[0,0,0,3,0,0,0,0,0,0,0,0,0,0,0,0,0,0,1,0,0,0,0,0],"byMode":{"차량":3,"지하철":1}},{"dest_code":"11545630","dest_name":"서울특별시 금천구 독산3동","dest_lat":37.47578646637848,"dest_lon":126.90460560022586,"total":4,"byHour":[0,0,0,3,0,0,0,0,0,0,0,1,0,0,0,0,0,0,0,0,0,0,0,0],"byMode":{"차량":3,"지하철":1}},{"dest_code":"11620625","dest_name":"서울특별시 관악구 인헌동","dest_lat":37.46970047790657,"dest_lon":126.96756094704558,"total":4,"byHour":[0,0,0,0,0,0,0,2,0,0,0,2,0,0,0,0,0,0,0,0,0,0,0,0],"byMode":{"차량":2,"지하철":2}},{"dest_code":"44800000","dest_name":"충청남도 홍성군","dest_lat":36.5719213528739,"dest_lon":126.61174670376451,"total":4,"byHour":[0,0,0,0,0,0,0,4,0,0,0,0,0,0,0,0,0,0,0,0,0,0,0,0],"byMode":{"차량":4}},{"dest_code":"11500570","dest_name":"서울특별시 강서구 화곡4동","dest_lat":37.53608099048408,"dest_lon":126.85859684945628,"total":4,"byHour":[0,0,0,0,0,0,0,0,4,0,0,0,0,0,0,0,0,0,0,0,0,0,0,0],"byMode":{"지하철":4}},{"dest_code":"11110580","dest_name":"서울특별시 종로구 교남동","dest_lat":37.57106499942922,"dest_lon":126.96411821359328,"total":4,"byHour":[0,0,0,0,0,0,0,0,2,0,0,2,0,0,0,0,0,0,0,0,0,0,0,0],"byMode":{"지하철":2,"일반버스":2}},{"dest_code":"11710532","dest_name":"서울특별시 송파구 거여2동","dest_lat":37.492297411111146,"dest_lon":127.14712937784984,"total":4,"byHour":[0,0,0,0,0,0,0,0,0,4,0,0,0,0,0,0,0,0,0,0,0,0,0,0],"byMode":{"차량":4}},{"dest_code":"11500641","dest_name":"서울특별시 강서구 방화3동","dest_lat":37.58211504505231,"dest_lon":126.81759007551284,"total":4,"byHour":[0,0,0,0,0,0,0,0,0,0,4,0,0,0,0,0,0,0,0,0,0,0,0,0],"byMode":{"지하철":4}},{"dest_code":"11470600","dest_name":"서울특별시 양천구 신월5동","dest_lat":37.5409013825356,"dest_lon":126.82943642603806,"total":4,"byHour":[0,0,0,0,0,0,0,0,0,0,4,0,0,0,0,0,0,0,0,0,0,0,0,0],"byMode":{"지하철":4}},{"dest_code":"11560690","dest_name":"서울특별시 영등포구 신길7동","dest_lat":37.50594136499458,"dest_lon":126.91956241744654,"total":4,"byHour":[0,0,0,0,0,0,0,0,0,0,4,0,0,0,0,0,0,0,0,0,0,0,0,0],"byMode":{"지하철":4}},{"dest_code":"48310000","dest_name":"경상남도 거제시","dest_lat":34.85995231088043,"dest_lon":128.62372387434118,"total":4,"byHour":[0,0,0,0,0,0,0,0,0,0,4,0,0,0,0,0,0,0,0,0,0,0,0,0],"byMode":{"차량":4}},{"dest_code":"11740525","dest_name":"서울특별시 강동구 상일1동","dest_lat":37.550638313480455,"dest_lon":127.16478735017908,"total":4,"byHour":[0,0,0,0,0,0,0,0,0,0,0,2,0,0,0,2,0,0,0,0,0,0,0,0],"byMode":{"지하철":2,"차량":2}},{"dest_code":"11680690","dest_name":"서울특별시 강남구 개포4동","dest_lat":37.47533332020373,"dest_lon":127.05341069324228,"total":4,"byHour":[0,0,0,0,0,0,0,0,0,0,0,2,0,0,0,0,0,0,0,2,0,0,0,0],"byMode":{"지하철":2,"차량":2}},{"dest_code":"11470670","dest_name":"서울특별시 양천구 신정6동","dest_lat":37.51588403209137,"dest_lon":126.8697673341213,"total":4,"byHour":[0,0,0,0,0,0,0,0,0,0,0,0,4,0,0,0,0,0,0,0,0,0,0,0],"byMode":{"지하철":4}},{"dest_code":"11500615","dest_name":"서울특별시 강서구 우장산동","dest_lat":37.550612077121365,"dest_lon":126.84113168643051,"total":4,"byHour":[0,0,0,0,0,0,0,0,0,0,0,0,4,0,0,0,0,0,0,0,0,0,0,0],"byMode":{"지하철":4}},{"dest_code":"51170000","dest_name":"강원특별자치도 동해시","dest_lat":37.624052852177975,"dest_lon":129.02389760467733,"total":4,"byHour":[0,0,0,0,0,0,0,0,0,0,0,0,4,0,0,0,0,0,0,0,0,0,0,0],"byMode":{"차량":4}},{"dest_code":"11650520","dest_name":"서울특별시 서초구 서초2동","dest_lat":37.48882759709113,"dest_lon":127.0279086854325,"total":4,"byHour":[0,0,0,0,0,0,0,0,0,0,0,0,0,0,3,0,0,0,0,0,0,1,0,0],"byMode":{"지하철":4}},{"dest_code":"11530770","dest_name":"서울특별시 구로구 오류1동","dest_lat":37.4968684057227,"dest_lon":126.84164833495925,"total":4,"byHour":[0,0,0,0,0,0,0,0,0,0,0,0,0,0,0,0,4,0,0,0,0,0,0,0],"byMode":{"차량":4}},{"dest_code":"11110570","dest_name":"서울특별시 종로구 무악동","dest_lat":37.577110679906056,"dest_lon":126.95858596490396,"total":4,"byHour":[0,0,0,0,0,0,0,0,0,0,0,0,0,0,0,0,0,0,4,0,0,0,0,0],"byMode":{"지하철":4}},{"dest_code":"47113000","dest_name":"경상북도 포항시 북구","dest_lat":36.13541721403968,"dest_lon":129.27201336249294,"total":4,"byHour":[0,0,0,0,0,0,0,0,0,0,0,0,0,0,0,0,0,0,0,4,0,0,0,0],"byMode":{"차량":4}},{"dest_code":"11560610","dest_name":"서울특별시 영등포구 양평1동","dest_lat":37.52545711949541,"dest_lon":126.88671756480686,"total":4,"byHour":[0,0,0,0,0,0,0,0,0,0,0,0,0,0,0,0,0,0,0,0,0,4,0,0],"byMode":{"지하철":4}},{"dest_code":"11590520","dest_name":"서울특별시 동작구 노량진2동","dest_lat":37.510955974919455,"dest_lon":126.93780933679756,"total":3,"byHour":[3,0,0,0,0,0,0,0,0,0,0,0,0,0,0,0,0,0,0,0,0,0,0,0],"byMode":{"지하철":3}},{"dest_code":"11620615","dest_name":"서울특별시 관악구 중앙동","dest_lat":37.4841515011671,"dest_lon":126.95065911204492,"total":3,"byHour":[3,0,0,0,0,0,0,0,0,0,0,0,0,0,0,0,0,0,0,0,0,0,0,0],"byMode":{"차량":3}},{"dest_code":"11530790","dest_name":"서울특별시 구로구 수궁동","dest_lat":37.49843711958104,"dest_lon":126.82601652614262,"total":3,"byHour":[3,0,0,0,0,0,0,0,0,0,0,0,0,0,0,0,0,0,0,0,0,0,0,0],"byMode":{"차량":3}},{"dest_code":"46130000","dest_name":"전라남도 여수시","dest_lat":34.521155021315295,"dest_lon":127.54030150540422,"total":3,"byHour":[3,0,0,0,0,0,0,0,0,0,0,0,0,0,0,0,0,0,0,0,0,0,0,0],"byMode":{"차량":3}},{"dest_code":"11470640","dest_name":"서울특별시 양천구 신정3동","dest_lat":37.51180589991826,"dest_lon":126.84109344783091,"total":3,"byHour":[0,0,3,0,0,0,0,0,0,0,0,0,0,0,0,0,0,0,0,0,0,0,0,0],"byMode":{"지하철":3}},{"dest_code":"44270000","dest_name":"충청남도 당진시","dest_lat":36.900717926036535,"dest_lon":126.66131115866361,"total":3,"byHour":[0,0,0,3,0,0,0,0,0,0,0,0,0,0,0,0,0,0,0,0,0,0,0,0],"byMode":{"차량":3}},{"dest_code":"50130000","dest_name":"제주특별자치도 서귀포시","dest_lat":33.331007537909166,"dest_lon":126.55644873182789,"total":3,"byHour":[0,0,0,0,3,0,0,0,0,0,0,0,0,0,0,0,0,0,0,0,0,0,0,0],"byMode":{"차량":3}},{"dest_code":"44131000","dest_name":"충청남도 천안시 동남구","dest_lat":36.75585364623526,"dest_lon":127.22991648916417,"total":3,"byHour":[0,0,0,0,0,3,0,0,0,0,0,0,0,0,0,0,0,0,0,0,0,0,0,0],"byMode":{"차량":3}},{"dest_code":"44180000","dest_name":"충청남도 보령시","dest_lat":36.34348111148626,"dest_lon":126.55417049911286,"total":3,"byHour":[0,0,0,0,0,1,0,0,2,0,0,0,0,0,0,0,0,0,0,0,0,0,0,0],"byMode":{"차량":3}},{"dest_code":"11260630","dest_name":"서울특별시 중랑구 묵2동","dest_lat":37.6108262711771,"dest_lon":127.07462292207424,"total":3,"byHour":[0,0,0,0,0,0,3,0,0,0,0,0,0,0,0,0,0,0,0,0,0,0,0,0],"byMode":{"지하철":3}},{"dest_code":"47920000","dest_name":"경상북도 봉화군","dest_lat":36.93624699533935,"dest_lon":128.88209496845414,"total":3,"byHour":[0,0,0,0,0,0,0,3,0,0,0,0,0,0,0,0,0,0,0,0,0,0,0,0],"byMode":{"차량":3}},{"dest_code":"43745000","dest_name":"충청북도 증평군","dest_lat":36.79724553389666,"dest_lon":127.60499231164742,"total":3,"byHour":[0,0,0,0,0,0,0,0,3,0,0,0,0,0,0,0,0,0,0,0,0,0,0,0],"byMode":{"차량":3}},{"dest_code":"48170000","dest_name":"경상남도 진주시","dest_lat":35.20582876579813,"dest_lon":128.13229897258617,"total":3,"byHour":[0,0,0,0,0,0,0,0,3,0,0,0,0,0,0,0,0,0,0,0,0,0,0,0],"byMode":{"차량":3}},{"dest_code":"43720000","dest_name":"충청북도 보은군","dest_lat":36.494331124540885,"dest_lon":127.70598350971369,"total":3,"byHour":[0,0,0,0,0,0,0,0,0,3,0,0,0,0,0,0,0,0,0,0,0,0,0,0],"byMode":{"차량":3}},{"dest_code":"11380552","dest_name":"서울특별시 은평구 갈현2동","dest_lat":37.61798039239918,"dest_lon":126.91245240262892,"total":3,"byHour":[0,0,0,0,0,0,0,0,0,3,0,0,0,0,0,0,0,0,0,0,0,0,0,0],"byMode":{"지하철":3}},{"dest_code":"11410700","dest_name":"서울특별시 서대문구 남가좌2동","dest_lat":37.57792789374408,"dest_lon":126.92134583020304,"total":3,"byHour":[0,0,0,0,0,0,0,0,0,3,0,0,0,0,0,0,0,0,0,0,0,0,0,0],"byMode":{"기타":3}},{"dest_code":"11590630","dest_name":"서울특별시 동작구 사당2동","dest_lat":37.497195989262906,"dest_lon":126.9748305493792,"total":3,"byHour":[0,0,0,0,0,0,0,0,0,3,0,0,0,0,0,0,0,0,0,0,0,0,0,0],"byMode":{"차량":3}},{"dest_code":"11305608","dest_name":"서울특별시 강북구 번3동","dest_lat":37.623687055768,"dest_lon":127.04218511039488,"total":3,"byHour":[0,0,0,0,0,0,0,0,0,0,3,0,0,0,0,0,0,0,0,0,0,0,0,0],"byMode":{"지하철":3}},{"dest_code":"11560680","dest_name":"서울특별시 영등포구 신길6동","dest_lat":37.498790784897466,"dest_lon":126.91358762911489,"total":3,"byHour":[0,0,0,0,0,0,0,0,0,0,3,0,0,0,0,0,0,0,0,0,0,0,0,0],"byMode":{"지하철":3}},{"dest_code":"11680730","dest_name":"서울특별시 강남구 일원1동","dest_lat":37.49346648686934,"dest_lon":127.08924187143631,"total":3,"byHour":[0,0,0,0,0,0,0,0,0,0,3,0,0,0,0,0,0,0,0,0,0,0,0,0],"byMode":{"지하철":3}},{"dest_code":"43130000","dest_name":"충청북도 충주시","dest_lat":36.98323979431429,"dest_lon":127.86833856760873,"total":3,"byHour":[0,0,0,0,0,0,0,0,0,0,3,0,0,0,0,0,0,0,0,0,0,0,0,0],"byMode":{"차량":3}},{"dest_code":"43150000","dest_name":"충청북도 제천시","dest_lat":37.038863671113965,"dest_lon":128.12939339837376,"total":3,"byHour":[0,0,0,0,0,0,0,0,0,0,3,0,0,0,0,0,0,0,0,0,0,0,0,0],"byMode":{"차량":3}},{"dest_code":"11440730","dest_name":"서울특별시 마포구 성산2동","dest_lat":37.56832883553491,"dest_lon":126.90196767073064,"total":3,"byHour":[0,0,0,0,0,0,0,0,0,0,3,0,0,0,0,0,0,0,0,0,0,0,0,0],"byMode":{"기타":3}},{"dest_code":"11380631","dest_name":"서울특별시 은평구 신사1동","dest_lat":37.59913960449797,"dest_lon":126.90850630017172,"total":3,"byHour":[0,0,0,0,0,0,0,0,0,0,0,3,0,0,0,0,0,0,0,0,0,0,0,0],"byMode":{"차량":3}},{"dest_code":"11590510","dest_name":"서울특별시 동작구 노량진1동","dest_lat":37.5122360275928,"dest_lon":126.94895754101177,"total":3,"byHour":[0,0,0,0,0,0,0,0,0,0,0,3,0,0,0,0,0,0,0,0,0,0,0,0],"byMode":{"지하철":3}},{"dest_code":"11710566","dest_name":"서울특별시 송파구 오륜동","dest_lat":37.51742909164448,"dest_lon":127.12883529004348,"total":3,"byHour":[0,0,0,0,0,0,0,0,0,0,0,3,0,0,0,0,0,0,0,0,0,0,0,0],"byMode":{"차량":3}},{"dest_code":"11320521","dest_name":"서울특별시 도봉구 도봉1동","dest_lat":37.6853214078324,"dest_lon":127.02679827026442,"total":3,"byHour":[0,0,0,0,0,0,0,0,0,0,0,3,0,0,0,0,0,0,0,0,0,0,0,0],"byMode":{"차량":3}},{"dest_code":"47290000","dest_name":"경상북도 경산시","dest_lat":35.90128704008671,"dest_lon":129.04529804002718,"total":3,"byHour":[0,0,0,0,0,0,0,0,0,0,0,3,0,0,0,0,0,0,0,0,0,0,0,0],"byMode":{"차량":3}},{"dest_code":"11260660","dest_name":"서울특별시 중랑구 망우3동","dest_lat":37.591884956932,"dest_lon":127.10282860833864,"total":3,"byHour":[0,0,0,0,0,0,0,0,0,0,0,3,0,0,0,0,0,0,0,0,0,0,0,0],"byMode":{"기타":3}},{"dest_code":"11215730","dest_name":"서울특별시 광진구 군자동","dest_lat":37.55304249812136,"dest_lon":127.0737075306132,"total":3,"byHour":[0,0,0,0,0,0,0,0,0,0,0,0,3,0,0,0,0,0,0,0,0,0,0,0],"byMode":{"일반버스":3}},{"dest_code":"11680660","dest_name":"서울특별시 강남구 개포1동","dest_lat":37.47778212319665,"dest_lon":127.06232388097084,"total":3,"byHour":[0,0,0,0,0,0,0,0,0,0,0,0,3,0,0,0,0,0,0,0,0,0,0,0],"byMode":{"기타":3}},{"dest_code":"11710580","dest_name":"서울특별시 송파구 송파1동","dest_lat":37.50717835993431,"dest_lon":127.1103660800039,"total":3,"byHour":[0,0,0,0,0,0,0,0,0,0,0,0,3,0,0,0,0,0,0,0,0,0,0,0],"byMode":{"차량":3}},