{"meta":{"origin":{"lat":37.56853537429577,"lon":127.02084550975484,"name":"서울시 중구 황학동"},"origin_code":"11140670","year":"2023","month":"1월","day_type":"평일","direction":"out","label":"2023 1월 평일","dataset_key":"2023_jan_weekday_out","dates":["20230109","20230113"],"days_count":2,"note":null,"mode_labels":{},"hours":["00:00","01:00","02:00","03:00","04:00","05:00","06:00","07:00","08:00","09:00","10:00","11:00","12:00","13:00","14:00","15:00","16:00","17:00","18:00","19:00","20:00","21:00","22:00","23:00"],"generated_at":"2026-06-12T06:48:09.131Z"},"summary":{"total_pop":21205.5,"dest_count":518,"self_total":5548.5,"hour_totals":[788.5,491.5,238,296.5,285,422.5,539.5,932.5,1351.5,992.5,802,981,1142,1101.5,1021,1143.5,1312.5,1420.5,1392.5,1190.5,1020.5,964,831,545],"mode_totals":{"차량":5195.5,"일반버스":1781.5,"도보":6126.5,"기타":2966.5,"지하철":5113.5,"광역버스":22},"hour_mode":[{"차량":233.5,"일반버스":57.5,"도보":269.5,"기타":68,"지하철":158.5,"광역버스":1.5},{"차량":143,"일반버스":40.5,"도보":143,"기타":63.5,"광역버스":4.5,"지하철":97},{"일반버스":21,"기타":24,"차량":79,"도보":67.5,"지하철":46.5},{"기타":42,"도보":82,"일반버스":33.5,"차량":98.5,"지하철":40.5},{"차량":94.5,"도보":70,"기타":26,"일반버스":37,"지하철":57.5},{"일반버스":30,"지하철":120.5,"도보":91,"기타":40,"차량":141},{"지하철":159,"일반버스":41.5,"도보":86.5,"차량":197,"기타":54,"광역버스":1.5},{"일반버스":116,"지하철":356.5,"차량":214.5,"기타":89,"도보":155,"광역버스":1.5},{"도보":214,"지하철":573,"기타":178,"일반버스":141,"차량":242,"광역버스":3.5},{"도보":204,"기타":118.5,"차량":247,"지하철":319.5,"일반버스":103.5},{"지하철":189,"기타":127.5,"차량":202,"도보":216,"일반버스":65.5,"광역버스":2},{"기타":150,"도보":262,"차량":288.5,"일반버스":97,"지하철":183.5},{"기타":200,"지하철":229,"도보":332.5,"차량":290,"일반버스":90.5},{"지하철":246,"차량":296.5,"기타":174.5,"도보":277,"일반버스":106,"광역버스":1.5},{"지하철":238,"도보":272,"차량":268.5,"일반버스":70.5,"기타":170.5,"광역버스":1.5},{"기타":194,"지하철":255.5,"도보":313.5,"차량":303.5,"일반버스":77},{"차량":330.5,"도보":309.5,"기타":261.5,"지하철":296,"일반버스":115},{"기타":228,"도보":408,"차량":284.5,"지하철":378.5,"일반버스":120,"광역버스":1.5},{"도보":409,"차량":233,"일반버스":118.5,"기타":222.5,"지하철":408,"광역버스":1.5},{"기타":166,"차량":236.5,"도보":464.5,"일반버스":94.5,"지하철":229},{"차량":235,"기타":115.5,"도보":413.5,"일반버스":72.5,"지하철":184},{"지하철":168.5,"도보":371,"기타":104.5,"차량":263.5,"일반버스":56.5},{"차량":192,"도보":355.5,"일반버스":46,"지하철":131,"기타":105,"광역버스":1.5},{"차량":81.5,"도보":340,"기타":44,"일반버스":30.5,"지하철":49}],"dist_buckets":{"3-5":2709.5,"1-3":4879.5,"0-1":5322,"5-10":4122,"10-20":2542.5,"20+":1630},"inout":{"내국인":15858,"장기외국인":936.5,"단기외국인":4411},"nationality":{"한국":15858,"기타":4477,"중국":677.5,"베트남":45.5,"몽골":28.5,"미국":27,"우즈베키스탄":24.5,"캐나다":21,"기타국가":46.5},"hour_dist":[{"3-5":93,"1-3":128.5,"0-1":258,"5-10":167.5,"10-20":92.5,"20+":49},{"1-3":83,"0-1":130,"5-10":88,"3-5":95,"20+":48.5,"10-20":47},{"1-3":46,"0-1":62,"3-5":27.5,"5-10":63,"20+":20.5,"10-20":19},{"1-3":50.5,"0-1":73,"5-10":63.5,"3-5":47.5,"10-20":33,"20+":29},{"5-10":60,"0-1":60.5,"1-3":56.5,"3-5":48,"10-20":34,"20+":26},{"3-5":45,"1-3":68.5,"0-1":81.5,"5-10":95,"10-20":81.5,"20+":51},{"3-5":80,"1-3":93,"0-1":65.5,"5-10":108.5,"10-20":126,"20+":66.5},{"1-3":186.5,"3-5":194.5,"0-1":115,"5-10":245,"10-20":112,"20+":79.5},{"0-1":154,"3-5":290,"1-3":335.5,"5-10":361.5,"10-20":132,"20+":78.5},{"0-1":191.5,"1-3":236.5,"3-5":159,"5-10":228,"10-20":104.5,"20+":73},{"3-5":110.5,"1-3":174.5,"0-1":203.5,"5-10":162,"10-20":78.5,"20+":73},{"1-3":278.5,"0-1":237.5,"3-5":109,"5-10":158.5,"10-20":118.5,"20+":79},{"5-10":194.5,"1-3":297,"3-5":138.5,"0-1":294,"10-20":120,"20+":98},{"3-5":148.5,"1-3":249,"0-1":256.5,"5-10":215.5,"10-20":135,"20+":97},{"5-10":215.5,"1-3":299.5,"0-1":204.5,"3-5":108.5,"10-20":91.5,"20+":101.5},{"3-5":142.5,"1-3":273.5,"0-1":265,"5-10":203.5,"10-20":136,"20+":123},{"5-10":245,"1-3":357,"0-1":231,"3-5":164,"10-20":205,"20+":110.5},{"1-3":361,"0-1":318,"3-5":162,"5-10":283,"10-20":204,"20+":92.5},{"0-1":340.5,"1-3":307,"5-10":291,"3-5":163,"10-20":204.5,"20+":86.5},{"1-3":284.5,"0-1":419.5,"3-5":77.5,"5-10":188,"10-20":149,"20+":72},{"3-5":78,"0-1":386,"1-3":241.5,"5-10":144.5,"10-20":94.5,"20+":76},{"1-3":215.5,"0-1":351.5,"3-5":99,"5-10":156.5,"10-20":102.5,"20+":39},{"3-5":86,"0-1":312,"1-3":170.5,"5-10":113.5,"10-20":95.5,"20+":53.5},{"5-10":71,"0-1":311.5,"3-5":43,"1-3":86,"10-20":26.5,"20+":7}],"hour_inout":[{"내국인":583,"장기외국인":53,"단기외국인":152.5},{"내국인":360.5,"단기외국인":98,"장기외국인":33},{"내국인":173,"단기외국인":56,"장기외국인":9},{"단기외국인":85,"내국인":186,"장기외국인":25.5},{"내국인":191.5,"장기외국인":16.5,"단기외국인":77},{"내국인":286.5,"장기외국인":55.5,"단기외국인":80.5},{"내국인":385,"단기외국인":122.5,"장기외국인":32},{"내국인":738.5,"단기외국인":158,"장기외국인":36},{"내국인":1044.5,"단기외국인":239,"장기외국인":68},{"내국인":764.5,"단기외국인":184.5,"장기외국인":43.5},{"내국인":588,"장기외국인":40,"단기외국인":174},{"단기외국인":244.5,"내국인":692.5,"장기외국인":44},{"단기외국인":264.5,"내국인":830.5,"장기외국인":47},{"내국인":785,"단기외국인":280.5,"장기외국인":36},{"내국인":755,"장기외국인":37.5,"단기외국인":228.5},{"단기외국인":233,"내국인":871,"장기외국인":39.5},{"내국인":948,"단기외국인":314.5,"장기외국인":50},{"내국인":1092.5,"단기외국인":281.5,"장기외국인":46.5},{"장기외국인":48,"단기외국인":262.5,"내국인":1082},{"내국인":926.5,"단기외국인":221,"장기외국인":43},{"내국인":803.5,"장기외국인":33.5,"단기외국인":183.5},{"내국인":736.5,"단기외국인":189,"장기외국인":38.5},{"내국인":598,"장기외국인":36.5,"단기외국인":196.5},{"내국인":436,"장기외국인":24.5,"단기외국인":84.5}],"hour_nat":[{"한국":583,"캐나다":1.5,"기타":155.5,"중국":25.5,"베트남":14,"러시아":1.5,"미국":4.5,"필리핀":3},{"한국":360.5,"기타":99.5,"러시아":1.5,"중국":25.5,"베트남":3,"몽골":1.5},{"한국":173,"기타":56,"중국":6,"캐나다":1.5,"미국":1.5},{"기타":85,"한국":186,"중국":24,"베트남":1.5},{"한국":191.5,"중국":16.5,"기타":77},{"한국":286.5,"중국":48,"베트남":4.5,"기타":82,"미국":1.5},{"한국":385,"기타":125.5,"중국":21.5,"카자흐스탄":1.5,"프랑스":1.5,"우즈베키스탄":1.5,"베트남":1.5,"미국":1.5},{"한국":738.5,"기타":165.5,"중국":24,"캐나다":1.5,"인도네시아":1.5,"일본":1.5},{"한국":1044.5,"기타":242,"중국":56,"베트남":1.5,"인도네시아":1.5,"미국":1.5,"우즈베키스탄":3,"몽골":1.5},{"한국":764.5,"기타":184.5,"중국":36,"몽골":1.5,"미국":1.5,"캐나다":3,"필리핀":1.5},{"한국":588,"베트남":4.5,"기타":174,"중국":26,"우즈베키스탄":8,"몽골":1.5},{"기타":247.5,"한국":692.5,"중국":26,"몽골":4.5,"우즈베키스탄":6,"일본":3,"미국":1.5},{"기타":264.5,"한국":830.5,"중국":41,"우즈베키스탄":1.5,"미국":1.5,"몽골":1.5,"네팔":1.5},{"한국":785,"기타":283.5,"중국":27,"베트남":1.5,"태국":1.5,"일본":1.5,"몽골":1.5},{"한국":755,"중국":27,"기타":234.5,"러시아":1.5,"캐나다":3},{"기타":239,"한국":871,"중국":26,"우즈베키스탄":1.5,"캐나다":3,"러시아":1.5,"몽골":1.5},{"한국":948,"기타":319,"중국":29,"베트남":7.5,"미국":6,"일본":3},{"한국":1092.5,"기타":284.5,"몽골":3,"중국":36,"네팔":3,"인도네시아":1.5},{"중국":36,"기타":265.5,"한국":1082,"몽골":3,"베트남":1.5,"러시아":1.5,"우즈베키스탄":1.5,"캐나다":1.5},{"한국":926.5,"기타":225.5,"중국":28,"캐나다":3,"러시아":4.5,"몽골":1.5,"네팔":1.5},{"한국":803.5,"중국":18.5,"기타":188,"미국":3,"몽골":3,"캐나다":3,"러시아":1.5},{"한국":736.5,"기타":193.5,"중국":31,"베트남":1.5,"몽골":1.5},{"한국":598,"네팔":1.5,"기타":199.5,"중국":24.5,"베트남":3,"몽골":1.5,"미국":3},{"한국":436,"중국":18.5,"기타":86,"우즈베키스탄":1.5,"필리핀":1.5,"러시아":1.5}],"avg_dist":7280.56,"avg_time":107.56,"top3_share":17.27,"top10_share":32.36},"destinations":[{"dest_code":"11200535","dest_name":"서울특별시 성동구 왕십리도선동","dest_lat":37.56685334172042,"dest_lon":127.02960478797031,"total":1517,"byHour":[53,33,10,22.5,13,17.5,15,42.5,51,39,57.5,52,88,92.5,54,77,77.5,112.5,79.5,98.5,108,131,94.5,98],"byMode":{"도보":1179,"일반버스":130.5,"기타":91.5,"차량":94,"지하철":22}},{"dest_code":"11140615","dest_name":"서울특별시 중구 신당동","dest_lat":37.56569203810708,"dest_lon":127.01370437736728,"total":1318,"byHour":[93,54,30,33.5,27,33,21,29,39.5,48.5,47,66,52.5,44.5,38,49.5,36.5,57,77,110,101,54.5,98.5,77.5],"byMode":{"일반버스":40,"도보":1111,"기타":103.5,"차량":47.5,"지하철":13,"광역버스":3}},{"dest_code":"11140650","dest_name":"서울특별시 중구 신당5동","dest_lat":37.56363544684656,"dest_lon":127.02186699672764,"total":827.5,"byHour":[33,18.5,8.5,7,3,7.5,9,11.5,23,20.5,15,46,44.5,35,31.5,42,30.5,61,75,84,70.5,64.5,38.5,48],"byMode":{"도보":704.5,"기타":44.5,"일반버스":37,"지하철":18,"차량":23.5}},{"dest_code":"11140590","dest_name":"서울특별시 중구 광희동","dest_lat":37.56515667820614,"dest_lon":127.0037641565018,"total":586.5,"byHour":[33,21.5,6,6,3,8,21.5,27.5,63.5,33.5,26,40,21.5,12,26.5,29,30.5,24,15.5,39.5,31,22,21.5,24],"byMode":{"도보":262,"차량":60.5,"기타":128,"일반버스":78,"광역버스":1.5,"지하철":56.5}},{"dest_code":"11110710","dest_name":"서울특별시 종로구 숭인2동","dest_lat":37.57449028350606,"dest_lon":127.02034252028352,"total":583,"byHour":[11.5,9.5,4,3,7.5,4.5,5,11,13.5,26,41.5,26.5,41,28,29.5,25.5,48.5,28,31,40,25.5,54,33,35.5],"byMode":{"도보":472.5,"차량":26.5,"기타":51.5,"지하철":7.5,"일반버스":25}},{"dest_code":"11230536","dest_name":"서울특별시 동대문구 용신동","dest_lat":37.57555956991103,"dest_lon":127.03245393139196,"total":574,"byHour":[18.5,1.5,5.5,8.5,8.5,6.5,8.5,12,22,15,17.5,23.5,54.5,25,27,41,57,35,34,41.5,37.5,31.5,30,12.5],"byMode":{"차량":75.5,"도보":325.5,"기타":100.5,"일반버스":61,"지하철":11.5}},{"dest_code":"11200520","dest_name":"서울특별시 성동구 왕십리2동","dest_lat":37.56145032465671,"dest_lon":127.02772577618587,"total":417.5,"byHour":[21,3,4.5,3.5,3,6.5,6,3,13.5,14,17.5,14,19.5,18,28,24,20,25,32,29.5,45,23,20,24],"byMode":{"도보":251,"기타":65,"일반버스":38,"차량":60.5,"지하철":3}},{"dest_code":"11110615","dest_name":"서울특별시 종로구 종로1.2.3.4가동","dest_lat":37.5751851101178,"dest_lon":126.98986468781813,"total":384.5,"byHour":[7,19,2,2,7,9.5,20,21,55.5,48.5,18,16,22.5,24,22.5,20.5,21,21,12,14,0,1.5,0,0],"byMode":{"일반버스":49,"도보":69,"지하철":186,"기타":53,"차량":24,"광역버스":3.5}},{"dest_code":"11140550","dest_name":"서울특별시 중구 명동","dest_lat":37.56395198524864,"dest_lon":126.9843039812854,"total":350.5,"byHour":[18,12.5,2,6,5,3.5,10.5,51.5,73.5,30,9,24.5,11,20.5,7.5,10.5,21,10,10.5,1.5,2.5,1,7.5,1],"byMode":{"지하철":157.5,"일반버스":95.5,"차량":27.5,"광역버스":4.5,"기타":40.5,"도보":25}},{"dest_code":"11140665","dest_name":"서울특별시 중구 동화동","dest_lat":37.56071034367642,"dest_lon":127.01865212037563,"total":303,"byHour":[10.5,11,3,1,0,4.5,7.5,5.5,9.5,19.5,6.5,17,17,16,11.5,20.5,4.5,29.5,28.5,29,17.5,11.5,17,5],"byMode":{"도보":209,"차량":24.5,"기타":49.5,"일반버스":13.5,"지하철":6.5}},{"dest_code":"41360000","dest_name":"경기도 남양주시","dest_lat":37.499986848135734,"dest_lon":127.13013581339527,"total":280.5,"byHour":[14.5,10,1.5,1.5,0.5,6.5,7,7.5,11.5,16,14.5,23,14,18.5,4,7,19.5,22.5,30,14.5,14.5,9.5,8,4.5],"byMode":{"차량":200.5,"지하철":75.5,"일반버스":4.5}},{"dest_code":"11200540","dest_name":"서울특별시 성동구 마장동","dest_lat":37.567419343061054,"dest_lon":127.04059659160532,"total":221,"byHour":[6,1.5,4.5,2.5,7.5,8,1.5,9,17.5,18.5,1.5,6.5,12.5,9,8,9,14.5,12.5,24,17.5,9,8,5,7.5],"byMode":{"기타":59.5,"차량":39.5,"일반버스":50.5,"도보":56.5,"지하철":15}},{"dest_code":"11110630","dest_name":"서울특별시 종로구 종로5.6가동","dest_lat":37.57285780172435,"dest_lon":127.00439896298904,"total":218.5,"byHour":[7,3,4,7.5,1.5,7,6.5,7,27.5,16,16,11.5,17,13.5,16.5,8,10.5,9.5,12,5.5,4.5,3,1.5,2.5],"byMode":{"차량":19,"지하철":25.5,"도보":125.5,"기타":39.5,"일반버스":9}},{"dest_code":"11290610","dest_name":"서울특별시 성북구 보문동","dest_lat":37.58282567320133,"dest_lon":127.01913116701168,"total":207,"byHour":[4.5,0,0,1.5,6,3,2.5,1.5,7.5,0,3,4.5,17.5,10.5,14.5,14.5,14.5,14,24,17,19.5,16,8,3],"byMode":{"차량":45,"기타":92,"지하철":9.5,"도보":58,"일반버스":2.5}},{"dest_code":"11110670","dest_name":"서울특별시 종로구 창신1동","dest_lat":37.572369409740254,"dest_lon":127.0138035667275,"total":192,"byHour":[22,8,0,1.5,3,6,0,8.5,11.5,11.5,5,11.5,9,8.5,13.5,4.5,4,8.5,9.5,8,10.5,7.5,6.5,13.5],"byMode":{"도보":165.5,"지하철":6.5,"일반버스":6,"기타":12.5,"차량":1.5}},{"dest_code":"11200550","dest_name":"서울특별시 성동구 사근동","dest_lat":37.55812210462368,"dest_lon":127.04539498048128,"total":188,"byHour":[3.5,2,0,2,2,0,1.5,6.5,20,19,10,6.5,9,9.5,12.5,8.5,9.5,9,15,15,8,11.5,5.5,2],"byMode":{"차량":29,"지하철":42,"일반버스":48,"기타":31,"도보":38}},{"dest_code":"11140625","dest_name":"서울특별시 중구 다산동","dest_lat":37.55493348743512,"dest_lon":127.00835522995278,"total":187,"byHour":[0,3.5,1,2,4.5,0,6.5,10,6,6,8.5,13,18,12.5,14,11,14,14,7.5,6.5,5,10,10,3.5],"byMode":{"지하철":20.5,"도보":75,"일반버스":27,"기타":44.5,"차량":20}},{"dest_code":"11230545","dest_name":"서울특별시 동대문구 제기동","dest_lat":37.58374909763264,"dest_lon":127.037224891713,"total":183,"byHour":[9,1,1.5,3,1.5,0,0,5,7,8,8,9.5,10,9,11,9,8,18.5,23,12,7,11.5,9.5,1],"byMode":{"도보":42.5,"차량":39.5,"지하철":21,"기타":53.5,"일반버스":26.5}},{"dest_code":"11140540","dest_name":"서울특별시 중구 회현동","dest_lat":37.556941169823126,"dest_lon":126.97710184371688,"total":174.5,"byHour":[5,8,1.5,3,2,3,7.5,27,17.5,17,15.5,8.5,12.5,10.5,7,4,1.5,2.5,8.5,3,3.5,1.5,1.5,3],"byMode":{"도보":8.5,"지하철":51.5,"일반버스":89.5,"기타":14.5,"차량":9,"광역버스":1.5}},{"dest_code":"11290555","dest_name":"서울특별시 성북구 삼선동","dest_lat":37.58655334505262,"dest_lon":127.01170655968308,"total":169.5,"byHour":[3.5,1.5,0,2,1.5,2,0,3.5,9,7.5,1.5,11.5,2,6,5.5,12.5,14,15,18,18.5,15,12.5,7,0],"byMode":{"차량":50.5,"지하철":19.5,"도보":29.5,"기타":58,"일반버스":12}},{"dest_code":"11110700","dest_name":"서울특별시 종로구 숭인1동","dest_lat":37.57718293099928,"dest_lon":127.01689100283882,"total":169.5,"byHour":[6.5,0,0,1.5,0,1,1.5,8,2,8,8,12,3,18,6.5,13.5,17,16.5,12.5,7,4,11.5,6.5,5],"byMode":{"도보":124.5,"일반버스":5,"기타":21.5,"차량":13,"지하철":5.5}},{"dest_code":"41150000","dest_name":"경기도 의정부시","dest_lat":37.734716357852676,"dest_lon":127.06725685346728,"total":162.5,"byHour":[3,2.5,0,1.5,1.5,1.5,4.5,0,6.5,3.5,6.5,13,4.5,4,15,8.5,15,12,14,16.5,6,12.5,10.5,0],"byMode":{"차량":99,"지하철":62.5,"일반버스":1}},{"dest_code":"11140520","dest_name":"서울특별시 중구 소공동","dest_lat":37.56425948239558,"dest_lon":126.974374701073,"total":156,"byHour":[6.5,11,2,1.5,5,4.5,3,25,36.5,15.5,4.5,6,7,7.5,1,3,2,4,6.5,0,1.5,1.5,0,1],"byMode":{"지하철":96,"일반버스":40,"기타":4,"도보":14,"차량":2}},{"dest_code":"11140645","dest_name":"서울특별시 중구 청구동","dest_lat":37.556881523903606,"dest_lon":127.01518808451291,"total":154,"byHour":[1.5,1.5,0,0,0,0,0,1.5,1.5,6.5,3.5,18.5,8.5,13.5,19.5,13,12,10,11.5,14.5,4.5,5,6,1.5],"byMode":{"도보":71.5,"일반버스":8.5,"지하철":10.5,"차량":19,"기타":44.5}},{"dest_code":"11200560","dest_name":"서울특별시 성동구 행당1동","dest_lat":37.55908846394766,"dest_lon":127.03617446091934,"total":153,"byHour":[4,2,0,0,0,0,3,6.5,18.5,10.5,4.5,7.5,12,12.5,11,3,9,12,10,4.5,8,8.5,4.5,1.5],"byMode":{"도보":46.5,"차량":19.5,"지하철":32.5,"기타":14.5,"일반버스":40}},{"dest_code":"11140605","dest_name":"서울특별시 중구 을지로동","dest_lat":37.56662089067183,"dest_lon":126.99656106916466,"total":149.5,"byHour":[5,6,2.5,0,1.5,4.5,5,9,29,13,12.5,14.5,6,10.5,3,4.5,9,6.5,2,2,0.5,0.5,0.5,2],"byMode":{"지하철":61,"일반버스":23,"도보":41,"기타":17.5,"차량":7}},{"dest_code":"11680640","dest_name":"서울특별시 강남구 역삼1동","dest_lat":37.50084456440553,"dest_lon":127.03549896919056,"total":148.5,"byHour":[3.5,1.5,8.5,5.5,2.5,5.5,3.5,16.5,25.5,20,5.5,3,7.5,6,8.5,2.5,5.5,1,5.5,6.5,1.5,0,1.5,1.5],"byMode":{"차량":41,"지하철":79,"일반버스":6,"기타":20.5,"광역버스":2}},{"dest_code":"11440660","dest_name":"서울특별시 마포구 서교동","dest_lat":37.55474825664686,"dest_lon":126.9209373158581,"total":141,"byHour":[9.5,3.5,1.5,0,6,3,1.5,1.5,14.5,6.5,17.5,1.5,10,3.5,5.5,4,9.5,9.5,11,6,1,7.5,4.5,2.5],"byMode":{"일반버스":5.5,"기타":15.5,"지하철":107,"차량":12,"도보":1}},{"dest_code":"11200615","dest_name":"서울특별시 성동구 금호2.3가동","dest_lat":37.551403228517714,"dest_lon":127.01996841446868,"total":138.5,"byHour":[0,3,1.5,0,3,0,0,0,6,3.5,3.5,1.5,12.5,8,6,7,17,13,5.5,12,11,10,12.5,2],"byMode":{"차량":34,"일반버스":13,"기타":44.5,"도보":39,"지하철":8}},{"dest_code":"11200570","dest_name":"서울특별시 성동구 행당2동","dest_lat":37.55667485645122,"dest_lon":127.0296559501475,"total":135.5,"byHour":[4.5,1.5,0,1.5,0,3.5,3,2,7.5,3,8.5,11,12,5.5,7.5,4.5,9,20.5,10,5,3,3,8,1.5],"byMode":{"일반버스":40,"차량":26,"도보":45,"기타":24.5}},{"dest_code":"11200590","dest_name":"서울특별시 성동구 금호1가동","dest_lat":37.55358521026265,"dest_lon":127.02498152648928,"total":133,"byHour":[3,2,4.5,3.5,3.5,0,2,5,4.5,7.5,1.5,10.5,15,0,5.5,6.5,13.5,8,8.5,7.5,6.5,1.5,1.5,11.5],"byMode":{"차량":25,"기타":17.5,"도보":44.5,"일반버스":41,"지하철":5}},{"dest_code":"11200690","dest_name":"서울특별시 성동구 성수2가3동","dest_lat":37.54557042563956,"dest_lon":127.0580830001602,"total":132.5,"byHour":[5,8.5,0,4.5,3,1.5,0,22.5,26,11,3,1.5,10.5,7.5,4,6,7.5,4.5,4,0.5,0,0,0,1.5],"byMode":{"지하철":61,"기타":28.5,"차량":16.5,"일반버스":16,"도보":10.5}},{"dest_code":"41190000","dest_name":"경기도 부천시","dest_lat":37.50550297629228,"dest_lon":126.78368581527641,"total":129,"byHour":[1.5,3.5,10.5,0,1.5,3,8,2,4,0,0,8,3,6,5,15.5,10.5,3,10.5,4,21.5,1.5,6.5,0],"byMode":{"차량":59.5,"일반버스":2,"지하철":67.5}},{"dest_code":"41135000","dest_name":"경기도 성남시 분당구","dest_lat":37.343356152174294,"dest_lon":127.0475848297475,"total":122,"byHour":[6.5,6.5,3,1.5,3,6,9,9.5,9,11.5,4,1.5,4.5,4,2,3.5,6,0,6.5,3,3,3,15.5,0],"byMode":{"차량":93,"지하철":27.5,"일반버스":1.5}},{"dest_code":"11290705","dest_name":"서울특별시 성북구 종암동","dest_lat":37.59744123601206,"dest_lon":127.03386559835234,"total":118,"byHour":[5,10.5,1.5,2.5,0,0,4,2,3,1,0,4.5,6,5,7.5,6,10,12,5.5,15.5,9.5,5,2,0],"byMode":{"차량":36.5,"도보":22.5,"기타":31,"일반버스":12.5,"지하철":15.5}},{"dest_code":"11110640","dest_name":"서울특별시 종로구 이화동","dest_lat":37.579720415124406,"dest_lon":127.00302249905796,"total":116.5,"byHour":[4.5,0,2,0,2,11,4,13,15,3.5,7.5,9.5,3,3,5.5,8,4.5,6.5,3,4,4,1.5,1.5,0],"byMode":{"일반버스":5,"기타":42,"도보":38,"지하철":20,"차량":11.5}},{"dest_code":"11140580","dest_name":"서울특별시 중구 장충동","dest_lat":37.55556223301621,"dest_lon":127.00216552652044,"total":116.5,"byHour":[0,7.5,5,0,0,1.5,0,10,7.5,1.5,8,7,3,11,9,7.5,5,7.5,7.5,3,1.5,13.5,0,0],"byMode":{"차량":33,"지하철":10.5,"기타":37.5,"일반버스":6,"도보":29.5}},{"dest_code":"41281000","dest_name":"경기도 고양시 덕양구","dest_lat":37.649627638041935,"dest_lon":126.8792915793041,"total":110,"byHour":[0,1.5,0,1.5,1.5,3.5,3.5,0,1.5,11,3,4.5,8.5,8.5,8,4,7,13.5,8.5,5.5,3.5,5.5,3.5,2.5],"byMode":{"차량":66,"지하철":41.5,"일반버스":2.5}},{"dest_code":"11290575","dest_name":"서울특별시 성북구 동선동","dest_lat":37.5936493450371,"dest_lon":127.01851500591876,"total":108,"byHour":[1.5,0,2,3,6.5,0,1,4.5,4,6,0,4,5,6.5,4,4,6,11,12,5,7.5,4,5,5.5],"byMode":{"지하철":21.5,"도보":27,"차량":15,"기타":36.5,"일반버스":8}},{"dest_code":"11290600","dest_name":"서울특별시 성북구 안암동","dest_lat":37.58772731341445,"dest_lon":127.0272202199731,"total":106,"byHour":[1.5,2.5,1,1.5,3,1.5,0,9.5,0,4.5,4.5,3,7,9,7.5,4,4,7.5,8.5,8,6.5,7.5,3,1],"byMode":{"기타":36.5,"지하철":15.5,"도보":22,"차량":22,"일반버스":10}},{"dest_code":"11680545","dest_name":"서울특별시 강남구 압구정동","dest_lat":37.52975201322973,"dest_lon":127.0343137422465,"total":105.5,"byHour":[4.5,2.5,1,0,1.5,0,8,7.5,8,7,3.5,3,5,4.5,3.5,6.5,4.5,1.5,6,5,2.5,12.5,4.5,3],"byMode":{"지하철":34.5,"차량":28,"기타":33.5,"일반버스":9.5}},{"dest_code":"41450000","dest_name":"경기도 하남시","dest_lat":37.36950416558832,"dest_lon":127.0198651107115,"total":103,"byHour":[6,5,1.5,1.5,1.5,1.5,6,6,0,11,0,8,0,4.5,1.5,2,13,6,1.5,6,5.5,7,8,0],"byMode":{"차량":75,"기타":1.5,"지하철":25,"일반버스":1.5}},{"dest_code":"41310000","dest_name":"경기도 구리시","dest_lat":37.60586949409455,"dest_lon":127.13384534548024,"total":101,"byHour":[3,0,0,3,3,6,1,1.5,6,3,1.5,7,5.5,8,0,5,13,6,8.5,11,3.5,1,4.5,0],"byMode":{"차량":75.5,"지하철":14.5,"기타":4,"일반버스":7}},{"dest_code":"11230650","dest_name":"서울특별시 동대문구 장안1동","dest_lat":37.56623849893862,"dest_lon":127.06852139262412,"total":100.5,"byHour":[8.5,3,0,1.5,0,0,2,4,6.5,0,8.5,1.5,7.5,1.5,6,4.5,4,9.5,15,4,5,4.5,0.5,3],"byMode":{"차량":41,"기타":31.5,"일반버스":11.5,"도보":4.5,"지하철":12}},{"dest_code":"11230560","dest_name":"서울특별시 동대문구 전농1동","dest_lat":37.57921920382841,"dest_lon":127.05095444400315,"total":98.5,"byHour":[1.5,0,0,1.5,0,0,4.5,1.5,4.5,3.5,1.5,4.5,6.5,6.5,11,3,6,11,4,10.5,9,6.5,1.5,0],"byMode":{"지하철":10.5,"차량":22,"일반버스":24,"도보":14.5,"기타":27.5}},{"dest_code":"11170685","dest_name":"서울특별시 용산구 한남동","dest_lat":37.53752670451259,"dest_lon":127.00517642150815,"total":90,"byHour":[0,2.5,0.5,3.5,0,0,1.5,0,13.5,5.5,5,4,0,8.5,6.5,7.5,9.5,4.5,2.5,0,0,4,7,4],"byMode":{"일반버스":12,"도보":6.5,"기타":30,"차량":29.5,"지하철":12}},{"dest_code":"11230600","dest_name":"서울특별시 동대문구 답십리1동","dest_lat":37.57127849359092,"dest_lon":127.05187621664231,"total":90,"byHour":[1.5,3,1.5,0,1.5,2,1.5,0,3,1.5,3,9.5,12,2,6,8,3,9.5,0,4.5,9.5,2.5,3.5,1.5],"byMode":{"지하철":11,"기타":27.5,"차량":21,"도보":19.5,"광역버스":1.5,"일반버스":9.5}},{"dest_code":"11110650","dest_name":"서울특별시 종로구 혜화동","dest_lat":37.58747073793072,"dest_lon":126.99742981655449,"total":87.5,"byHour":[5.5,2.5,0,0,2.5,2,3.5,0,6,11,1,4.5,6,4.5,5.5,2.5,5.5,6,5,1,2.5,7.5,3,0],"byMode":{"지하철":24,"기타":28,"도보":14.5,"차량":13.5,"일반버스":7.5}},{"dest_code":"11290525","dest_name":"서울특별시 성북구 성북동","dest_lat":37.59668268834572,"dest_lon":126.9941320143127,"total":87,"byHour":[1.5,0,1.5,0,1.5,1.5,0,2,1.5,0,3,7,1.5,17.5,5,5,5,3.5,1.5,3.5,13,6.5,3.5,2],"byMode":{"차량":26,"지하철":12,"기타":35.5,"도보":12,"일반버스":1.5}},{"dest_code":"11110530","dest_name":"서울특별시 종로구 사직동","dest_lat":37.573888361464974,"dest_lon":126.97037626951352,"total":85,"byHour":[2.5,1.5,1.5,0,0,3.5,1.5,12,15.5,8.5,13,1.5,3.5,1.5,0,9.5,2.5,3.5,1,0,0,2.5,0,0],"byMode":{"지하철":27,"일반버스":13.5,"차량":6,"기타":32,"도보":6.5}},{"dest_code":"11140635","dest_name":"서울특별시 중구 약수동","dest_lat":37.55014909147207,"dest_lon":127.010287617014,"total":85,"byHour":[3,0.5,0,0,0,0,0,1.5,3,1.5,5,5.5,5,6,3.5,7,9,12,3.5,7.5,3,3.5,3,2],"byMode":{"차량":17.5,"지하철":13,"기타":27,"도보":14,"일반버스":13.5}},{"dest_code":"11110680","dest_name":"서울특별시 종로구 창신2동","dest_lat":37.576027279824935,"dest_lon":127.01018845877414,"total":83,"byHour":[2.5,1.5,0,1.5,4,0,0,3,3,0.5,0,1.5,6,4,11.5,12.5,6.5,7,1,6,1.5,3,6.5,0],"byMode":{"차량":11,"기타":29.5,"도보":37,"지하철":3.5,"일반버스":2}},{"dest_code":"11140570","dest_name":"서울특별시 중구 필동","dest_lat":37.55686552734,"dest_lon":126.9937710670784,"total":82,"byHour":[1.5,0,0,0,0,3,1.5,5,8,4,1.5,3,7.5,11,3,3,5.5,1.5,14.5,3,3,1,1.5,0],"byMode":{"일반버스":23,"지하철":23.5,"차량":9.5,"도보":13,"기타":13}},{"dest_code":"11560540","dest_name":"서울특별시 영등포구 여의동","dest_lat":37.52850578910781,"dest_lon":126.92847171849878,"total":81,"byHour":[0,3.5,0,3.5,0,6.5,16,14,17.5,0,7.5,3,2,0,2,0,3,1,1.5,0,0,0,0,0],"byMode":{"지하철":45.5,"기타":14.5,"차량":15,"일반버스":4.5,"도보":1.5}},{"dest_code":"11680531","dest_name":"서울특별시 강남구 논현2동","dest_lat":37.515240004514055,"dest_lon":127.03621131519049,"total":80.5,"byHour":[2.5,7,0,0,1.5,3,0,10.5,2.5,8,1,2,8.5,8.5,11,3,1.5,0,1.5,1.5,1.5,2,3.5,0],"byMode":{"차량":29,"지하철":25,"기타":21.5,"일반버스":5}},{"dest_code":"11170625","dest_name":"서울특별시 용산구 한강로동","dest_lat":37.529126544010914,"dest_lon":126.96859195571264,"total":80.5,"byHour":[0,1.5,1,0,3,5,0,3,14,3,5.5,6,0,6,5,7,3,9.5,3.5,0.5,4,0,0,0],"byMode":{"차량":16.5,"일반버스":5.5,"지하철":47,"기타":11.5}},{"dest_code":"11680521","dest_name":"서울특별시 강남구 논현1동","dest_lat":37.51187028229869,"dest_lon":127.0264993269889,"total":80,"byHour":[2,1.5,0,3,2,3,3,7.5,8,13,8,3.5,6,2.5,1.5,2.5,2,5,2.5,1.5,0,1,0,1],"byMode":{"차량":32.5,"지하철":33.5,"일반버스":3,"기타":9.5,"도보":1.5}},{"dest_code":"11230705","dest_name":"서울특별시 동대문구 청량리동","dest_lat":37.58884114906816,"dest_lon":127.0452159465382,"total":80,"byHour":[2,1.5,0,0,1.5,1.5,0,1.5,1.5,2,0,8,5.5,3,5.5,0.5,6,7,10,7,6,6.5,1.5,2],"byMode":{"차량":32.5,"기타":17.5,"일반버스":16,"도보":8.5,"지하철":5.5}},{"dest_code":"11710710","dest_name":"서울특별시 송파구 잠실6동","dest_lat":37.51977242300996,"dest_lon":127.09946333893738,"total":76,"byHour":[3.5,2.5,1.5,1.5,1.5,0,1.5,1.5,25.5,5,2,3,3.5,3,1.5,1.5,2,3.5,3,1,0,1,3,4],"byMode":{"지하철":54,"기타":6,"일반버스":1.5,"차량":14,"도보":0.5}},{"dest_code":"11680580","dest_name":"서울특별시 강남구 삼성1동","dest_lat":37.515304490815694,"dest_lon":127.06080229728146,"total":74,"byHour":[4.5,6.5,2,5,0,7.5,5,6,9,3,10.5,3.5,0,2.5,3,1.5,3,0,1.5,0,0,0,0,0],"byMode":{"지하철":56,"차량":12.5,"기타":5.5}},{"dest_code":"11680610","dest_name":"서울특별시 강남구 대치2동","dest_lat":37.50098747815765,"dest_lon":127.065657425748,"total":71,"byHour":[2,1.5,0,6,0,1.5,3,8.5,21,4,2,1.5,2,3.5,6,2,1.5,0,1.5,0,2.5,0,1,0],"byMode":{"기타":3.5,"차량":27,"지하철":39,"광역버스":1.5}},{"dest_code":"11200645","dest_name":"서울특별시 성동구 옥수동","dest_lat":37.5408468250741,"dest_lon":127.02058131269956,"total":70,"byHour":[1.5,0,0.5,0,1.5,0,2,0.5,3,3.5,1.5,3,4,0,8,11,8,1.5,4.5,4.5,4.5,1.5,3,2.5],"byMode":{"차량":9.5,"지하철":11.5,"기타":21.5,"도보":19.5,"일반버스":8}},{"dest_code":"11410585","dest_name":"서울특별시 서대문구 신촌동","dest_lat":37.56407622470931,"dest_lon":126.94157870314548,"total":69.5,"byHour":[2.5,1.5,3.5,2,1,1.5,3,1.5,6,2,7.5,2,11.5,3.5,0,2.5,5,1,3,4.5,1.5,1.5,1.5,0],"byMode":{"지하철":50,"차량":12,"기타":7.5}},{"dest_code":"41630000","dest_name":"경기도 양주시","dest_lat":37.80669130418161,"dest_lon":127.02693543621365,"total":68.5,"byHour":[0,1.5,0,0,0,3,0,6.5,1.5,0,2,0,1.5,1.5,5,7,1.5,11.5,4.5,7,3.5,0,7,4],"byMode":{"차량":51.5,"지하철":15,"일반버스":2}},{"dest_code":"11110690","dest_name":"서울특별시 종로구 창신3동","dest_lat":37.578954002650136,"dest_lon":127.01322200243024,"total":68,"byHour":[3.5,0,0,0,0,0,1.5,0,0,1.5,1.5,3,0,3.5,1.5,15.5,7.5,14.5,0,4.5,2,1.5,5,1.5],"byMode":{"차량":15.5,"도보":33,"기타":16.5,"지하철":1.5,"일반버스":1.5}},{"dest_code":"11230660","dest_name":"서울특별시 동대문구 장안2동","dest_lat":37.575642244821466,"dest_lon":127.07207254160916,"total":68,"byHour":[2,0,1.5,5,0,0,9.5,2.5,1.5,0,0,5.5,1.5,2,7,5.5,6,4.5,4,1.5,4,0,3,1.5],"byMode":{"차량":22.5,"일반버스":5.5,"기타":33.5,"도보":6.5}},{"dest_code":"28110000","dest_name":"인천광역시 중구","dest_lat":37.47141496060051,"dest_lon":126.52395854381086,"total":67,"byHour":[3,1.5,0,2,6,3,1.5,4.5,6,6.5,6,11.5,3,3,6,1.5,2,0,0,0,0,0,0,0],"byMode":{"지하철":29,"차량":38}},{"dest_code":"11680565","dest_name":"서울특별시 강남구 청담동","dest_lat":37.52439200058359,"dest_lon":127.05046431883062,"total":66.5,"byHour":[5,1.5,0,0,4.5,3.5,1,1,4,9.5,0,3.5,0,2,1.5,1.5,7.5,4,4.5,6.5,1,1.5,1.5,1.5],"byMode":{"지하철":17.5,"차량":24.5,"기타":20,"일반버스":3,"도보":1.5}},{"dest_code":"11200650","dest_name":"서울특별시 성동구 성수1가1동","dest_lat":37.54079129639183,"dest_lon":127.0422669149362,"total":63.5,"byHour":[1,0,0,1.5,0,0,1.5,4,5.5,0,2,3.5,3,4.5,9,7.5,3.5,6,3,5,1.5,1.5,0,0],"byMode":{"지하철":27,"기타":14,"차량":9.5,"일반버스":11.5,"도보":1.5}},{"dest_code":"11650530","dest_name":"서울특별시 서초구 서초3동","dest_lat":37.48551989312191,"dest_lon":127.00945377766683,"total":59.5,"byHour":[1.5,6.5,0,0,6.5,0,3,7.5,10,2,7.5,3.5,0,1.5,3,1,0,2,2,1,1,0,0,0],"byMode":{"차량":24.5,"지하철":35}},{"dest_code":"11200660","dest_name":"서울특별시 성동구 성수1가2동","dest_lat":37.54901484449546,"dest_lon":127.0436492176911,"total":59,"byHour":[2.5,0,0,0,0,0,0,1.5,3,2,3.5,5,2,9.5,4.5,0,4.5,9.5,3,0,1,7.5,0,0],"byMode":{"차량":11,"지하철":22,"기타":10.5,"일반버스":14.5,"도보":1}},{"dest_code":"28260000","dest_name":"인천광역시 서구","dest_lat":37.551917632324844,"dest_lon":126.66445682677698,"total":57.5,"byHour":[0,0,0,0,1.5,0,4.5,0,0,3,0,3.5,5,5.5,9.5,7,6,3,1.5,3,1.5,0,3,0],"byMode":{"차량":36,"지하철":21.5}},{"dest_code":"11215710","dest_name":"서울특별시 광진구 화양동","dest_lat":37.54324391553551,"dest_lon":127.07320129238096,"total":57,"byHour":[7,0,0,1.5,0,0,0,1.5,2,2.5,1,0,5.5,3,2.5,7.5,0,3,5,4,2.5,2.5,2.5,3.5],"byMode":{"기타":8.5,"지하철":27,"일반버스":6.5,"차량":8,"도보":7}},{"dest_code":"11230610","dest_name":"서울특별시 동대문구 답십리2동","dest_lat":37.57077961957078,"dest_lon":127.061035791701,"total":57,"byHour":[0,0,2,0,0,1.5,0,0,0,0,3.5,3,2,5,4.5,9.5,7,3.5,2,3,3.5,3,4,0],"byMode":{"차량":17,"기타":30.5,"지하철":4.5,"일반버스":3.5,"도보":1.5}},{"dest_code":"41570000","dest_name":"경기도 김포시","dest_lat":37.67143532627648,"dest_lon":126.65858277486879,"total":56.5,"byHour":[0,0,1.5,0,1.5,4.5,0,6,0,1.5,1.5,2,2,9,3.5,9,1.5,0,4.5,2.5,1.5,3,1.5,0],"byMode":{"차량":35,"지하철":21.5}},{"dest_code":"41285000","dest_name":"경기도 고양시 일산동구","dest_lat":37.67448923708656,"dest_lon":126.78860001158372,"total":56,"byHour":[0,1.5,0,3,0,0,7,0,11,0,2,0,4.5,3,1.5,3.5,4.5,4,1.5,5.5,0,2.5,1,0],"byMode":{"차량":32.5,"지하철":23.5}},{"dest_code":"11170530","dest_name":"서울특별시 용산구 남영동","dest_lat":37.54402977875616,"dest_lon":126.97482841022224,"total":55.5,"byHour":[2,2,1.5,3.5,6,1.5,0,4.5,3.5,3,4.5,1.5,3,3.5,0,1.5,2,4,1.5,2,1.5,0,1.5,1.5],"byMode":{"도보":3.5,"지하철":25,"차량":4.5,"일반버스":14.5,"기타":8}},{"dest_code":"11650531","dest_name":"서울특별시 서초구 서초4동","dest_lat":37.498946997152096,"dest_lon":127.01981424252564,"total":53.5,"byHour":[5,0,0,0,0,0,3.5,7.5,1.5,4.5,5,0,5,5,3,3,4.5,2,1,1.5,0,0,1.5,0],"byMode":{"차량":16,"지하철":22,"기타":14.5,"일반버스":1}},{"dest_code":"41590000","dest_name":"경기도 화성시","dest_lat":37.188721290130374,"dest_lon":126.91692195199953,"total":53.5,"byHour":[3,1.5,0,3,1.5,2,3.5,3.5,2.5,2.5,0,0,5,3,4,2.5,7.5,5,3.5,0,0,0,0,0],"byMode":{"차량":52,"지하철":1.5}},{"dest_code":"11680510","dest_name":"서울특별시 강남구 신사동","dest_lat":37.48582557530138,"dest_lon":126.91862482695264,"total":53.5,"byHour":[0,0,0,0,0,4,3,5,7.5,5.5,2.5,1.5,7,4.5,1.5,2,1.5,6.5,1.5,0,0,0,0,0],"byMode":{"지하철":12.5,"도보":5,"차량":17.5,"기타":18.5}},{"dest_code":"11650581","dest_name":"서울특별시 서초구 반포4동","dest_lat":37.49955079316065,"dest_lon":127.00335326541664,"total":52.5,"byHour":[2,1.5,0,0,0,1.5,0,10.5,7.5,6,0,6.5,0,3,0,3,2,3.5,1,0,1.5,1.5,0,1.5],"byMode":{"지하철":19.5,"차량":25.5,"기타":7.5}},{"dest_code":"11290725","dest_name":"서울특별시 성북구 월곡2동","dest_lat":37.60322817296127,"dest_lon":127.04540282444948,"total":51,"byHour":[2.5,0,0,1.5,0,2,1.5,0,0,1.5,3,0,5,2.5,0,5,2.5,8.5,3.5,2,6,2,2,0],"byMode":{"일반버스":6.5,"기타":9.5,"차량":12.5,"도보":3.5,"지하철":19}},{"dest_code":"11710680","dest_name":"서울특별시 송파구 잠실3동","dest_lat":37.513897495343485,"dest_lon":127.09423948416593,"total":50,"byHour":[1.5,1.5,2.5,1.5,0,0,0,1.5,11,8.5,5,1.5,1.5,1.5,0,0,5,3,3,1.5,0,0,0,0],"byMode":{"지하철":35.5,"차량":11,"기타":1.5,"일반버스":2}},{"dest_code":"11410565","dest_name":"서울특별시 서대문구 충현동","dest_lat":37.563940986482365,"dest_lon":126.95831857068698,"total":49.5,"byHour":[4.5,1,1.5,0,0,0,0,7,15.5,5.5,0,1.5,0,0,4.5,0,0,1,3,1.5,1.5,0,0,1.5],"byMode":{"기타":5.5,"도보":4.5,"지하철":30,"일반버스":6.5,"차량":3}},{"dest_code":"41173000","dest_name":"경기도 안양시 동안구","dest_lat":37.40855170806704,"dest_lon":127.0197827978124,"total":49,"byHour":[1.5,3,0,4.5,0,3,0,6,3.5,0,3.5,0,6.5,1.5,1,4.5,3,3,0,1.5,3,0,0,0],"byMode":{"지하철":27,"차량":22}},{"dest_code":"11200670","dest_name":"서울특별시 성동구 성수2가1동","dest_lat":37.53635415252142,"dest_lon":127.05530799237364,"total":48,"byHour":[0,4.5,0,0,1.5,0,0,6,3,6,3,1.5,3.5,3,3,1,3,2,0,1.5,0,0,0,5.5],"byMode":{"일반버스":9.5,"지하철":15.5,"기타":12.5,"차량":9,"도보":1.5}},{"dest_code":"11200620","dest_name":"서울특별시 성동구 금호4가동","dest_lat":37.545391282678345,"dest_lon":127.02415996011806,"total":47.5,"byHour":[1.5,0,1.5,2,0,1.5,1.5,4.5,4.5,0,3,2,5.5,0,0,0,3,6.5,2,3.5,3.5,0,1.5,0],"byMode":{"일반버스":24,"차량":3,"기타":10,"지하철":3,"도보":7.5}},{"dest_code":"41117000","dest_name":"경기도 수원시 영통구","dest_lat":37.27022329808669,"dest_lon":127.05872436690058,"total":47.5,"byHour":[0,1.5,0,0,0,6,3,7.5,0,1.5,0,0,3,0,1,1.5,2,9,1.5,3,1,4.5,0,1.5],"byMode":{"차량":41,"지하철":6.5}},{"dest_code":"11305555","dest_name":"서울특별시 강북구 송천동","dest_lat":37.61818602699557,"dest_lon":127.02490811255753,"total":47,"byHour":[5,0,1,0,0,0,1.5,0,0,0,2.5,0,0,4.5,2.5,3,11.5,4.5,4.5,3,1,1.5,0,1],"byMode":{"일반버스":8.5,"지하철":20.5,"기타":15,"도보":1.5,"차량":1.5}},{"dest_code":"11350580","dest_name":"서울특별시 노원구 월계3동","dest_lat":37.62445820424424,"dest_lon":127.06482891187626,"total":46.5,"byHour":[1.5,0,0,0,0,0,0,0,1.5,1,0,1.5,1.5,3.5,3.5,4.5,6.5,6,3.5,1.5,1.5,3,3,3],"byMode":{"지하철":20,"기타":11,"차량":12,"일반버스":3.5}},{"dest_code":"11305635","dest_name":"서울특별시 강북구 수유3동","dest_lat":37.64050078144628,"dest_lon":127.02344785512156,"total":46,"byHour":[6.5,1.5,1.5,0,0,3,0,2.5,0,3,1.5,1.5,0,4.5,5,0,0,3,1.5,0,3,5.5,2.5,0],"byMode":{"차량":19,"지하철":22.5,"기타":4.5}},{"dest_code":"11200580","dest_name":"서울특별시 성동구 응봉동","dest_lat":37.55088018231112,"dest_lon":127.03372254688416,"total":46,"byHour":[0,0,0,0,0,0,2,1.5,1.5,0,1.5,3,3.5,2,3,2,4.5,7,4,2,5,1.5,2,0],"byMode":{"도보":9.5,"기타":9,"일반버스":17.5,"지하철":1.5,"차량":8.5}},{"dest_code":"11140680","dest_name":"서울특별시 중구 중림동","dest_lat":37.55734682440728,"dest_lon":126.96603667235034,"total":45.5,"byHour":[3.5,0,0,1.5,1.5,1.5,0,2,1.5,0,0,3.5,1.5,3,4.5,7,1.5,4.5,4.5,0,0,2,0,2],"byMode":{"지하철":22.5,"도보":3,"기타":8.5,"차량":5.5,"일반버스":6}},{"dest_code":"11260590","dest_name":"서울특별시 중랑구 상봉2동","dest_lat":37.594321335650726,"dest_lon":127.08401526954532,"total":45,"byHour":[0,3,0,1.5,1.5,0,0,0,1.5,3,2,0,0,5,3,6,2.5,7.5,1.5,1.5,1.5,0,4,0],"byMode":{"일반버스":12,"차량":17,"지하철":4.5,"기타":11.5}},{"dest_code":"11680630","dest_name":"서울특별시 강남구 대치4동","dest_lat":37.501565333685576,"dest_lon":127.05475390419,"total":45,"byHour":[1.5,1.5,0,2,0,3,6.5,3.5,5.5,9,0,0,0,1.5,0,0.5,0,0,3,2,2,3.5,0,0],"byMode":{"지하철":36,"차량":7.5,"기타":1.5}},{"dest_code":"11545510","dest_name":"서울특별시 금천구 가산동","dest_lat":37.47666082069989,"dest_lon":126.88379132868764,"total":45,"byHour":[0,0,0,1.5,0,3,3,7.5,10,3,4,1.5,1.5,0,1.5,3,0,2.5,1.5,0,1.5,0,0,0],"byMode":{"지하철":30.5,"차량":14.5}},{"dest_code":"41610000","dest_name":"경기도 광주시","dest_lat":37.40548200343057,"dest_lon":127.07867581047574,"total":44.5,"byHour":[1.5,1.5,1.5,0,1.5,0,4.5,3,3,1.5,3,0,0,1,4.5,4.5,7.5,2,0,1.5,1.5,1,0,0],"byMode":{"차량":39,"지하철":4,"일반버스":1.5}},{"dest_code":"41480000","dest_name":"경기도 파주시","dest_lat":37.83456901910601,"dest_lon":126.81843235288909,"total":44,"byHour":[3,1.5,0,0,1.5,2.5,3,1.5,3.5,1.5,2.5,1,1.5,1.5,3,3,3,4.5,0,5,1,0,0,0],"byMode":{"차량":34,"지하철":8.5,"기타":1.5}},{"dest_code":"11290715","dest_name":"서울특별시 성북구 월곡1동","dest_lat":37.60783377708155,"dest_lon":127.03655107111472,"total":44,"byHour":[0,0,0,5,2,0,0,4,3,1.5,1.5,1.5,5.5,2,0,0,1.5,2,1.5,3.5,1.5,2,4.5,1.5],"byMode":{"기타":18.5,"일반버스":7,"차량":12,"지하철":5,"도보":1.5}},{"dest_code":"28237000","dest_name":"인천광역시 부평구","dest_lat":37.49675976287217,"dest_lon":126.72142590462538,"total":43.5,"byHour":[1.5,1.5,0,0,0,2,1.5,3,0,1.5,1.5,1.5,3.5,3.5,1.5,8,6.5,0,0,1.5,5,0,0,0],"byMode":{"지하철":22,"차량":21.5}},{"dest_code":"11650520","dest_name":"서울특별시 서초구 서초2동","dest_lat":37.48882759709113,"dest_lon":127.0279086854325,"total":42,"byHour":[0.5,0,0,0,0,4.5,1.5,4,5,4,4,1.5,0,4,0,2,1.5,1.5,0,3.5,0,0,4.5,0],"byMode":{"지하철":20,"차량":16,"기타":6}},{"dest_code":"11350595","dest_name":"서울특별시 노원구 공릉1동","dest_lat":37.6242134099112,"dest_lon":127.07255426284723,"total":41.5,"byHour":[0,0,1.5,0,0,0,0,0,3,4,1,1.5,0,4.5,1.5,6.5,6.5,3,3,0,0,2.5,0,3],"byMode":{"지하철":15,"차량":19.5,"일반버스":4,"기타":3}},{"dest_code":"11290630","dest_name":"서울특별시 성북구 정릉2동","dest_lat":37.60367473957296,"dest_lon":127.00849918964212,"total":40.5,"byHour":[0,0,0,0,0,0,1.5,0,0,0,0,2.5,3,3.5,2.5,1.5,13.5,1.5,4,3.5,1.5,1.5,0.5,0],"byMode":{"기타":21.5,"차량":11,"일반버스":1.5,"지하철":3,"도보":3.5}},{"dest_code":"11215740","dest_name":"서울특별시 광진구 중곡1동","dest_lat":37.56209979326759,"dest_lon":127.07768465357913,"total":40.5,"byHour":[0,0,0,0,0,0,0,1.5,1.5,3.5,3,0,1,2,3,1.5,10,2,1.5,4,2,1,3,0],"byMode":{"기타":14.5,"지하철":9.5,"차량":10,"일반버스":5.5,"도보":1}},{"dest_code":"11680590","dest_name":"서울특별시 강남구 삼성2동","dest_lat":37.51185750889962,"dest_lon":127.04877731981904,"total":40,"byHour":[3,0,1.5,0,1,1.5,3.5,8.5,6,3.5,1.5,1.5,0,4.5,0,0,0,1,0,0,1.5,1.5,0,0],"byMode":{"지하철":33,"차량":4.5,"기타":2.5}},{"dest_code":"11215840","dest_name":"서울특별시 광진구 자양3동","dest_lat":37.53136730001344,"dest_lon":127.07101776119092,"total":40,"byHour":[1.5,0,0,3.5,1.5,0,0,0,1,1.5,1,1.5,0,5.5,1.5,3,5.5,5,4,1,1.5,0,1.5,0],"byMode":{"일반버스":5,"차량":14.5,"지하철":13,"기타":6,"도보":1.5}},{"dest_code":"11170650","dest_name":"서울특별시 용산구 이태원1동","dest_lat":37.53336138104397,"dest_lon":126.9932419402934,"total":39.5,"byHour":[1.5,3,0,0,0,0,2,1.5,4,3,1.5,0,2.5,0,0,1.5,3,1.5,8.5,0,0,1.5,0,4.5],"byMode":{"차량":12,"일반버스":6,"지하철":15.5,"도보":3,"기타":3}},{"dest_code":"11215847","dest_name":"서울특별시 광진구 자양4동","dest_lat":37.533751301916645,"dest_lon":127.06362060389492,"total":39.5,"byHour":[4.5,1.5,3,0,0,0,0,0,0,0,1.5,1.5,3,1.5,1.5,1.5,2.5,1.5,9.5,0,1.5,3.5,0,1.5],"byMode":{"차량":9.5,"지하철":20,"도보":4,"기타":6}},{"dest_code":"41287000","dest_name":"경기도 고양시 일산서구","dest_lat":37.68371227665847,"dest_lon":126.73667598673386,"total":39,"byHour":[0,1.5,1.5,4.5,0,0,1.5,0,1.5,1.5,0,0,0,3,0,6,3,3,3,3,3,1.5,1.5,0],"byMode":{"차량":33,"지하철":6}},{"dest_code":"41463000","dest_name":"경기도 용인시 기흥구","dest_lat":37.27016138149834,"dest_lon":127.12174222261396,"total":39,"byHour":[0,1.5,0,1,0,1,2,1.5,0,1.5,0,1.5,3.5,1,1,9,1.5,6,3,2,1,0,1,0],"byMode":{"차량":27,"지하철":12}},{"dest_code":"11215820","dest_name":"서울특별시 광진구 자양1동","dest_lat":37.53559062377607,"dest_lon":127.08045420792878,"total":38.5,"byHour":[5,1.5,1.5,0,0,0,0,5.5,3,5,0,3,4,2.5,3,0,1.5,0,1.5,0,1.5,0,0,0],"byMode":{"일반버스":6,"지하철":21.5,"차량":8,"기타":3}},{"dest_code":"11290650","dest_name":"서울특별시 성북구 정릉4동","dest_lat":37.62394777143803,"dest_lon":126.99489715361848,"total":38,"byHour":[0,0,0,1.5,0,0,0,0,0,0,1.5,0,1.5,2,1.5,1,1.5,1.5,15,1.5,5.5,0,2,2],"byMode":{"기타":11.5,"지하철":20,"일반버스":3.5,"차량":3}},{"dest_code":"41131000","dest_name":"경기도 성남시 수정구","dest_lat":37.37105411909495,"dest_lon":127.08463771782306,"total":37.5,"byHour":[0,1.5,2.5,3.5,6,5,1.5,1.5,0,0,1.5,0,2,0,0,3,1,1,0,2,0,3,1,1.5],"byMode":{"차량":30,"지하철":7.5}},{"dest_code":"11200790","dest_name":"서울특별시 성동구 용답동","dest_lat":37.55891652518783,"dest_lon":127.0574723637532,"total":37.5,"byHour":[1.5,0,2,0,0,0,1.5,0,0,1.5,0,3.5,0,1.5,1.5,2.5,7.5,1,3,4.5,0,4.5,1.5,0],"byMode":{"도보":6.5,"차량":9,"기타":10.5,"일반버스":7.5,"지하철":4}},{"dest_code":"11350600","dest_name":"서울특별시 노원구 공릉2동","dest_lat":37.63162259238021,"dest_lon":127.0943219666906,"total":37.5,"byHour":[1.5,0,0,1.5,0,1,3.5,7.5,0,0,1.5,0,1.5,3.5,1.5,0,3,4,1.5,0,1.5,3,0,1.5],"byMode":{"기타":5,"차량":23,"지하철":6,"일반버스":3.5}},{"dest_code":"11560535","dest_name":"서울특별시 영등포구 영등포동","dest_lat":37.5215927643813,"dest_lon":126.90759905216817,"total":37.5,"byHour":[3.5,0,0,1,0,1.5,3.5,4,2,3,0,1.5,7.5,0,0,4,3,1,2,0,0,0,0,0],"byMode":{"차량":8,"지하철":29.5}},{"dest_code":"11230570","dest_name":"서울특별시 동대문구 전농2동","dest_lat":37.580697660564944,"dest_lon":127.06111802845244,"total":36.5,"byHour":[0,1.5,0,0,0,1.5,1,0,2,2,0,0,5,0,3,3,3.5,5,6.5,1,0,0,1.5,0],"byMode":{"기타":12.5,"일반버스":6,"차량":16.5,"도보":1.5}},{"dest_code":"11290685","dest_name":"서울특별시 성북구 길음2동","dest_lat":37.60828694721575,"dest_lon":127.0271636132196,"total":35,"byHour":[0,0,0,0,1.5,0,0,0,0,0,0,0,6.5,3.5,1.5,0,2.5,4.5,7,0,0,3,5,0],"byMode":{"일반버스":4,"도보":1.5,"지하철":6,"차량":10,"기타":13.5}},{"dest_code":"11215860","dest_name":"서울특별시 광진구 구의2동","dest_lat":37.55110372309933,"dest_lon":127.09485666743475,"total":35,"byHour":[2.5,0,0,0,0,1.5,1,1,0,0,3.5,1.5,0,1.5,2,2.5,3,3,6.5,3,0,0,2.5,0],"byMode":{"기타":7.5,"차량":16.5,"지하철":9.5,"일반버스":1.5}},{"dest_code":"11215850","dest_name":"서울특별시 광진구 구의1동","dest_lat":37.54163206971925,"dest_lon":127.085718743501,"total":35,"byHour":[4.5,0,0,0,0,0,0,0,0,5,0,2,0,0,0,2,1.5,7.5,1.5,0,3,5,1.5,1.5],"byMode":{"일반버스":6,"차량":8,"지하철":16,"도보":2,"기타":3}},{"dest_code":"11305545","dest_name":"서울특별시 강북구 송중동","dest_lat":37.61767232059256,"dest_lon":127.03298289333247,"total":35,"byHour":[1.5,0,0,0,0,0,0,0,0,0,0,0,0,1.5,1,0,7,8,7,3,1.5,1.5,1.5,1.5],"byMode":{"차량":7,"지하철":13,"기타":13.5,"도보":1.5}},{"dest_code":"11215730","dest_name":"서울특별시 광진구 군자동","dest_lat":37.55304249812136,"dest_lon":127.0737075306132,"total":34.5,"byHour":[0,2,0,0,0,0,1,1.5,7.5,1.5,3,0,3,0,1,0,1.5,1.5,6.5,1.5,1,0,2,0],"byMode":{"기타":12,"일반버스":6.5,"지하철":5.5,"차량":9,"도보":1.5}},{"dest_code":"11440680","dest_name":"서울특별시 마포구 합정동","dest_lat":37.54696313264598,"dest_lon":126.90895734464794,"total":34.5,"byHour":[0,0,0,0,0,0,3,1.5,11.5,4.5,0,1.5,0,1.5,3,3.5,1.5,0,1,1,1,0,0,0],"byMode":{"지하철":29.5,"기타":2,"차량":3}},{"dest_code":"11680650","dest_name":"서울특별시 강남구 역삼2동","dest_lat":37.49848371075801,"dest_lon":127.04489561333814,"total":34,"byHour":[1.5,0,0,0,0,0,0,4,0,7.5,0,0,2.5,2,1.5,1.5,1.5,1.5,1.5,4.5,2,1.5,1,0],"byMode":{"지하철":14.5,"기타":5.5,"차량":8.5,"일반버스":3.5,"도보":2}},{"dest_code":"11290810","dest_name":"서울특별시 성북구 석관동","dest_lat":37.6082777586919,"dest_lon":127.06135785311592,"total":33.5,"byHour":[0,0,2,0,0,0,0,0,0,0,5,2,4,3,0,5,3,1,0,0,3.5,3.5,0,1.5],"byMode":{"일반버스":4,"지하철":19,"기타":6.5,"차량":4}},{"dest_code":"11110600","dest_name":"서울특별시 종로구 가회동","dest_lat":37.58251427458714,"dest_lon":126.986547119483,"total":33,"byHour":[1.5,3,0,1.5,1.5,0,3,5.5,1.5,0,1.5,0,0,0,1,3,4.5,0,0,3,1,0,1.5,0],"byMode":{"지하철":13,"차량":4.5,"기타":11,"도보":3,"일반버스":1.5}},{"dest_code":"11530540","dest_name":"서울특별시 구로구 구로3동","dest_lat":37.48487331436084,"dest_lon":126.89491415645765,"total":33,"byHour":[0,2,0,0,0,1.5,0,3,8.5,1.5,1.5,1.5,0.5,0,0,2,0,1.5,2.5,2,0,0,2,3],"byMode":{"지하철":25,"차량":6,"기타":2}},{"dest_code":"11230710","dest_name":"서울특별시 동대문구 회기동","dest_lat":37.59371693617452,"dest_lon":127.05151154165344,"total":33,"byHour":[0,0,0,0,0,0,0,0,6,1.5,1.5,1.5,1.5,4.5,0,1.5,1,3,0,0,1.5,5,3,1.5],"byMode":{"일반버스":9,"기타":12,"차량":5.5,"도보":3,"지하철":3.5}},{"dest_code":"11710562","dest_name":"서울특별시 송파구 방이2동","dest_lat":37.51324706836732,"dest_lon":127.113892442997,"total":32.5,"byHour":[0,0,0,0,0,1.5,1.5,7,4.5,1.5,0,0,0,4.5,4,0,3.5,0,2.5,0,0,2,0,0],"byMode":{"지하철":19,"차량":11,"기타":1.5,"일반버스":1}},{"dest_code":"11650510","dest_name":"서울특별시 서초구 서초1동","dest_lat":37.48693597480006,"dest_lon":127.0201008696518,"total":32.5,"byHour":[0,1.5,1.5,0,0,0,6.5,9,2,0,0,1,0,1.5,1.5,1.5,3.5,0,0,1.5,0,0,1.5,0],"byMode":{"차량":10.5,"지하철":22}},{"dest_code":"11260655","dest_name":"서울특별시 중랑구 망우본동","dest_lat":37.60213706842387,"dest_lon":127.10744223116808,"total":32,"byHour":[0,1,0,0,0,0,0,1.5,0,0,0,3.5,4.5,1.5,4.5,3,0,4,2.5,4.5,0,1.5,0,0],"byMode":{"기타":7,"지하철":6,"차량":15,"일반버스":4}},{"dest_code":"11305625","dest_name":"서울특별시 강북구 수유2동","dest_lat":37.645421219695294,"dest_lon":127.01936445955646,"total":32,"byHour":[0,0,1.5,3,1.5,0,0,0,0,3,0,1.5,1.5,0,0,3.5,0,3.5,7,1.5,1.5,1.5,0,1.5],"byMode":{"차량":10,"지하철":16,"기타":6}},{"dest_code":"11305575","dest_name":"서울특별시 강북구 삼각산동","dest_lat":37.61715932760559,"dest_lon":127.0165245795677,"total":32,"byHour":[0,0,0,0,0,0,1.5,0,0,0,0,0,0,0,2.5,4.5,3,4.5,9.5,0,3,3.5,0,0],"byMode":{"차량":11,"지하철":15,"기타":6}},{"dest_code":"41133000","dest_name":"경기도 성남시 중원구","dest_lat":37.4401898442391,"dest_lon":127.15643515376328,"total":31.5,"byHour":[1,0,3,0,0,0,1.5,1.5,1.5,3,2,2,0,1,2.5,0,4.5,3.5,3.5,0,1,0,0,0],"byMode":{"차량":23,"지하철":8.5}},{"dest_code":"11500603","dest_name":"서울특별시 강서구 가양1동","dest_lat":37.57187746731984,"dest_lon":126.83490847348328,"total":31.5,"byHour":[0,0,0,0,0,2.5,6.5,5.5,2,0,0,2,0,2.5,1.5,1.5,1.5,3.5,2.5,0,0,0,0,0],"byMode":{"차량":15,"지하철":16.5}},{"dest_code":"11215870","dest_name":"서울특별시 광진구 구의3동","dest_lat":37.53695822874183,"dest_lon":127.0942221885227,"total":31,"byHour":[1.5,0,0,0,0,0,0,7.5,4.5,1.5,0,0,0,2.5,3.5,3,1.5,0,2.5,3,0,0,0,0],"byMode":{"지하철":11,"기타":5.5,"차량":12,"일반버스":2.5}},{"dest_code":"11260520","dest_name":"서울특별시 중랑구 면목2동","dest_lat":37.58928761522088,"dest_lon":127.0778399396376,"total":31,"byHour":[0,1,0,0,0,0,0,0,0,0,1.5,0,3,1.5,1.5,1.5,4,7.5,3,0,4.5,0,0,2],"byMode":{"기타":12.5,"일반버스":8.5,"지하철":6.5,"차량":3.5}},{"dest_code":"28177000","dest_name":"인천광역시 미추홀구","dest_lat":37.454993999101355,"dest_lon":126.6669174900286,"total":31,"byHour":[0,0,0,0,0,0,0,2,1.5,0,2,4.5,0,4.5,0,0,0,4,2,5.5,3,2,0,0],"byMode":{"차량":15,"지하철":16}},{"dest_code":"11260565","dest_name":"서울특별시 중랑구 면목본동","dest_lat":37.58831624621149,"dest_lon":127.08937929154322,"total":30.5,"byHour":[1.5,0,0,1.5,1.5,0,0,0,0,0,3.5,0,0,0,3.5,2,3.5,5.5,3.5,1.5,0,0,3,0],"byMode":{"일반버스":8.5,"차량":10.5,"기타":11.5}},{"dest_code":"41210000","dest_name":"경기도 광명시","dest_lat":37.45442116993489,"dest_lon":126.86309350608454,"total":30,"byHour":[3,0,1.5,0,0,1.5,1.5,0,0,0,1.5,0,1,7.5,2.5,5,0,0,3.5,0,0,1.5,0,0],"byMode":{"차량":22,"지하철":8}},{"dest_code":"11650540","dest_name":"서울특별시 서초구 잠원동","dest_lat":37.517079012399016,"dest_lon":127.0127367711114,"total":30,"byHour":[0,0,0,0,0,2,0,0,1.5,2.5,0,4.5,3,1,0,7,1.5,1.5,1.5,0,2,1,1,0],"byMode":{"기타":4.5,"지하철":7,"차량":13.5,"일반버스":5}},{"dest_code":"11740620","dest_name":"서울특별시 강동구 천호3동","dest_lat":37.53969320294497,"dest_lon":127.13330927913836,"total":29.5,"byHour":[2,2,0,0,0,1.5,0,7.5,3.5,3.5,0,1.5,0,1,1,1.5,0,0,3,0,1.5,0,0,0],"byMode":{"기타":2.5,"일반버스":2.5,"지하철":12,"차량":12.5}},{"dest_code":"41271000","dest_name":"경기도 안산시 상록구","dest_lat":37.3213755300157,"dest_lon":126.86906365441195,"total":29.5,"byHour":[0.5,0,0,1.5,0,0,1.5,0,3.5,2,0,0,0,3.5,3.5,0,4,3.5,4,2,0,0,0,0],"byMode":{"차량":17,"지하철":12.5}},{"dest_code":"11305535","dest_name":"서울특별시 강북구 미아동","dest_lat":37.62864302072378,"dest_lon":127.02638883236092,"total":29.5,"byHour":[0,0,2,0,0,1.5,1.5,2,0,0,2,1.5,1.5,1.5,3.5,3,0,1.5,0,2,3,1.5,1.5,0],"byMode":{"지하철":11.5,"기타":10,"차량":6.5,"일반버스":1.5}},{"dest_code":"11260600","dest_name":"서울특별시 중랑구 중화1동","dest_lat":37.60259303945304,"dest_lon":127.08307073246408,"total":29,"byHour":[1.5,1.5,0,3,0,0,0,3,0,0,1.5,0,3,4.5,0,0,1,1.5,4,1.5,0,1.5,1.5,0],"byMode":{"일반버스":11.5,"차량":6,"기타":8.5,"지하철":3}},{"dest_code":"11170510","dest_name":"서울특별시 용산구 후암동","dest_lat":37.54990604425638,"dest_lon":126.9806148822003,"total":29,"byHour":[0,0,0,0,1.5,1.5,1.5,0,0,3,1,1.5,0,0,1.5,2,0,4.5,4.5,1.5,0,3,2,0],"byMode":{"지하철":9,"기타":6,"차량":7,"일반버스":4,"도보":3}},{"dest_code":"11650580","dest_name":"서울특별시 서초구 반포3동","dest_lat":37.51232734794036,"dest_lon":127.00397631455913,"total":29,"byHour":[0,2,1,0,2.5,0,3.5,0,6,1.5,2,0,1.5,0,0,0,1.5,0,6,1.5,0,0,0,0],"byMode":{"지하철":6.5,"기타":10,"차량":12.5}},{"dest_code":"11350695","dest_name":"서울특별시 노원구 상계6.7동","dest_lat":37.64866170644932,"dest_lon":127.06010082071658,"total":28.5,"byHour":[2,0,0,0,1.5,0,0,0.5,0,0,0,1.5,1.5,4,0,0,1.5,4.5,0,3,3,2.5,3,0],"byMode":{"차량":13.5,"지하철":12,"일반버스":1.5,"기타":1.5}},{"dest_code":"41171000","dest_name":"경기도 안양시 만안구","dest_lat":37.403367715966176,"dest_lon":126.91261602108659,"total":28.5,"byHour":[3,3,0,0,0,0,0,0,0,0,3.5,0,1.5,0,2,1.5,0,1.5,0,4,2,6.5,0,0],"byMode":{"차량":21,"지하철":7.5}},{"dest_code":"11305595","dest_name":"서울특별시 강북구 번1동","dest_lat":37.63755655490044,"dest_lon":127.0306106449884,"total":28.5,"byHour":[1.5,0,0,0,0,4,0,3,0,0,1.5,0,0,0,1.5,0,0,3,6,0,2.5,2.5,1.5,1.5],"byMode":{"지하철":17.5,"차량":8.5,"기타":2.5}},{"dest_code":"11170700","dest_name":"서울특별시 용산구 보광동","dest_lat":37.52688649842343,"dest_lon":127.00090084800838,"total":28,"byHour":[1.5,2.5,1.5,0,0,0,0,0,0,0,0.5,0,1,0,0,0,0,7,0,4.5,4,2.5,1.5,1.5],"byMode":{"차량":13.5,"기타":8,"도보":1,"일반버스":1.5,"지하철":4}},{"dest_code":"11440655","dest_name":"서울특별시 마포구 서강동","dest_lat":37.546730302214776,"dest_lon":126.92603119134738,"total":28,"byHour":[0,0,0,0,0,0,1.5,1.5,7.5,1.5,0,0,1.5,0,5.5,1.5,0,1.5,3,1.5,1.5,0,0,0],"byMode":{"지하철":23.5,"차량":4.5}},{"dest_code":"41465000","dest_name":"경기도 용인시 수지구","dest_lat":37.326248248516436,"dest_lon":127.0934288338114,"total":28,"byHour":[1.5,0,0,0,0,0,5,3.5,0,1.5,1,1.5,0,0,0,2.5,2.5,1,1.5,1.5,3.5,1.5,0,0],"byMode":{"지하철":9.5,"차량":18.5}},{"dest_code":"11230720","dest_name":"서울특별시 동대문구 휘경1동","dest_lat":37.59195524614219,"dest_lon":127.062600743137,"total":27.5,"byHour":[3,0,0,1.5,0,2,0,0,0,0,0,1,2,0,0,0,3,5,3,0,3.5,3.5,0,0],"byMode":{"기타":10.5,"도보":3,"일반버스":3,"차량":1,"지하철":10}},{"dest_code":"11290590","dest_name":"서울특별시 성북구 돈암2동","dest_lat":37.59708178772487,"dest_lon":127.0116005523684,"total":27.5,"byHour":[0,0,0,0,0,0,0,1.5,0,0,1,0,1.5,1,3,1.5,8,4.5,2,0.5,1.5,0,0,1.5],"byMode":{"차량":7,"도보":1.5,"기타":14.5,"일반버스":1.5,"지하철":3}},{"dest_code":"11110515","dest_name":"서울특별시 종로구 청운효자동","dest_lat":37.58441429722301,"dest_lon":126.96991655860823,"total":27,"byHour":[1,0,3,1.5,0,3.5,3.5,0,1.5,4,0,0,0,1,0,0,1,1,2.5,0,1,0,2.5,0],"byMode":{"차량":8.5,"일반버스":4,"지하철":4,"기타":10.5}},{"dest_code":"11560720","dest_name":"서울특별시 영등포구 대림3동","dest_lat":37.50000124220351,"dest_lon":126.8971418249189,"total":27,"byHour":[1.5,0,0,3,0,0,0,0,2,3,1,3,1.5,1.5,1.5,0,0,3,4.5,1.5,0,0,0,0],"byMode":{"차량":16.5,"지하철":10.5}},{"dest_code":"11440565","dest_name":"서울특별시 마포구 공덕동","dest_lat":37.54931836441306,"dest_lon":126.9579452158936,"total":27,"byHour":[4,0,0,1.5,1.5,0,0,3,3,0,0,3,0,0,0,3,2,0,1.5,0,3,0,1.5,0],"byMode":{"기타":6,"지하철":10.5,"도보":1.5,"차량":6,"일반버스":3}},{"dest_code":"11215780","dest_name":"서울특별시 광진구 능동","dest_lat":37.55059049183368,"dest_lon":127.08179050874378,"total":27,"byHour":[1,0,0,0,3.5,1.5,0,5,3,0,3.5,0,0,1.5,0,0,0,1.5,1,0,3.5,0,0,2],"byMode":{"차량":13.5,"지하철":6.5,"일반버스":3.5,"기타":3.5}},{"dest_code":"11650651","dest_name":"서울특별시 서초구 양재1동","dest_lat":37.46950069861567,"dest_lon":127.0224963501131,"total":27,"byHour":[0,0.5,0,0,0,1.5,0.5,5,4.5,1.5,0,0,0,3,2.5,1.5,1,2.5,0,0,3,0,0,0],"byMode":{"기타":3.5,"지하철":10,"차량":12,"도보":1.5}},{"dest_code":"11230740","dest_name":"서울특별시 동대문구 이문1동","dest_lat":37.59736775775229,"dest_lon":127.0604464534256,"total":27,"byHour":[0,0,0,0,0,0,0,1.5,2,3,5.5,6.5,0,1.5,1.5,1.5,2.5,0,0,0,0,1.5,0,0],"byMode":{"일반버스":9,"기타":6,"차량":4.5,"지하철":7.5}},{"dest_code":"28185000","dest_name":"인천광역시 연수구","dest_lat":37.397762106912225,"dest_lon":126.65831312600358,"total":27,"byHour":[0,0,0,0,0,0,0,0,0,0,2,0,3,1.5,1,0,0,5.5,8,0,0,1.5,4.5,0],"byMode":{"지하철":13.5,"차량":13.5}},{"dest_code":"11260620","dest_name":"서울특별시 중랑구 묵1동","dest_lat":37.61372612547999,"dest_lon":127.08253301501492,"total":27,"byHour":[0,0,2,0,1.5,0,0,0,0,0.5,1.5,1.5,1.5,0,0,0.5,0,2,1.5,3.5,2,7,2,0],"byMode":{"기타":5,"지하철":14.5,"차량":5.5,"일반버스":2}},{"dest_code":"28245000","dest_name":"인천광역시 계양구","dest_lat":37.550593316649156,"dest_lon":126.73155771181368,"total":26,"byHour":[0,2,0.5,0,0,0,3,0,1.5,2,0,0,1.5,0,2,3,1,5,0,0,1.5,0,1.5,1.5],"byMode":{"차량":19.5,"지하철":6.5}},{"dest_code":"11290660","dest_name":"서울특별시 성북구 길음1동","dest_lat":37.608223678293655,"dest_lon":127.01974268027502,"total":26,"byHour":[0,0,1.5,0,0,1.5,0,0,1,0,0,0,1.5,0,1.5,0,0,1.5,1.5,0,7.5,2.5,6,0],"byMode":{"차량":9.5,"기타":9,"도보":4,"지하철":3.5}},{"dest_code":"11215810","dest_name":"서울특별시 광진구 광장동","dest_lat":37.5478230736146,"dest_lon":127.10471379457802,"total":26,"byHour":[2.5,0,0,0,0,3,0,1.5,0,0,0,5.5,3,3,0,1,0,0,1,0,1.5,2.5,0,1.5],"byMode":{"차량":10,"지하철":12,"일반버스":1,"기타":3}},{"dest_code":"11740600","dest_name":"서울특별시 강동구 천호1동","dest_lat":37.5463252427156,"dest_lon":127.13854822874764,"total":26,"byHour":[0,0,0,0,0,0,0,0,1.5,0,0,0,1.5,1.5,3,1.5,1.5,4.5,1.5,3,2.5,2.5,1.5,0],"byMode":{"차량":9,"지하철":17}},{"dest_code":"11170555","dest_name":"서울특별시 용산구 청파동","dest_lat":37.54758189433549,"dest_lon":126.96684283775078,"total":25.5,"byHour":[1,0,1,0,0,0,0,0,6,1.5,0,1.5,0,4,0,0,0,4.5,1.5,0,1.5,3,0,0],"byMode":{"차량":4,"지하철":9,"일반버스":5,"기타":7.5}},{"dest_code":"11590620","dest_name":"서울특별시 동작구 사당1동","dest_lat":37.47978703194504,"dest_lon":126.97751804689942,"total":25.5,"byHour":[0,0,0,1.5,0,1.5,1.5,3,5.5,0,0,0,3,0,2,0,1.5,1.5,3,1.5,0,0,0,0],"byMode":{"지하철":22.5,"차량":1.5,"기타":1.5}},{"dest_code":"11410555","dest_name":"서울특별시 서대문구 북아현동","dest_lat":37.55929069227892,"dest_lon":126.95501974771388,"total":25.5,"byHour":[0,0,0,0,0,0,0,0,0,1.5,0,0,0,1.5,3.5,0,0,3.5,0,10.5,1.5,2,0,1.5],"byMode":{"기타":5,"일반버스":1.5,"지하철":12,"차량":7}},{"dest_code":"11260680","dest_name":"서울특별시 중랑구 신내1동","dest_lat":37.61316286799043,"dest_lon":127.1040401674988,"total":25,"byHour":[0,0,0,0,0,4,0,2,1.5,0,1.5,0,2,0,0,3,0,6.5,1.5,0,1.5,1.5,0,0],"byMode":{"기타":10,"차량":8,"지하철":5,"일반버스":2}},{"dest_code":"11260550","dest_name":"서울특별시 중랑구 면목5동","dest_lat":37.58251779356648,"dest_lon":127.07887986158896,"total":25,"byHour":[2,0,0,0,0,0,0,4,1.5,2,0,0,0,0,0,0,5.5,0,7,1.5,0,1.5,0,0],"byMode":{"일반버스":9,"차량":10.5,"지하철":5.5}},{"dest_code":"41500000","dest_name":"경기도 이천시","dest_lat":37.200613234051986,"dest_lon":127.48362365755307,"total":25,"byHour":[0,0,0,0,0,1.5,2,0,0,0,1.5,3.5,2,5,0,0,1.5,0,1.5,5,0,1.5,0,0],"byMode":{"차량":23,"지하철":2}},{"dest_code":"11710620","dest_name":"서울특별시 송파구 가락본동","dest_lat":37.49701933499789,"dest_lon":127.12165359074712,"total":24.5,"byHour":[1.5,0,0,0,0,0,0,4.5,0,0,0,3,1.5,3,0,2,1.5,3,0,1.5,1.5,0,1.5,0],"byMode":{"차량":16,"지하철":8.5}},{"dest_code":"11350625","dest_name":"서울특별시 노원구 중계2.3동","dest_lat":37.64343981053121,"dest_lon":127.06589372902808,"total":24.5,"byHour":[1.5,0,0,0,0,0,1.5,0,2,0,0,1.5,0,3.5,0,1.5,0,3,3.5,0,0,6.5,0,0],"byMode":{"차량":13.5,"지하철":9,"일반버스":2}},{"dest_code":"11350560","dest_name":"서울특별시 노원구 월계1동","dest_lat":37.62192632316921,"dest_lon":127.05833892768436,"total":24.5,"byHour":[2.5,0,1.5,0,0,1,0,0,0,3,0,1.5,3,1,0,0,0,1.5,2,3.5,0,1,0,3],"byMode":{"지하철":16.5,"일반버스":2.5,"차량":5.5}},{"dest_code":"11290760","dest_name":"서울특별시 성북구 장위1동","dest_lat":37.61509907407851,"dest_lon":127.04465522374312,"total":24.5,"byHour":[0,0,2,0,0,0,3,0,0,0,1.5,0,2.5,0,1.5,2,3,3.5,1.5,3,0,0,1,0],"byMode":{"기타":7,"차량":14,"지하철":1.5,"일반버스":2}},{"dest_code":"11215770","dest_name":"서울특별시 광진구 중곡4동","dest_lat":37.56387396940858,"dest_lon":127.09449412530624,"total":24.5,"byHour":[0,0,0,0,0,0,0,0,0,0,0,0,3,1.5,1.5,2,4.5,4.5,4.5,1,1,1,0,0],"byMode":{"차량":8,"기타":7.5,"지하철":7,"일반버스":2}},{"dest_code":"11290640","dest_name":"서울특별시 성북구 정릉3동","dest_lat":37.61209700278061,"dest_lon":126.99458959683868,"total":24,"byHour":[1.5,3,0,0,0,0,0,0,0,0,1,4,0,1.5,1.5,2.5,0,0,4.5,0,0,3,1.5,0],"byMode":{"기타":5.5,"차량":12,"지하철":4,"일반버스":2.5}},{"dest_code":"11350612","dest_name":"서울특별시 노원구 하계2동","dest_lat":37.63504657876006,"dest_lon":127.06496551885496,"total":24,"byHour":[1.5,1.5,0,0,0,0,0,0,0,1.5,0,3,1.5,0,1.5,0,3,3.5,2,0,0,3.5,0,1.5],"byMode":{"차량":17,"지하철":3.5,"일반버스":1.5,"기타":2}},{"dest_code":"11440585","dest_name":"서울특별시 마포구 도화동","dest_lat":37.538644433810624,"dest_lon":126.9491081749089,"total":24,"byHour":[0,1,0,0,0,0,0,0,11,0,0,1.5,1.5,0,4,0,3,0,0,0,2,0,0,0],"byMode":{"차량":4,"지하철":18.5,"일반버스":1.5}},{"dest_code":"11110560","dest_name":"서울특별시 종로구 평창동","dest_lat":37.61568630251399,"dest_lon":126.96812566774555,"total":24,"byHour":[0,0,0,0,0,0,0,2,1.5,3,2,1.5,6.5,1.5,1,0,3,0,2,0,0,0,0,0],"byMode":{"차량":12,"기타":7.5,"지하철":3,"일반버스":1.5}},{"dest_code":"41820000","dest_name":"경기도 가평군","dest_lat":37.79892909371546,"dest_lon":127.4184547911432,"total":24,"byHour":[3,0,1,0,0,2,0,0,1.5,0,5.5,0,4,1.5,1.5,1.5,2.5,0,0,0,0,0,0,0],"byMode":{"차량":23,"지하철":1}},{"dest_code":"28200000","dest_name":"인천광역시 남동구","dest_lat":37.43192339404375,"dest_lon":126.72860496443539,"total":23.5,"byHour":[0,3,0,2,1.5,0,1,2,0,0,1,3.5,0,2,3,0,1.5,0,1.5,0,0,1.5,0,0],"byMode":{"차량":16.5,"지하철":5.5,"일반버스":1.5}},{"dest_code":"11260690","dest_name":"서울특별시 중랑구 신내2동","dest_lat":37.610983653054106,"dest_lon":127.09158736207436,"total":23.5,"byHour":[3,0,0,0,0,0,0,0,3,1.5,1.5,0,0,2,1,0,0,5.5,0,1,0,5,0,0],"byMode":{"지하철":12.5,"차량":5,"일반버스":4.5,"기타":1.5}},{"dest_code":"11710670","dest_name":"서울특별시 송파구 잠실2동","dest_lat":37.51742878273864,"dest_lon":127.07934228766362,"total":23,"byHour":[6.5,0.5,2,0,0,0,0,0,3,3,0,1.5,0,0,0,0,0,1.5,0,2,0,1.5,1.5,0],"byMode":{"지하철":11.5,"차량":8.5,"기타":1.5,"도보":1.5}},{"dest_code":"41113000","dest_name":"경기도 수원시 권선구","dest_lat":37.26334766629814,"dest_lon":126.98565750659293,"total":23,"byHour":[1.5,2,0,0,0,0,0,3,1.5,1.5,1.5,0,0,0,2,1.5,3.5,0,0,1.5,2,1.5,0,0],"byMode":{"차량":17.5,"지하철":5.5}},{"dest_code":"11710650","dest_name":"서울특별시 송파구 잠실본동","dest_lat":37.50598801506433,"dest_lon":127.08262032317404,"total":23,"byHour":[1,1,0,0,0,0,0,0,2,0,0,1,1.5,0,3,5,2,1.5,0,4,0,0,1,0],"byMode":{"차량":10,"지하철":9.5,"광역버스":1.5,"기타":1,"일반버스":1}},{"dest_code":"11710631","dest_name":"서울특별시 송파구 가락1동","dest_lat":37.49518804554753,"dest_lon":127.10827277693689,"total":22.5,"byHour":[0,3,0,0,0,0,1.5,0,0,1.5,0,0,1.5,1.5,1.5,0,3.5,3,1.5,2.5,0,0,1.5,0],"byMode":{"차량":15,"지하철":4.5,"기타":3}},{"dest_code":"11710600","dest_name":"서울특별시 송파구 석촌동","dest_lat":37.502726246270925,"dest_lon":127.10251283152732,"total":22.5,"byHour":[2,1.5,0,0,0,0,0,3,0,1.5,1.5,0,0,1.5,1.5,0,0,1.5,0,0,1.5,7,0,0],"byMode":{"지하철":11,"차량":11.5}},{"dest_code":"11350640","dest_name":"서울특별시 노원구 상계2동","dest_lat":37.65665170508147,"dest_lon":127.06709982703664,"total":22.5,"byHour":[1.5,0,0,1.5,0,0,1.5,0,0,2,0,3,1,1.5,0,1.5,1,0,5,1.5,0,1.5,0,0],"byMode":{"차량":9,"지하철":13.5}},{"dest_code":"11560560","dest_name":"서울특별시 영등포구 당산2동","dest_lat":37.53410769973474,"dest_lon":126.90237135958655,"total":22.5,"byHour":[0,0,0,0,0,0,1.5,1.5,2,2,1.5,0,0,0,1.5,1.5,0,0,3.5,1.5,0,3,1.5,1.5],"byMode":{"지하철":21,"기타":1.5}},{"dest_code":"41273000","dest_name":"경기도 안산시 단원구","dest_lat":37.339212489724645,"dest_lon":126.87047300470854,"total":22.5,"byHour":[0,0,0,0,0,0,3.5,3,1.5,0,0,3,6,2,0,0,0,0,0,0,2,1.5,0,0],"byMode":{"지하철":13.5,"차량":9}},{"dest_code":"11350611","dest_name":"서울특별시 노원구 하계1동","dest_lat":37.63851375656488,"dest_lon":127.0750677453248,"total":22,"byHour":[1.5,0,0,0,0,0,0,0,0,0,1.5,1.5,0,2.5,2,0,1.5,1.5,4.5,3,1.5,0,0,1],"byMode":{"차량":4.5,"지하철":16,"기타":1.5}},{"dest_code":"41650000","dest_name":"경기도 포천시","dest_lat":37.96171946575621,"dest_lon":127.26610407319367,"total":22,"byHour":[3.5,1.5,0,0,0,0,0,0,3,1.5,1.5,6.5,1.5,0,0,0,1.5,1.5,0,0,0,0,0,0],"byMode":{"차량":22}},{"dest_code":"11260575","dest_name":"서울특별시 중랑구 면목3.8동","dest_lat":37.58448873711785,"dest_lon":127.09834881069246,"total":21.5,"byHour":[3,1.5,0,0,0,1.5,0,0,0,0,0,2.5,1.5,5,1.5,1.5,2.5,0,0,0,0,0,1,0],"byMode":{"차량":14,"일반버스":3.5,"기타":1.5,"지하철":2.5}},{"dest_code":"11290580","dest_name":"서울특별시 성북구 돈암1동","dest_lat":37.59975117045915,"dest_lon":127.02439790431146,"total":21.5,"byHour":[1.5,0,1.5,0,0,0,0,0,0,0,0,0,0,1.5,0,7,2,0,1.5,2.5,0,2.5,1.5,0],"byMode":{"차량":4.5,"지하철":2.5,"기타":11.5,"도보":3}},{"dest_code":"11320700","dest_name":"서울특별시 도봉구 방학2동","dest_lat":37.669186234537605,"dest_lon":127.03269154692808,"total":21.5,"byHour":[0,1.5,0,0,0,1.5,5.5,1.5,0,0,0,0,2,2,0,2,0,0,1.5,0,4,0,0,0],"byMode":{"차량":10.5,"지하철":11}},{"dest_code":"11710642","dest_name":"서울특별시 송파구 문정2동","dest_lat":37.481196589583,"dest_lon":127.11914118070632,"total":21.5,"byHour":[0,0,0,0,0,0,2,3,3.5,1.5,0,4.5,1.5,2,0,0,0,0,1.5,0,0,0,0,2],"byMode":{"지하철":15.5,"차량":6}},{"dest_code":"11380520","dest_name":"서울특별시 은평구 불광1동","dest_lat":37.61687033066227,"dest_lon":126.93865920467827,"total":21.5,"byHour":[1.5,1,0,0,0,0,0,0,0,3,0,0,1.5,0,0,0,3,5,0,5,0,1.5,0,0],"byMode":{"차량":5.5,"지하철":16}},{"dest_code":"11710570","dest_name":"서울특별시 송파구 오금동","dest_lat":37.50400495130691,"dest_lon":127.13402058316142,"total":21.5,"byHour":[0,0,0,0,0,1.5,0,0,0,0,0,7,1.5,1.5,1.5,0,0,0,4.5,1,0,1.5,1.5,0],"byMode":{"차량":11.5,"지하철":10}},{"dest_code":"11650660","dest_name":"서울특별시 서초구 내곡동","dest_lat":37.455858973063,"dest_lon":127.07063192337948,"total":21,"byHour":[0,1.5,0,0,1.5,1.5,4.5,1.5,0,0,0,0,3.5,1,1.5,0,0,0,4.5,0,0,0,0,0],"byMode":{"차량":18,"일반버스":1.5,"지하철":1.5}},{"dest_code":"11410615","dest_name":"서울특별시 서대문구 연희동","dest_lat":37.57222900345364,"dest_lon":126.9327932236587,"total":21,"byHour":[0,1.5,3,1.5,1.5,4.5,0,0,1.5,0,0,1.5,0,1.5,0,1.5,0,0,1.5,0,0,0,1.5,0],"byMode":{"지하철":6,"기타":4.5,"차량":9,"일반버스":1.5}},{"dest_code":"11620595","dest_name":"서울특별시 관악구 청룡동","dest_lat":37.47805691041308,"dest_lon":126.94581028099184,"total":21,"byHour":[0,0,0,0,0,0,4,0,3,3,0,0,3,0,1.5,1.5,3.5,0,0,1.5,0,0,0,0],"byMode":{"차량":12,"지하철":7.5,"기타":1.5}},{"dest_code":"11440555","dest_name":"서울특별시 마포구 아현동","dest_lat":37.551851292486674,"dest_lon":126.95270610587647,"total":21,"byHour":[0,0,0,0,0,0,0,0,6.5,1.5,0,0,1.5,0,0,3,3,1,1.5,0,1.5,0,1.5,0],"byMode":{"일반버스":4,"기타":8,"지하철":6,"차량":3}},{"dest_code":"11380570","dest_name":"서울특별시 은평구 대조동","dest_lat":37.6122562627536,"dest_lon":126.9231543891736,"total":21,"byHour":[0,0,0,0,0,0,0,0,0,1.5,0,0,1.5,0,0,0,4,0,6,0,2,0,1.5,4.5],"byMode":{"지하철":13,"기타":3.5,"차량":4.5}},{"dest_code":"11320670","dest_name":"서울특별시 도봉구 쌍문2동","dest_lat":37.65710965130868,"dest_lon":127.03691772548196,"total":21,"byHour":[0,0,0,0,0,1.5,0,0,0,0,0,0,6,1.5,1,0,1.5,3,0,2.5,4,0,0,0],"byMode":{"지하철":10,"차량":8.5,"기타":2.5}},{"dest_code":"11290770","dest_name":"서울특별시 성북구 장위2동","dest_lat":37.61234879180564,"dest_lon":127.05189848383364,"total":21,"byHour":[1.5,0,0,0,0,0,0,0,0,0,0,0,1.5,0,3,3,1.5,0,4.5,0,2,0,2.5,1.5],"byMode":{"차량":5.5,"지하철":11,"기타":4.5}},{"dest_code":"11680655","dest_name":"서울특별시 강남구 도곡1동","dest_lat":37.488887657674894,"dest_lon":127.04101114838812,"total":20.5,"byHour":[0,1.5,1,0,2,0,0,5,1.5,0,0,0,0,0,0,4,0,0,4.5,0,0,0,0,1],"byMode":{"기타":7.5,"지하철":6,"차량":7}},{"dest_code":"11260540","dest_name":"서울특별시 중랑구 면목4동","dest_lat":37.573618445205234,"dest_lon":127.08537359110592,"total":20.5,"byHour":[0,0,0,0,0,0,0,0,0.5,3,0,3.5,1.5,0,4.5,0,0,1.5,0,0,1.5,1.5,1.5,1.5],"byMode":{"지하철":1.5,"기타":7,"일반버스":4.5,"차량":7.5}},{"dest_code":"11440590","dest_name":"서울특별시 마포구 용강동","dest_lat":37.541528802126415,"dest_lon":126.94221265006838,"total":20,"byHour":[4,0,0,0,0,0,1.5,2,0,3,0,1.5,0,0,2,0,0,1.5,1.5,0,0,0,3,0],"byMode":{"차량":5,"일반버스":2,"기타":3,"지하철":8.5,"도보":1.5}},{"dest_code":"11440610","dest_name":"서울특별시 마포구 염리동","dest_lat":37.549897792767865,"dest_lon":126.947537319435,"total":20,"byHour":[1.5,1.5,0,0,0,0,0,0,4.5,0,0,1.5,0,4,2,0,1,0,1.5,2.5,0,0,0,0],"byMode":{"일반버스":4,"차량":6,"기타":1.5,"지하철":8.5}},{"dest_code":"11170580","dest_name":"서울특별시 용산구 효창동","dest_lat":37.5428121998644,"dest_lon":126.96094385659588,"total":20,"byHour":[0,0,0,0,0,0,0,3,0,0,0,8.5,1.5,0,0,2.5,0,1.5,0,1.5,1.5,0,0,0],"byMode":{"차량":10,"지하철":7.5,"일반버스":2.5}},{"dest_code":"11170660","dest_name":"서울특별시 용산구 이태원2동","dest_lat":37.54176099713294,"dest_lon":126.99205543091884,"total":20,"byHour":[0,0,0,0,1.5,0,0,0,1.5,3.5,1.5,0,0,1.5,2,1.5,1.5,0,2.5,1.5,0,1.5,0,0],"byMode":{"지하철":6,"차량":11,"도보":1.5,"일반버스":1.5}},{"dest_code":"11380690","dest_name":"서울특별시 은평구 진관동","dest_lat":37.63967752919758,"dest_lon":126.93782340570208,"total":20,"byHour":[2.5,0,0,0,0,1.5,0,0,1.5,0,1.5,0,1.5,1.5,0.5,3,3,0,2,0,0,0,1.5,0],"byMode":{"지하철":6.5,"차량":13.5}},{"dest_code":"41430000","dest_name":"경기도 의왕시","dest_lat":37.361396006690704,"dest_lon":126.94030436907624,"total":19.5,"byHour":[0,0,0,0,0,0,3.5,0,0,0,1.5,0,1,1.5,0,5,0,1.5,0,2,0,0,3.5,0],"byMode":{"차량":10,"지하철":9.5}},{"dest_code":"11500593","dest_name":"서울특별시 강서구 화곡8동","dest_lat":37.53426695337341,"dest_lon":126.84877256833798,"total":19.5,"byHour":[0,0,1.5,0,0,0,0,3.5,1.5,2,0,0,1.5,0,0,0,4,0,0,2,0,0,2,1.5],"byMode":{"차량":9.5,"지하철":10}},{"dest_code":"11215830","dest_name":"서울특별시 광진구 자양2동","dest_lat":37.529103216756376,"dest_lon":127.08275137179692,"total":19,"byHour":[2.5,0,2,0,0,0,0,0,0,2,0,0,0,1.5,0,0,1.5,1.5,4,4,0,0,0,0],"byMode":{"지하철":9.5,"차량":5,"기타":4.5}},{"dest_code":"11380560","dest_name":"서울특별시 은평구 구산동","dest_lat":37.611069000619466,"dest_lon":126.90730854008928,"total":19,"byHour":[0,0,0,0,0,0,0,0,1.5,0,1.5,2,0,0,0,1.5,3,3.5,1.5,0,0,1.5,3,0],"byMode":{"지하철":12,"차량":7}},{"dest_code":"41461000","dest_name":"경기도 용인시 처인구","dest_lat":37.28629442750663,"dest_lon":127.26600758788916,"total":19,"byHour":[1.5,0,0,0,0,0,0,0,2.5,0,1.5,2,0,3.5,3,3.5,1.5,0,0,0,0,0,0,0],"byMode":{"차량":12,"지하철":7}},{"dest_code":"11110540","dest_name":"서울특별시 종로구 삼청동","dest_lat":37.58836360344821,"dest_lon":126.98120563602257,"total":19,"byHour":[0,0,1.5,0,0,0,1.5,1.5,0,1.5,0,1.5,3,1.5,4,0,0,0,3,0,0,0,0,0],"byMode":{"도보":2.5,"지하철":8,"기타":5.5,"차량":3}},{"dest_code":"11320512","dest_name":"서울특별시 도봉구 창2동","dest_lat":37.64251171189896,"dest_lon":127.03676720651606,"total":18.5,"byHour":[0,0,2,0,0,0,1,0,1,0,2,0,0,2,0,0,2,0,4,1,1.5,0,2,0],"byMode":{"차량":3.5,"기타":3,"지하철":12}},{"dest_code":"11560610","dest_name":"서울특별시 영등포구 양평1동","dest_lat":37.52545711949541,"dest_lon":126.88671756480686,"total":18.5,"byHour":[0,0,0,0,0,0,0.5,5.5,1.5,1.5,2,0,1.5,0,0,0,0,1.5,0,1.5,3,0,0,0],"byMode":{"지하철":17,"차량":1.5}},{"dest_code":"11320690","dest_name":"서울특별시 도봉구 방학1동","dest_lat":37.66504454735848,"dest_lon":127.04347666289463,"total":18.5,"byHour":[0,0,0,0,0,0,0,1.5,0,4.5,0,2,1.5,0,0,7.5,1.5,0,0,0,0,0,0,0],"byMode":{"일반버스":1.5,"차량":11,"지하철":4.5,"기타":1.5}},{"dest_code":"11215760","dest_name":"서울특별시 광진구 중곡3동","dest_lat":37.56791070389989,"dest_lon":127.082017158444,"total":18.5,"byHour":[0,1.5,0,0,0,0,0,0,0,0,2,3,0,1.5,1.5,0,0,3.5,1.5,0,4,0,0,0],"byMode":{"기타":11,"차량":5,"지하철":2.5}},{"dest_code":"11320680","dest_name":"서울특별시 도봉구 쌍문3동","dest_lat":37.64766314749173,"dest_lon":127.03058765843974,"total":18.5,"byHour":[0,0,0,0,0,0,1.5,0,0,0,0,3,0,2,0,2,0,0,2,6,0,0,2,0],"byMode":{"기타":3.5,"지하철":13.5,"차량":1.5}},{"dest_code":"11170560","dest_name":"서울특별시 용산구 원효로1동","dest_lat":37.53749537319296,"dest_lon":126.96655767638732,"total":18,"byHour":[0,0,0,0,1.5,1.5,0,1,4,2,2.5,0,0,0,0,0,1.5,0,1.5,1.5,0,1,0,0],"byMode":{"차량":4,"지하철":6.5,"일반버스":3,"기타":4.5}},{"dest_code":"11320511","dest_name":"서울특별시 도봉구 창1동","dest_lat":37.64709093129404,"dest_lon":127.04354230346514,"total":18,"byHour":[0,1.5,0,0,2,0,1.5,0,0,0,0,1.5,1.5,0,3.5,0,0,2,1.5,1.5,1.5,0,0,0],"byMode":{"지하철":13,"차량":3.5,"일반버스":1.5}},{"dest_code":"11260570","dest_name":"서울특별시 중랑구 면목7동","dest_lat":37.57713876078811,"dest_lon":127.09279824137629,"total":18,"byHour":[1.5,0,0,0,0,0,0,0,0,0,0,0,0,0,0,1.5,1.5,3,6,1.5,1.5,0,1.5,0],"byMode":{"기타":6,"일반버스":4.5,"차량":6,"지하철":1.5}},{"dest_code":"11440740","dest_name":"서울특별시 마포구 상암동","dest_lat":37.57072643445334,"dest_lon":126.87990132971456,"total":17.5,"byHour":[0,1.5,0,1,0,0,1.5,0,7,0,1.5,1.5,0,0,0,0,0,2.5,0,0,1,0,0,0],"byMode":{"차량":10,"지하철":5.5,"일반버스":2}},{"dest_code":"11740685","dest_name":"서울특별시 강동구 길동","dest_lat":37.53969617665487,"dest_lon":127.14596636282656,"total":17.5,"byHour":[1.5,0,0,0,0,0,2,3,1,0,1.5,0,0,3,0,0,1.5,1,1,1,0,1,0,0],"byMode":{"지하철":13,"차량":4.5}},{"dest_code":"11530530","dest_name":"서울특별시 구로구 구로2동","dest_lat":37.49687628698088,"dest_lon":126.8799181309095,"total":17.5,"byHour":[0,0,0,0,0,0,2,0,0,0,0,1.5,1.5,1,1.5,1.5,0,2,3,0,0,0,3.5,0],"byMode":{"지하철":12.5,"차량":5}},{"dest_code":"11410660","dest_name":"서울특별시 서대문구 홍은1동","dest_lat":37.600634867740176,"dest_lon":126.94693487801828,"total":17,"byHour":[2,0,0,2,0,0,0,0,0,0,0,0,0,3,2,3.5,1.5,0,3,0,0,0,0,0],"byMode":{"차량":7,"기타":5,"지하철":3.5,"일반버스":1.5}},{"dest_code":"11560605","dest_name":"서울특별시 영등포구 문래동","dest_lat":37.51653109707488,"dest_lon":126.89105913725837,"total":17,"byHour":[0,1.5,0,0,0,1.5,1.5,1.5,0,0,0,0,1.5,1.5,2,1.5,1.5,0,0,0,1.5,0,1.5,0],"byMode":{"지하철":12.5,"차량":4.5}},{"dest_code":"11650600","dest_name":"서울특별시 서초구 방배1동","dest_lat":37.48487654628929,"dest_lon":126.99625988652642,"total":17,"byHour":[0,1,1.5,0,1,3,0,0,0,1.5,1.5,0,0,0,0,2.5,0,0,0,1.5,1.5,1,0,1],"byMode":{"차량":6.5,"지하철":10.5}},{"dest_code":"11440710","dest_name":"서울특별시 마포구 연남동","dest_lat":37.563017872295696,"dest_lon":126.92153721770806,"total":17,"byHour":[1.5,0,0,1,0,0,2,2,0,0,1.5,0,2,1.5,3,0,0,0,1.5,1,0,0,0,0],"byMode":{"지하철":13,"차량":1,"기타":1.5,"일반버스":1.5}},{"dest_code":"11260580","dest_name":"서울특별시 중랑구 상봉1동","dest_lat":37.60172209475368,"dest_lon":127.08944588823316,"total":17,"byHour":[0,0,0,0,0,0,0,0,0,0,0,0,1.5,0,3,1.5,0,5,1.5,0,0,0,4.5,0],"byMode":{"기타":4.5,"지하철":8,"차량":4.5}},{"dest_code":"11230730","dest_name":"서울특별시 동대문구 휘경2동","dest_lat":37.58664122719281,"dest_lon":127.06582204957049,"total":17,"byHour":[3,0,0,0,0,0,0,0,0,0,0,0,0,0,1.5,1.5,5,3,0,0,0,1.5,0,1.5],"byMode":{"차량":3,"기타":5,"일반버스":6,"지하철":3}},{"dest_code":"11305645","dest_name":"서울특별시 강북구 우이동","dest_lat":37.66035298208114,"dest_lon":127.00048707352931,"total":16.5,"byHour":[3.5,1.5,0,0,0,0,0,0,0,1.5,1.5,3,0,0,1.5,2.5,0,0,0,0,0,1.5,0,0],"byMode":{"차량":4.5,"지하철":12}},{"dest_code":"11290780","dest_name":"서울특별시 성북구 장위3동","dest_lat":37.6182582111975,"dest_lon":127.05344990971862,"total":16.5,"byHour":[0,0,0,1.5,0,0,0,0,1.5,0,3,0,0,1.5,0,3.5,0,0,0,1.5,2.5,1.5,0,0],"byMode":{"기타":5.5,"차량":6.5,"일반버스":1.5,"지하철":3}},{"dest_code":"11305660","dest_name":"서울특별시 강북구 인수동","dest_lat":37.63740468445943,"dest_lon":127.00354840273708,"total":16.5,"byHour":[0,1.5,0,0,0,0,0,0,0,1.5,1.5,0,1.5,0,1.5,1.5,1.5,1.5,0,1.5,0,0,0,3],"byMode":{"기타":6,"차량":4.5,"지하철":6}},{"dest_code":"11590510","dest_name":"서울특별시 동작구 노량진1동","dest_lat":37.5122360275928,"dest_lon":126.94895754101177,"total":16,"byHour":[1,0,0,0,0,0,3,0,0,1.5,0,0,5,0,3.5,0,0,2,0,0,0,0,0,0],"byMode":{"지하철":13,"도보":1.5,"차량":1.5}},{"dest_code":"11290620","dest_name":"서울특별시 성북구 정릉1동","dest_lat":37.60327976637659,"dest_lon":127.01698172006311,"total":16,"byHour":[0,1.5,1.5,0,0,0,1.5,0,0,0,0,0,1.5,0,1.5,1.5,4,0,1.5,0,0,0,0,1.5],"byMode":{"차량":5.5,"도보":4.5,"기타":6}},{"dest_code":"11650652","dest_name":"서울특별시 서초구 양재2동","dest_lat":37.45115190053303,"dest_lon":127.04575266779251,"total":16,"byHour":[0,0,0,0,2,0,3,0,0,3.5,0,0,0,0,0,0,1.5,3,0,1.5,1.5,0,0,0],"byMode":{"일반버스":5,"차량":9.5,"지하철":1.5}},{"dest_code":"11740610","dest_name":"서울특별시 강동구 천호2동","dest_lat":37.54499240788589,"dest_lon":127.12200908898424,"total":16,"byHour":[0,0,0,0,0,0,0,0,1.5,2,2,0,0,0,0,0,1.5,1.5,2,1.5,0,3,1,0],"byMode":{"지하철":10,"차량":4.5,"기타":1.5}},{"dest_code":"11680700","dest_name":"서울특별시 강남구 세곡동","dest_lat":37.470658793453936,"dest_lon":127.10430477063892,"total":16,"byHour":[0,0,0,0,0,0,0,0,0,0,0,2,0,1.5,1.5,0,3.5,0,3,0,1.5,1.5,0,1.5],"byMode":{"지하철":2,"차량":14}},{"dest_code":"11380625","dest_name":"서울특별시 은평구 역촌동","dest_lat":37.60457169193162,"dest_lon":126.9146202225324,"total":16,"byHour":[0,0,0,1.5,0,0,0,0,0,0,0,0,3,1.5,2,0,0,3,0,1.5,0,0,3.5,0],"byMode":{"일반버스":3,"지하철":5,"차량":8}},{"dest_code":"11650560","dest_name":"서울특별시 서초구 반포1동","dest_lat":37.50552851610613,"dest_lon":127.0167625320726,"total":16,"byHour":[2.5,1.5,0,0,0,0,0,0,0,2,2,0,0,0,0,0,2.5,0,1.5,0,0,1,3,0],"byMode":{"차량":10.5,"기타":3.5,"지하철":2}},{"dest_code":"11620695","dest_name":"서울특별시 관악구 신림동","dest_lat":37.4871415005715,"dest_lon":126.92716843915656,"total":15.5,"byHour":[0,1.5,0,0,0,0,0,3,0,0,0,0,1.5,0,1,2,0,0,0,1.5,0,2.5,2.5,0],"byMode":{"지하철":9,"차량":5.5,"도보":1}},{"dest_code":"11470650","dest_name":"서울특별시 양천구 신정4동","dest_lat":37.52541055129687,"dest_lon":126.85761807645274,"total":15.5,"byHour":[0,0,1.5,0,0,0,0,0,0,1.5,0,0,0,3,2,1,1.5,2,1.5,0,0,0,1.5,0],"byMode":{"차량":5.5,"일반버스":2,"지하철":8}},{"dest_code":"11530550","dest_name":"서울특별시 구로구 구로4동","dest_lat":37.49160778502839,"dest_lon":126.89030917334668,"total":15.5,"byHour":[0,0,1.5,0,0,0,1.5,1.5,0,0,4,1.5,0,0,2,0,2,0,1.5,0,0,0,0,0],"byMode":{"차량":5,"지하철":10.5}},{"dest_code":"11305615","dest_name":"서울특별시 강북구 수유1동","dest_lat":37.6297366940976,"dest_lon":127.01001782948444,"total":15.5,"byHour":[0,0,0,3,0,0,0,0,0,0,2,1.5,0,1.5,0,0,2,0,0,0,0,0,5.5,0],"byMode":{"차량":3,"지하철":7,"기타":3.5,"일반버스":2}},{"dest_code":"11500611","dest_name":"서울특별시 강서구 발산1동","dest_lat":37.55050719249973,"dest_lon":126.82526217896871,"total":15.5,"byHour":[0,0,0,0,0,3,4.5,1.5,0,0,0,0,2,0,0,1.5,0,0,3,0,0,0,0,0],"byMode":{"지하철":9.5,"차량":6}},{"dest_code":"11260630","dest_name":"서울특별시 중랑구 묵2동","dest_lat":37.6108262711771,"dest_lon":127.07462292207424,"total":15.5,"byHour":[1.5,1.5,0,0,0,0,0,0,0,0,0,0,0,1.5,0,3.5,1.5,0,3,1.5,0,1.5,0,0],"byMode":{"기타":3,"차량":9.5,"일반버스":1.5,"지하철":1.5}},{"dest_code":"11500620","dest_name":"서울특별시 강서구 공항동","dest_lat":37.55586440196673,"dest_lon":126.79489910642056,"total":15,"byHour":[0,1.5,0,0,0,0,3,0,0,0,0,1.5,1.5,1.5,0,0,3.5,1,0,1.5,0,0,0,0],"byMode":{"지하철":10,"차량":5}},{"dest_code":"11380530","dest_name":"서울특별시 은평구 불광2동","dest_lat":37.624278541092735,"dest_lon":126.92869863673612,"total":15,"byHour":[0,0,0,0,1.5,3,0,1.5,1.5,0,0,2,0,0,1.5,0,0,0,0,1.5,1,1.5,0,0],"byMode":{"차량":4.5,"일반버스":4.5,"지하철":6}},{"dest_code":"41111000","dest_name":"경기도 수원시 장안구","dest_lat":37.307931147638755,"dest_lon":126.99735958826156,"total":15,"byHour":[0,0,0,0,0,3,0,2,0,0,0,0,0,0,0,3.5,3.5,1.5,0,1.5,0,0,0,0],"byMode":{"차량":11,"지하철":4}},{"dest_code":"11170570","dest_name":"서울특별시 용산구 원효로2동","dest_lat":37.53385302392906,"dest_lon":126.95246009027296,"total":15,"byHour":[1.5,0,0,0,0,0,0,1.5,0,0,0,0,1.5,0,0,1.5,0,2.5,1.5,5,0,0,0,0],"byMode":{"기타":4.5,"차량":5,"지하철":4,"일반버스":1.5}},{"dest_code":"11590605","dest_name":"서울특별시 동작구 흑석동","dest_lat":37.50542550562058,"dest_lon":126.96223687937672,"total":15,"byHour":[0,0,0,1,0,1.5,0,0,1.5,1.5,0,0,1.5,0,0,1.5,3,1.5,2,0,0,0,0,0],"byMode":{"차량":10,"지하철":5}},{"dest_code":"11215750","dest_name":"서울특별시 광진구 중곡2동","dest_lat":37.55890878945523,"dest_lon":127.08457880017404,"total":15,"byHour":[0,0,0,0,0,0,0,0,0,0,0,0,0,1.5,1.5,0,7.5,1,0,0,0,1.5,0,2],"byMode":{"기타":3,"차량":7,"지하철":5}},{"dest_code":"11170690","dest_name":"서울특별시 용산구 서빙고동","dest_lat":37.51962188014036,"dest_lon":126.98891969879324,"total":14.5,"byHour":[0,1.5,1,0,3,0,0,0,3,0,0,0,0,1.5,0,0,0,0,0,3,0,0,0,1.5],"byMode":{"차량":7,"지하철":4.5,"일반버스":1.5,"도보":1.5}},{"dest_code":"11200720","dest_name":"서울특별시 성동구 송정동","dest_lat":37.55237277778798,"dest_lon":127.06426341681592,"total":14.5,"byHour":[0,0,0,0,0,0,1.5,1.5,0,0,0,0,1.5,0,0,1.5,1,0,0,0,1,0,6.5,0],"byMode":{"도보":1.5,"차량":2.5,"지하철":2.5,"일반버스":5.5,"기타":2.5}},{"dest_code":"11320710","dest_name":"서울특별시 도봉구 방학3동","dest_lat":37.663189624864266,"dest_lon":127.0235631136616,"total":14.5,"byHour":[0,0,0,0,0,0,0,0,1,0,0,2,4,1.5,0,1.5,0,0,3,0,0,1.5,0,0],"byMode":{"지하철":8,"차량":6.5}},{"dest_code":"11350665","dest_name":"서울특별시 노원구 상계3.4동","dest_lat":37.6757801445397,"dest_lon":127.0842190173459,"total":14.5,"byHour":[0,0,0,0,0,0,0,0,0,0,0,2,0,1.5,2,0,2,2,0,1.5,0,1.5,2,0],"byMode":{"지하철":11,"차량":3.5}},{"dest_code":"41830000","dest_name":"경기도 양평군","dest_lat":37.52460824822185,"dest_lon":127.56623497653196,"total":14,"byHour":[1,0,0,0,0,0,0,0,0,0,0,0,2.5,4,1.5,1.5,2.5,0,0,1,0,0,0,0],"byMode":{"차량":14}},{"dest_code":"11380600","dest_name":"서울특별시 은평구 응암3동","dest_lat":37.58892573969037,"dest_lon":126.9175543119417,"total":14,"byHour":[0,0,0,0,0,1,0,0,0,0,0,0,0,0,1.5,0,1.5,2,4,0,4,0,0,0],"byMode":{"일반버스":2.5,"지하철":10,"차량":1.5}},{"dest_code":"11410620","dest_name":"서울특별시 서대문구 홍제1동","dest_lat":37.58340454932159,"dest_lon":126.94431972762148,"total":14,"byHour":[0,0,0,0,0,0,0,0,0,1.5,0,0,1.5,0,0,0,0,1.5,0,0,1.5,0,5,3],"byMode":{"지하철":4,"기타":4,"차량":4.5,"일반버스":1.5}},{"dest_code":"11305534","dest_name":"서울특별시 강북구 삼양동","dest_lat":37.623804265225246,"dest_lon":127.01492956330208,"total":14,"byHour":[0,0,0,0,0,0,0,0,2,0,0,0,0,0,3.5,0,2.5,1.5,0,1.5,3,0,0,0],"byMode":{"기타":2,"지하철":7,"일반버스":3,"차량":2}},{"dest_code":"11440600","dest_name":"서울특별시 마포구 대흥동","dest_lat":37.55203673830288,"dest_lon":126.941465433121,"total":14,"byHour":[0,0,3,0,0,0,0,0,0,0,0,0,2,0,0,3,1.5,0,1.5,1,1,0,1,0],"byMode":{"지하철":11,"기타":2.5,"일반버스":0.5}},{"dest_code":"11260660","dest_name":"서울특별시 중랑구 망우3동","dest_lat":37.591884956932,"dest_lon":127.10282860833864,"total":13.5,"byHour":[0,0,0,3.5,0,0,0,0,2,0,0,0,0,0,0,0,5,0,3,0,0,0,0,0],"byMode":{"차량":8.5,"지하철":3.5,"일반버스":1.5}},{"dest_code":"11320681","dest_name":"서울특별시 도봉구 쌍문4동","dest_lat":37.65542903791273,"dest_lon":127.03042068070712,"total":13.5,"byHour":[0,2,0,2,2,0,1.5,0,2,0.5,0,0,0,0,0,1.5,0,0,0,0,0,2,0,0],"byMode":{"지하철":8,"차량":5.5}},{"dest_code":"11530790","dest_name":"서울특별시 구로구 수궁동","dest_lat":37.49843711958104,"dest_lon":126.82601652614262,"total":13.5,"byHour":[0,0,0,0,0,0,6,0,0,1.5,0,0,0,1,0,0,3.5,0,1.5,0,0,0,0,0],"byMode":{"차량":7,"지하철":6.5}},{"dest_code":"11320515","dest_name":"서울특별시 도봉구 창5동","dest_lat":37.655371937488496,"dest_lon":127.0427893433785,"total":13.5,"byHour":[1.5,1.5,0,0,0,0,1.5,1.5,1.5,2,0,0,1,0,0,1.5,0,0,1.5,0,0,0,0,0],"byMode":{"지하철":8,"차량":5.5}},{"dest_code":"11740570","dest_name":"서울특별시 강동구 암사1동","dest_lat":37.551848367771946,"dest_lon":127.1345954774132,"total":13,"byHour":[0,0,0,0,0,3,0,0,0,0,0,0,0,0,1.5,0,0,4,1.5,3,0,0,0,0],"byMode":{"차량":6,"기타":1.5,"지하철":5.5}},{"dest_code":"11305603","dest_name":"서울특별시 강북구 번2동","dest_lat":37.62948794177119,"dest_lon":127.03474522007014,"total":13,"byHour":[0,0,0,0,0,0,1,0,0,0,0,0,1.5,1.5,1.5,0,0,1.5,1.5,3,1.5,0,0,0],"byMode":{"기타":5.5,"차량":1.5,"지하철":6}},{"dest_code":"11590630","dest_name":"서울특별시 동작구 사당2동","dest_lat":37.497195989262906,"dest_lon":126.9748305493792,"total":13,"byHour":[0,0,0,1,0,0,0,3.5,0,2,0,3.5,0,0,1.5,0,0,0,0,1.5,0,0,0,0],"byMode":{"지하철":10.5,"차량":2.5}},{"dest_code":"11710610","dest_name":"서울특별시 송파구 삼전동","dest_lat":37.50190257761887,"dest_lon":127.09188809234622,"total":13,"byHour":[0,1.5,0,1,0,1.5,0,4,0,0,0,0,0,0,0,0,1.5,0,0,0,0,3.5,0,0],"byMode":{"지하철":8.5,"차량":4.5}},{"dest_code":"11320521","dest_name":"서울특별시 도봉구 도봉1동","dest_lat":37.6853214078324,"dest_lon":127.02679827026442,"total":13,"byHour":[0,0,0,0,0,1.5,1.5,0,3,0,0,0,0,0,0,1.5,0,2,2,0,0,1.5,0,0],"byMode":{"지하철":8,"차량":5}},{"dest_code":"11470510","dest_name":"서울특별시 양천구 목1동","dest_lat":37.52751904097061,"dest_lon":126.87443491547334,"total":13,"byHour":[0,0,0,0,0,0,0,0,1.5,3,1.5,0,0,2,1.5,1.5,0,2,0,0,0,0,0,0],"byMode":{"차량":9,"지하철":4}},{"dest_code":"43130000","dest_name":"충청북도 충주시","dest_lat":36.98323979431429,"dest_lon":127.86833856760873,"total":13,"byHour":[0,0,0,0,0,0,0,0,0,3.5,1.5,0,0,0,1.5,0,0,1.5,5,0,0,0,0,0],"byMode":{"차량":13}},{"dest_code":"11350720","dest_name":"서울특별시 노원구 상계10동","dest_lat":37.65971816335463,"dest_lon":127.05838376138938,"total":13,"byHour":[0,0,0,0,0,0,0,0,0,2,0,0,0,0,1.5,0,1.5,5,0,0,2,0,1,0],"byMode":{"차량":3,"지하철":10}},{"dest_code":"11380580","dest_name":"서울특별시 은평구 응암1동","dest_lat":37.59834495324267,"dest_lon":126.92706516937618,"total":13,"byHour":[1.5,1.5,0,0,0,0,0,0,0,0,0,0,0,1.5,2,1.5,1.5,3.5,0,0,0,0,0,0],"byMode":{"지하철":3.5,"차량":7.5,"기타":2}},{"dest_code":"11380510","dest_name":"서울특별시 은평구 녹번동","dest_lat":37.60530749347024,"dest_lon":126.93457412417987,"total":13,"byHour":[0,0,0,0,0,0,0,0,0,1.5,0,0,0,0,0,2,5,0,3,0,0,0,1.5,0],"byMode":{"차량":2.5,"지하철":9,"기타":1.5}},{"dest_code":"41370000","dest_name":"경기도 오산시","dest_lat":37.25837614757862,"dest_lon":127.09095786660768,"total":12.5,"byHour":[1.5,0,0,0,0,1.5,0,0,1.5,0,0,0,1.5,0,0,0,1.5,0,0,0,1.5,1.5,2,0],"byMode":{"차량":11,"지하철":1.5}},{"dest_code":"11500510","dest_name":"서울특별시 강서구 염창동","dest_lat":37.55454504668768,"dest_lon":126.87180143362478,"total":12.5,"byHour":[0,0.5,0,0,0,0,1.5,1.5,1.5,0,0,0,0,1.5,1.5,0,1,2,0,1.5,0,0,0,0],"byMode":{"지하철":9.5,"차량":3}},{"dest_code":"11530560","dest_name":"서울특별시 구로구 구로5동","dest_lat":37.501992406102005,"dest_lon":126.88855063913384,"total":12.5,"byHour":[0,1.5,1.5,0,0,0,0,0,3.5,0,0,1.5,0,0,1.5,0,1.5,1.5,0,0,0,0,0,0],"byMode":{"지하철":8,"기타":1.5,"차량":3}},{"dest_code":"41220000","dest_name":"경기도 평택시","dest_lat":37.192301993488584,"dest_lon":127.00502900097335,"total":12.5,"byHour":[0,0,0,0,1.5,1.5,0,1.5,0,0,1.5,0,1.5,3.5,0,1.5,0,0,0,0,0,0,0,0],"byMode":{"차량":11,"지하철":1.5}},{"dest_code":"11320514","dest_name":"서울특별시 도봉구 창4동","dest_lat":37.65271901329207,"dest_lon":127.05090900345418,"total":12.5,"byHour":[0,0,0,0,0,0,0,0,0,0,1.5,1.5,0,0,0,3,0,3,0,0,0,3.5,0,0],"byMode":{"지하철":9,"차량":3.5}},{"dest_code":"11590680","dest_name":"서울특별시 동작구 신대방2동","dest_lat":37.494578685611096,"dest_lon":126.92166848882296,"total":12.5,"byHour":[1.5,0,0,0,0,0,0,0,0,0,0,0,0,1.5,0,6,0,0,0,1.5,0,0,2,0],"byMode":{"지하철":11,"차량":1.5}},{"dest_code":"11500535","dest_name":"서울특별시 강서구 등촌3동","dest_lat":37.561203675763885,"dest_lon":126.84619497284451,"total":12.5,"byHour":[0,0,0,0,1.5,0,0,0,0,0,0,0,1.5,1.5,0,1.5,2,3,0,1.5,0,0,0,0],"byMode":{"지하철":8,"차량":4.5}},{"dest_code":"11380590","dest_name":"서울특별시 은평구 응암2동","dest_lat":37.59209287520322,"dest_lon":126.9228957838581,"total":12.5,"byHour":[0,0,0,0,0,0,0,1.5,0,0,0,0,1.5,0,0,0,0,3.5,4.5,1.5,0,0,0,0],"byMode":{"차량":11,"지하철":1.5}},{"dest_code":"41290000","dest_name":"경기도 과천시","dest_lat":37.423740962106564,"dest_lon":127.05507263330537,"total":12,"byHour":[1,0,0,0,0,3,0,1.5,0,0,0,0,0,0,0,0,3,0,0,0,1,1.5,0,1],"byMode":{"차량":9,"지하철":3}},{"dest_code":"11380650","dest_name":"서울특별시 은평구 수색동","dest_lat":37.58559042350748,"dest_lon":126.89453127260626,"total":12,"byHour":[0,0,0,1.5,0,3,0,0,0,0,0,0,0,0,1.5,1.5,0,0,0,0,3,0,1.5,0],"byMode":{"지하철":6,"차량":6}},{"dest_code":"11440730","dest_name":"서울특별시 마포구 성산2동","dest_lat":37.56832883553491,"dest_lon":126.90196767073064,"total":12,"byHour":[1.5,0,0,0,0,0,3,0,0,0,0,1.5,0,1.5,1.5,0,0,3,0,0,0,0,0,0],"byMode":{"지하철":9,"차량":3}},{"dest_code":"11650570","dest_name":"서울특별시 서초구 반포2동","dest_lat":37.50722482634657,"dest_lon":126.99596200627936,"total":12,"byHour":[0,0,0,0,0,0,0,1.5,0,0,0,2,0,2,2,0,0,4.5,0,0,0,0,0,0],"byMode":{"지하철":6.5,"차량":3.5,"기타":2}},{"dest_code":"11740700","dest_name":"서울특별시 강동구 둔촌2동","dest_lat":37.531308450368925,"dest_lon":127.14724337088715,"total":12,"byHour":[0,0,0,0,0,0,0,0,4,0,0,0,1,1.5,1.5,0,1.5,0,0,1.5,0,0,0,1],"byMode":{"지하철":10.5,"차량":1.5}},{"dest_code":"11170630","dest_name":"서울특별시 용산구 이촌1동","dest_lat":37.51517316857026,"dest_lon":126.97175838068604,"total":12,"byHour":[0,0,0,0,0,0,0,0,3,0,0,0,0,0,0,1,3.5,1.5,3,0,0,0,0,0],"byMode":{"기타":2.5,"차량":6.5,"지하철":1.5,"일반버스":1.5}},{"dest_code":"11545610","dest_name":"서울특별시 금천구 독산1동","dest_lat":37.46430767232536,"dest_lon":126.89249564631804,"total":12,"byHour":[0,0,0,0,0,0,1,0,1.5,1.5,0,0,0,0,0,0,2.5,1.5,1,0,1.5,1.5,0,0],"byMode":{"차량":3.5,"지하철":8.5}},{"dest_code":"11440720","dest_name":"서울특별시 마포구 성산1동","dest_lat":37.562001970808,"dest_lon":126.91184564810614,"total":12,"byHour":[0,0,0,0,0,0,0,0,0,0,0,1.5,0,3.5,0,0,1,0,1.5,0,4.5,0,0,0],"byMode":{"일반버스":1.5,"지하철":7,"차량":3.5}},{"dest_code":"11590660","dest_name":"서울특별시 동작구 대방동","dest_lat":37.506904126207175,"dest_lon":126.9280462203087,"total":12,"byHour":[0,0,0,0.5,0,0,0,0,0,0,0,0,0,0,1.5,0,1.5,0,0,0,1.5,3.5,3.5,0],"byMode":{"차량":10,"지하철":2}},{"dest_code":"11560700","dest_name":"서울특별시 영등포구 대림1동","dest_lat":37.49367863683426,"dest_lon":126.9052163410804,"total":12,"byHour":[0,0,0,0,0,0,0,0,0,0,0,0,0,0,0,1.5,4,0,0,0,3,3.5,0,0],"byMode":{"지하철":8.5,"차량":3.5}},{"dest_code":"11260610","dest_name":"서울특별시 중랑구 중화2동","dest_lat":37.59918200919256,"dest_lon":127.07502865677068,"total":12,"byHour":[0,0,0,0,0,0,0,0,0,0,0,0,0,3,0,1.5,1.5,0,3,0,0,3,0,0],"byMode":{"일반버스":4.5,"차량":1.5,"지하철":6}},{"dest_code":"41115000","dest_name":"경기도 수원시 팔달구","dest_lat":37.278235690211076,"dest_lon":127.01464243655195,"total":11.5,"byHour":[3,1.5,0,0,0,0,0,0,0,0,3.5,2,1.5,0,0,0,0,0,0,0,0,0,0,0],"byMode":{"차량":11.5}},{"dest_code":"11110550","dest_name":"서울특별시 종로구 부암동","dest_lat":37.59696135988294,"dest_lon":126.9635444879494,"total":11.5,"byHour":[0,0,0,0,1.5,0,0,0,0,0,0,0,2,0,1.5,1,0,3.5,0,0,1,0,0,1],"byMode":{"차량":5.5,"지하철":2.5,"기타":3.5}},{"dest_code":"11710720","dest_name":"서울특별시 송파구 잠실7동","dest_lat":37.50731814805191,"dest_lon":127.07388403732652,"total":11.5,"byHour":[0,0,0,0,0,0,1.5,3.5,3.5,0,0,0,0,0,0,0,1.5,0,0,0,0,1.5,0,0],"byMode":{"지하철":7,"차량":4.5}},{"dest_code":"41550000","dest_name":"경기도 안성시","dest_lat":37.01753746916071,"dest_lon":127.30793656794054,"total":11.5,"byHour":[0,0,0,0,0,0,0,0,1,2.5,1.5,0,0,0,6.5,0,0,0,0,0,0,0,0,0],"byMode":{"차량":11.5}},{"dest_code":"11380552","dest_name":"서울특별시 은평구 갈현2동","dest_lat":37.61798039239918,"dest_lon":126.91245240262892,"total":11.5,"byHour":[0,0,0,0,0,0,0,0,0,0,0,3,0,2,0,0,1,2,1.5,2,0,0,0,0],"byMode":{"지하철":9,"차량":2.5}},{"dest_code":"11620665","dest_name":"서울특별시 관악구 서림동","dest_lat":37.47286139637797,"dest_lon":126.9414918027538,"total":11.5,"byHour":[0,0,0,0,0,0,0,0,1.5,0,0,0,0,0,0,3.5,3,2,1.5,0,0,0,0,0],"byMode":{"지하철":10,"차량":1.5}},{"dest_code":"11350619","dest_name":"서울특별시 노원구 중계본동","dest_lat":37.64862942471432,"dest_lon":127.0860202514856,"total":11.5,"byHour":[0,1.5,0,0,0,0,0,0,1.5,0,0,0,0,0,0,0,0,1.5,7,0,0,0,0,0],"byMode":{"차량":10,"기타":1.5}},{"dest_code":"11320660","dest_name":"서울특별시 도봉구 쌍문1동","dest_lat":37.65306893249887,"dest_lon":127.01951564530228,"total":11,"byHour":[1.5,0,0,0,0,0,0,0,0,0,0,0,0,0,1.5,0,0,3.5,0,1.5,1.5,0,1.5,0],"byMode":{"차량":5,"기타":3,"지하철":3}},{"dest_code":"42130000","dest_name":"강원도 원주시","dest_lat":37.312346367873374,"dest_lon":127.94799030344927,"total":11,"byHour":[3,0,0,0,0,0,0,0,0,1.5,0,0,0,0,1.5,0,1.5,0,1.5,1,1,0,0,0],"byMode":{"차량":11}},{"dest_code":"11560550","dest_name":"서울특별시 영등포구 당산1동","dest_lat":37.523902456055296,"dest_lon":126.89677920846194,"total":11,"byHour":[1.5,0,0,2.5,0,0,0,1.5,0,0,0,0,0,3,0,1,0,0,0,0,0,0,1.5,0],"byMode":{"기타":1,"차량":6,"지하철":4}},{"dest_code":"11440690","dest_name":"서울특별시 마포구 망원1동","dest_lat":37.55361948433182,"dest_lon":126.89975173517158,"total":11,"byHour":[0,0,0,0,1.5,0,1.5,0,0,0,0,1.5,2.5,0,0,0,0,1.5,1.5,1,0,0,0,0],"byMode":{"지하철":8.5,"차량":2.5}},{"dest_code":"11410685","dest_name":"서울특별시 서대문구 홍은2동","dest_lat":37.5871708157449,"dest_lon":126.93212944092396,"total":11,"byHour":[0,0,0,0,2,2,0,0,0,0,0,0,0,0,0,0,0,2,0,3,0,2,0,0],"byMode":{"차량":2,"지하철":7,"기타":2}},{"dest_code":"11620630","dest_name":"서울특별시 관악구 남현동","dest_lat":37.464112163050295,"dest_lon":126.977768370847,"total":11,"byHour":[0,0,0,0,0,0,3,0,0,0,0,0,0,0,0,0,0,2.5,3,0,1.5,0,1,0],"byMode":{"광역버스":1.5,"차량":4,"지하철":5.5}},{"dest_code":"11305608","dest_name":"서울특별시 강북구 번3동","dest_lat":37.623687055768,"dest_lon":127.04218511039488,"total":11,"byHour":[0,0,0,0,0,0,0,0,0,0,0,1.5,0,1,0,3,0,1,1.5,1.5,0,1.5,0,0],"byMode":{"지하철":5.5,"기타":4,"차량":1.5}},{"dest_code":"11350570","dest_name":"서울특별시 노원구 월계2동","dest_lat":37.633974259066136,"dest_lon":127.05129552388732,"total":11,"byHour":[0,0,0,0,0,0,0,0,0,0,0,0,0,0,0,1,3,1.5,1.5,0,4,0,0,0],"byMode":{"기타":1,"차량":3,"지하철":7}},{"dest_code":"11740550","dest_name":"서울특별시 강동구 고덕1동","dest_lat":37.56170532192555,"dest_lon":127.15093601669224,"total":11,"byHour":[0,0,0,0,0,0,0,0,2,0,0,1.5,0,0,0,1.5,0,3,0,0,0,0,3,0],"byMode":{"지하철":4.5,"차량":6.5}},{"dest_code":"11350630","dest_name":"서울특별시 노원구 상계1동","dest_lat":37.68338646996146,"dest_lon":127.06511513804952,"total":10.5,"byHour":[0,0,0,0,0,0,1.5,0,0,0,0,0,0,0,1.5,0,0,1.5,3,1.5,0,0,1.5,0],"byMode":{"차량":3,"지하철":7.5}},{"dest_code":"11710520","dest_name":"서울특별시 송파구 풍납2동","dest_lat":37.5301666178514,"dest_lon":127.10816320640797,"total":10.5,"byHour":[0,0,0,0,1,0,1,4,0,0,0,1.5,1.5,0,0,0,0,0,0,1.5,0,0,0,0],"byMode":{"차량":7.5,"지하철":3}},{"dest_code":"11710690","dest_name":"서울특별시 송파구 잠실4동","dest_lat":37.52069986201153,"dest_lon":127.10916169551092,"total":10.5,"byHour":[0,0,0,0,0,0,1.5,0,3.5,0,0,1.5,0,0,0,0,0,1,0,0,3,0,0,0],"byMode":{"지하철":6,"차량":4.5}},{"dest_code":"11410710","dest_name":"서울특별시 서대문구 북가좌1동","dest_lat":37.57541580822367,"dest_lon":126.90809668330418,"total":10.5,"byHour":[0,0,0,0,0,0,0,0,0,0,1.5,0,0,0,3,0,0,0,0,0,0,6,0,0],"byMode":{"지하철":3,"차량":7.5}},{"dest_code":"11230750","dest_name":"서울특별시 동대문구 이문2동","dest_lat":37.60284072913704,"dest_lon":127.06751568293367,"total":10.5,"byHour":[0,0,0,0,0,0,0,0,0,0,0,2,0,4,0,1,2,0,0,0,1.5,0,0,0],"byMode":{"일반버스":2,"지하철":2,"기타":6.5}},{"dest_code":"11710646","dest_name":"서울특별시 송파구 장지동","dest_lat":37.482973920923705,"dest_lon":127.13150452137992,"total":10.5,"byHour":[1.5,0,0,0,0,0,0,0,0,0,0,0,1.5,0,0,1.5,3,0,0,1.5,1.5,0,0,0],"byMode":{"지하철":7.5,"차량":3}},{"dest_code":"11320513","dest_name":"서울특별시 도봉구 창3동","dest_lat":37.63729397628067,"dest_lon":127.04172477409548,"total":10.5,"byHour":[0,0,0,0,0,0,0,1.5,0,0,0,0,1.5,0,0,1.5,2,0,4,0,0,0,0,0],"byMode":{"차량":3,"기타":6,"지하철":1.5}},{"dest_code":"11740515","dest_name":"서울특별시 강동구 강일동","dest_lat":37.568941079825045,"dest_lon":127.1733563199527,"total":10.5,"byHour":[1.5,0,0,0,0,0,0,0,0,0,0,0,0,0,0,0,0,1.5,0,4.5,3,0,0,0],"byMode":{"차량":4.5,"지하철":6}},{"dest_code":"11350670","dest_name":"서울특별시 노원구 상계5동","dest_lat":37.66600955926868,"dest_lon":127.06999865156484,"total":10,"byHour":[2,0,0,0,0,0,0,0,0,0,0,0,0,1,0,4,1.5,0,1.5,0,0,0,0,0],"byMode":{"차량":8.5,"지하철":1.5}},{"dest_code":"41410000","dest_name":"경기도 군포시","dest_lat":37.38749950050759,"dest_lon":126.87595792662376,"total":10,"byHour":[0,2,0,0,1.5,2,0,0,0,0,0,0,0,0,0,0,3,1.5,0,0,0,0,0,0],"byMode":{"지하철":4,"차량":6}},{"dest_code":"42110000","dest_name":"강원도 춘천시","dest_lat":37.8744378137003,"dest_lon":127.75357700812097,"total":10,"byHour":[0,0,0,0,1.5,0,0,2,2,1.5,1.5,0,0,0,0,1.5,0,0,0,0,0,0,0,0],"byMode":{"차량":7,"지하철":3}},{"dest_code":"11680656","dest_name":"서울특별시 강남구 도곡2동","dest_lat":37.48827562630961,"dest_lon":127.04979801350092,"total":10,"byHour":[0,0,0,0,0,0,0.5,0.5,2,2,0,3,0,0,0,0,0,2,0,0,0,0,0,0],"byMode":{"지하철":5,"차량":5}},{"dest_code":"42720000","dest_name":"강원도 홍천군","dest_lat":37.780816866581404,"dest_lon":128.00310130753468,"total":10,"byHour":[0,0,0,0,0,0,0,1.5,0,0,1.5,0,0,0,4,0,0,0,3,0,0,0,0,0],"byMode":{"차량":10}},{"dest_code":"11710641","dest_name":"서울특별시 송파구 문정1동","dest_lat":37.48844250844521,"dest_lon":127.12690351618788,"total":10,"byHour":[0,0,0,0,0,0,0,2,0,1.5,0,0,2,1.5,0,0,0,0,0,2,1,0,0,0],"byMode":{"지하철":4,"차량":6}},{"dest_code":"11530510","dest_name":"서울특별시 구로구 신도림동","dest_lat":37.51003038058756,"dest_lon":126.88217457888476,"total":10,"byHour":[1.5,0,0,0,0,0,0,4,0,0,0,0,0,0,0,0,1.5,3,0,0,0,0,0,0],"byMode":{"지하철":8.5,"일반버스":1.5}},{"dest_code":"11500520","dest_name":"서울특별시 강서구 등촌1동","dest_lat":37.55585907387817,"dest_lon":126.85960959745547,"total":9.5,"byHour":[1.5,0,0,0,0,0,1.5,0,0,1.5,0,0,2,0,0,0,0,1.5,0,1.5,0,0,0,0],"byMode":{"차량":4.5,"지하철":5}},{"dest_code":"28710000","dest_name":"인천광역시 강화군","dest_lat":37.71030363838855,"dest_lon":126.34891157564104,"total":9.5,"byHour":[1.5,0,0,0,0,0,0,0,0,5,0,0,3,0,0,0,0,0,0,0,0,0,0,0],"byMode":{"차량":9.5}},{"dest_code":"11740650","dest_name":"서울특별시 강동구 성내2동","dest_lat":37.53440211933332,"dest_lon":127.12770532534653,"total":9.5,"byHour":[0,0,0,0,0,1.5,0,0,1.5,1.5,3,0,0,0,0,0,0.5,0,0,0,0,1.5,0,0],"byMode":{"차량":3,"지하철":6.5}},{"dest_code":"11410690","dest_name":"서울특별시 서대문구 남가좌1동","dest_lat":37.57181729704554,"dest_lon":126.91627890035964,"total":9.5,"byHour":[0,0,0,0,0,0,0,0,0,0,3,0,2,1.5,0,1.5,0,0,0,0,0,0,1.5,0],"byMode":{"지하철":3,"차량":4.5,"기타":2}},{"dest_code":"11350624","dest_name":"서울특별시 노원구 중계4동","dest_lat":37.65936386768401,"dest_lon":127.08251558546104,"total":9.5,"byHour":[0,0,0,0,0,0,0,0,0,0,0,0,1.5,2,0,0,0,3,1.5,0,1.5,0,0,0],"byMode":{"지하철":6.5,"차량":3}},{"dest_code":"11350700","dest_name":"서울특별시 노원구 상계8동","dest_lat":37.66652471977377,"dest_lon":127.05350427757747,"total":9.5,"byHour":[0,0,0,0,0,0,1.5,0,0,1.5,0,1.5,0,1.5,0,0,0,1.5,2,0,0,0,0,0],"byMode":{"지하철":8,"차량":1.5}},{"dest_code":"11620725","dest_name":"서울특별시 관악구 조원동","dest_lat":37.48282396573309,"dest_lon":126.9073482716966,"total":9.5,"byHour":[0,0,0,0,0,0,0,0,0,0,2,0,0,1.5,0,1.5,1.5,0,1.5,1.5,0,0,0,0],"byMode":{"차량":6,"지하철":3.5}},{"dest_code":"11590560","dest_name":"서울특별시 동작구 상도4동","dest_lat":37.49742138615788,"dest_lon":126.94066964463084,"total":9,"byHour":[3,0,0,0,0,0,0,0,0,0,0,1.5,0,0,1.5,0,1.5,1.5,0,0,0,0,0,0],"byMode":{"차량":4.5,"지하철":4.5}},{"dest_code":"11170520","dest_name":"서울특별시 용산구 용산2가동","dest_lat":37.537883593164416,"dest_lon":126.9850861680424,"total":9,"byHour":[0,0,0,0,0,0,0,1.5,0,1.5,0,0,3,0,0,0,0,1.5,0,0,1.5,0,0,0],"byMode":{"도보":3,"지하철":1.5,"기타":1.5,"차량":3}},{"dest_code":"11440630","dest_name":"서울특별시 마포구 신수동","dest_lat":37.545655989935085,"dest_lon":126.9347934259029,"total":9,"byHour":[0,1.5,0,0,0,0,0,0,4,0,0,0,0,0,2,0,0,0,0,0,0,0,0,1.5],"byMode":{"지하철":7.5,"차량":1.5}},{"dest_code":"11380632","dest_name":"서울특별시 은평구 신사2동","dest_lat":37.592855159379226,"dest_lon":126.90619972620344,"total":9,"byHour":[0,0,0,0,0,0,0,0,0,1,0,0,4,0,0,0,0,0,2,0,2,0,0,0],"byMode":{"지하철":7,"차량":2}},{"dest_code":"11110580","dest_name":"서울특별시 종로구 교남동","dest_lat":37.57106499942922,"dest_lon":126.96411821359328,"total":9,"byHour":[0,0,0,0,0,0,0,0,1.5,0,1.5,0,0,1,0,0,2,0,1,0,0,2,0,0],"byMode":{"차량":1.5,"지하철":5.5,"기타":2}},{"dest_code":"11710566","dest_name":"서울특별시 송파구 오륜동","dest_lat":37.51742909164448,"dest_lon":127.12883529004348,"total":9,"byHour":[0,0,0,1.5,0,0,1.5,0,0,0,0,0,3,0,0,0,0,0,0,1.5,1.5,0,0,0],"byMode":{"차량":6,"지하철":1.5,"기타":1.5}},{"dest_code":"42730000","dest_name":"강원도 횡성군","dest_lat":37.47831589647669,"dest_lon":128.0413573577759,"total":9,"byHour":[0,0,0,0,0,0,0,0,0,2,0,1.5,0,0,0,5.5,0,0,0,0,0,0,0,0],"byMode":{"차량":9}},{"dest_code":"11740580","dest_name":"서울특별시 강동구 암사2동","dest_lat":37.55703258047762,"dest_lon":127.12368602677375,"total":8.5,"byHour":[0,0,0,0,0,0,0,0,0,1.5,0,0,0,0,2.5,1.5,0,0,0,0,0,0,3,0],"byMode":{"차량":4,"지하철":4.5}},{"dest_code":"11560515","dest_name":"서울특별시 영등포구 영등포본동","dest_lat":37.5136750265938,"dest_lon":126.90953128957892,"total":8.5,"byHour":[0,0,0,0,0,0,0,0,1.5,0,0,0,2.5,0,0,0,3,1.5,0,0,0,0,0,0],"byMode":{"지하철":5.5,"기타":3}},{"dest_code":"11500590","dest_name":"서울특별시 강서구 화곡본동","dest_lat":37.5426355037639,"dest_lon":126.84811811679272,"total":8,"byHour":[0,1,0,0,0,0,0,0,0,0,0,0,3,0,0,1.5,0,0,1,0,0,0,1.5,0],"byMode":{"차량":2.5,"지하철":5.5}},{"dest_code":"11500605","dest_name":"서울특별시 강서구 가양3동","dest_lat":37.56080688286481,"dest_lon":126.86109864446476,"total":8,"byHour":[0,0,0,2,0,0,0,2,0,0,0,0,0,0,0,0,0,0,4,0,0,0,0,0],"byMode":{"지하철":8}},{"dest_code":"11620585","dest_name":"서울특별시 관악구 낙성대동","dest_lat":37.467688419684144,"dest_lon":126.95984335131286,"total":8,"byHour":[0,0,0,1.5,0,0,3,0,0,0,0,0,0,1,0,0,0,0,1,0,0,0,1.5,0],"byMode":{"차량":6,"지하철":2}},{"dest_code":"11650610","dest_name":"서울특별시 서초구 방배2동","dest_lat":37.4732060607648,"dest_lon":126.98842374274712,"total":8,"byHour":[0,0,0,0,0,0,0,0,0,0,1.5,0,0,1.5,0,0,0,3.5,0,0,1.5,0,0,0],"byMode":{"지하철":6.5,"차량":1.5}},{"dest_code":"11590670","dest_name":"서울특별시 동작구 신대방1동","dest_lat":37.48998348036957,"dest_lon":126.91067169054448,"total":8,"byHour":[0,0,0,0,1.5,0,0,0,1.5,0,0,0,0,1,0,0,0,1.5,0,1,0,1.5,0,0],"byMode":{"지하철":5,"차량":3}},{"dest_code":"11590550","dest_name":"서울특별시 동작구 상도3동","dest_lat":37.49756508302333,"dest_lon":126.9329331821373,"total":8,"byHour":[0,0,0,0,0,0,0,0,0,0,0,0,0,0,0,1.5,0,0,2.5,0,0,4,0,0],"byMode":{"차량":4.5,"지하철":3.5}},{"dest_code":"11500591","dest_name":"서울특별시 강서구 화곡6동","dest_lat":37.55172114803463,"dest_lon":126.85123082314595,"total":8,"byHour":[1.5,0,0,0,0,0,0,0,0,0,0,0,0,0,0,0,1.5,1.5,0,0,1.5,0,2,0],"byMode":{"지하철":8}},{"dest_code":"11620545","dest_name":"서울특별시 관악구 청림동","dest_lat":37.48956266014249,"dest_lon":126.95948144031983,"total":8,"byHour":[0,0,0,0,0,0,4.5,0,0,0,0,0,0,1.5,0,0,0,2,0,0,0,0,0,0],"byMode":{"지하철":2,"차량":6}},{"dest_code":"11320522","dest_name":"서울특별시 도봉구 도봉2동","dest_lat":37.68125464671829,"dest_lon":127.0477027712937,"total":8,"byHour":[0,0,0,0,0,0,0,0,0,0,0,0,1.5,0,0,0,0,0,1.5,3.5,0,0,1.5,0],"byMode":{"차량":3,"지하철":5}},{"dest_code":"11680750","dest_name":"서울특별시 강남구 수서동","dest_lat":37.48692072548294,"dest_lon":127.10014331040334,"total":8,"byHour":[0,0,0,0,0,0,0,0,0,1.5,0,0,0,0,0,1,0,1.5,0,1.5,1,0,0,1.5],"byMode":{"지하철":4.5,"차량":3.5}},{"dest_code":"11620525","dest_name":"서울특별시 관악구 보라매동","dest_lat":37.4903997651064,"dest_lon":126.93257631802736,"total":7.5,"byHour":[0,1.5,0,0,0,0,0,0,0,0,0,0,0,1.5,0,0,0,0,0,2.5,1,0,1,0],"byMode":{"차량":2.5,"지하철":5}},{"dest_code":"11650590","dest_name":"서울특별시 서초구 방배본동","dest_lat":37.495050793874505,"dest_lon":126.98772523527354,"total":7.5,"byHour":[0,0,0,0,0,1.5,0,0,1.5,1.5,0,0,0,0,0,0,0,1.5,1.5,0,0,0,0,0],"byMode":{"기타":1.5,"차량":1.5,"지하철":4.5}},{"dest_code":"41670000","dest_name":"경기도 여주시","dest_lat":37.31553893114828,"dest_lon":127.43933036990093,"total":7.5,"byHour":[0,0,0,0,0,1.5,0,0,0,0,0,0,1.5,0,0,1,1.5,0,0,0,2,0,0,0],"byMode":{"차량":7.5}},{"dest_code":"11350710","dest_name":"서울특별시 노원구 상계9동","dest_lat":37.6676001331898,"dest_lon":127.0621817927983,"total":7.5,"byHour":[0,0,0,0,0,1.5,1.5,0,0,0,0,0,0,0,1.5,0,1.5,0,0,0,0,1.5,0,0],"byMode":{"차량":3,"지하철":4.5}},{"dest_code":"11680600","dest_name":"서울특별시 강남구 대치1동","dest_lat":37.49336319439959,"dest_lon":127.05908993466304,"total":7.5,"byHour":[0,0,1,0,0,0,0,3.5,0,0,0,1,0,2,0,0,0,0,0,0,0,0,0,0],"byMode":{"차량":2.5,"지하철":5}},{"dest_code":"11380631","dest_name":"서울특별시 은평구 신사1동","dest_lat":37.59913960449797,"dest_lon":126.90850630017172,"total":7.5,"byHour":[0,0,0,0,0,0,0,0,0,0,0,1.5,0,0,0,0,1.5,0,3,0,0,0,1.5,0],"byMode":{"차량":1.5,"지하철":6}},{"dest_code":"11530770","dest_name":"서울특별시 구로구 오류1동","dest_lat":37.4968684057227,"dest_lon":126.84164833495925,"total":7.5,"byHour":[0,0,0,0,0,0,0,0,0,0,0,0,0,1.5,0,0,2,4,0,0,0,0,0,0],"byMode":{"지하철":7.5}},{"dest_code":"11740660","dest_name":"서울특별시 강동구 성내3동","dest_lat":37.52834784600046,"dest_lon":127.13377221408268,"total":7.5,"byHour":[0,0,0,0,0,0,0,1.5,0,0,0,1,0,0,0,1.5,1.5,1,1,0,0,0,0,0],"byMode":{"지하철":2.5,"차량":5}},{"dest_code":"11560630","dest_name":"서울특별시 영등포구 신길1동","dest_lat":37.51243114812717,"dest_lon":126.91947932501792,"total":7.5,"byHour":[1.5,0,0,0,0,0,0,0,0,0,0,0,0,0,0,0,1.5,2,0,0,0,1,0,1.5],"byMode":{"차량":4.5,"지하철":3}},{"dest_code":"11620645","dest_name":"서울특별시 관악구 서원동","dest_lat":37.48059931523777,"dest_lon":126.93333223242752,"total":7,"byHour":[0,0,0,1.5,2,0,0,0,0,0,0,0,0,2,0,0,0,0,0,0,1.5,0,0,0],"byMode":{"차량":3,"지하철":4}},{"dest_code":"11380551","dest_name":"서울특별시 은평구 갈현1동","dest_lat":37.625194351134994,"dest_lon":126.91473683285209,"total":7,"byHour":[0,0,0,0,0,1,0,0,1.5,0,0,1.5,1.5,0,0,0,0,1.5,0,0,0,0,0,0],"byMode":{"일반버스":2.5,"지하철":1.5,"차량":3}},{"dest_code":"11650621","dest_name":"서울특별시 서초구 방배4동","dest_lat":37.48983219519618,"dest_lon":126.990978616156,"total":7,"byHour":[1.5,0,0,0,0,0,0,1.5,0,0,0,0,0,1,1.5,0,0,0,0,0,0,0,1.5,0],"byMode":{"차량":4,"지하철":3}},{"dest_code":"11500604","dest_name":"서울특별시 강서구 가양2동","dest_lat":37.56676852402787,"dest_lon":126.8543566480916,"total":7,"byHour":[0,0,0,0,0,0,0,0,0,0,0,0,0,0,0,0,1.5,1,2,2.5,0,0,0,0],"byMode":{"지하철":5,"차량":1,"일반버스":1}},{"dest_code":"11170640","dest_name":"서울특별시 용산구 이촌2동","dest_lat":37.52285650577792,"dest_lon":126.95420581951647,"total":6.5,"byHour":[0,0,0,0,0,0,0,0,0,0,0,0,1.5,1.5,2,0,0,1.5,0,0,0,0,0,0],"byMode":{"차량":5,"일반버스":1.5}},{"dest_code":"11545670","dest_name":"서울특별시 금천구 시흥1동","dest_lat":37.45241027086715,"dest_lon":126.90014751611682,"total":6.5,"byHour":[0,0,0,0,0,0,0,0,0,0,0,0,0,0,0,2,4.5,0,0,0,0,0,0,0],"byMode":{"지하철":6.5}},{"dest_code":"11740560","dest_name":"서울특별시 강동구 고덕2동","dest_lat":37.5651037879116,"dest_lon":127.16275604487758,"total":6.5,"byHour":[0,0,0,0,0,0,0,0,0,0,0,0,1.5,0,0,0,5,0,0,0,0,0,0,0],"byMode":{"차량":6.5}},{"dest_code":"11410520","dest_name":"서울특별시 서대문구 천연동","dest_lat":37.57131965007134,"dest_lon":126.9566540266542,"total":6.5,"byHour":[0,0,0,0,0,0,0,0,0,0,0,0,0,1.5,2,0,0,0,0,0,1.5,1.5,0,0],"byMode":{"지하철":5,"차량":1.5}},{"dest_code":"42210000","dest_name":"강원도 속초시","dest_lat":38.04838921262762,"dest_lon":128.1678974252523,"total":6,"byHour":[0,1,0,1.5,0,0,0,1.5,0,0,0,0,0,0,0,0,0,0,0,0,2,0,0,0],"byMode":{"차량":6}},{"dest_code":"11530595","dest_name":"서울특별시 구로구 가리봉동","dest_lat":37.482693847192856,"dest_lon":126.88806000798644,"total":6,"byHour":[0,0,0,0,0,0,0,1.5,0,0,0,0,0,0,0,0,0,1.5,3,0,0,0,0,0],"byMode":{"차량":3,"지하철":3}},{"dest_code":"41390000","dest_name":"경기도 시흥시","dest_lat":37.47485799700193,"dest_lon":126.7731409367625,"total":6,"byHour":[0,0,0,0,0,0,0,1,0,1.5,0,2,0,0,0,0,0,1.5,0,0,0,0,0,0],"byMode":{"차량":6}},{"dest_code":"11350621","dest_name":"서울특별시 노원구 중계1동","dest_lat":37.65014907056829,"dest_lon":127.07370051549012,"total":6,"byHour":[0,0,0,0,0,0,0,0,0,1.5,1.5,0,0,3,0,0,0,0,0,0,0,0,0,0],"byMode":{"지하철":4.5,"차량":1.5}},{"dest_code":"11470680","dest_name":"서울특별시 양천구 신정7동","dest_lat":37.50987688932637,"dest_lon":126.86540807073112,"total":6,"byHour":[3,0,0,0,0,0,0,0,0,0,1.5,0,0,0,0,0,0,1.5,0,0,0,0,0,0],"byMode":{"차량":3,"지하철":3}},{"dest_code":"11560620","dest_name":"서울특별시 영등포구 양평2동","dest_lat":37.54350560446898,"dest_lon":126.89059120594035,"total":6,"byHour":[0,0,0,0,0,0,0,0,0,0,1,0,0,0,0,1.5,0,0,0,2,0,1.5,0,0],"byMode":{"지하철":6}},{"dest_code":"11500540","dest_name":"서울특별시 강서구 화곡1동","dest_lat":37.53377324482262,"dest_lon":126.84092197413597,"total":6,"byHour":[0,0,0,0,0,0,0,0,0,0,1.5,0,0,0,0,0,1.5,0,0,3,0,0,0,0],"byMode":{"지하철":6}},{"dest_code":"11410700","dest_name":"서울특별시 서대문구 남가좌2동","dest_lat":37.57792789374408,"dest_lon":126.92134583020304,"total":6,"byHour":[0,0,0,0,0,0,0,0,0,0,0,0,3,0,0,0,0,0,0,0,0,0,3,0],"byMode":{"차량":4.5,"지하철":1.5}},{"dest_code":"11470590","dest_name":"서울특별시 양천구 신월4동","dest_lat":37.52215532501072,"dest_lon":126.8398530427382,"total":5.5,"byHour":[2,0,1.5,0,0,0,0,0,0,0,0,0,0,0,0,0,2,0,0,0,0,0,0,0],"byMode":{"지하철":3.5,"차량":2}},{"dest_code":"11500550","dest_name":"서울특별시 강서구 화곡2동","dest_lat":37.532261887349534,"dest_lon":126.85438256155751,"total":5.5,"byHour":[0,0,0,0,0,0,0,0,0,1.5,0,0,2,0,0,0,0,0,2,0,0,0,0,0],"byMode":{"차량":1.5,"지하철":4}},{"dest_code":"11500641","dest_name":"서울특별시 강서구 방화3동","dest_lat":37.58211504505231,"dest_lon":126.81759007551284,"total":5.5,"byHour":[0,0,0,0,0,0,0,0,0,0,0,2,0,0,0,3.5,0,0,0,0,0,0,0,0],"byMode":{"지하철":2,"차량":3.5}},{"dest_code":"11710580","dest_name":"서울특별시 송파구 송파1동","dest_lat":37.50717835993431,"dest_lon":127.1103660800039,"total":5.5,"byHour":[1,0,0,0,0,0,0,0,1.5,0,0,1.5,0,0,1.5,0,0,0,0,0,0,0,0,0],"byMode":{"지하철":4,"기타":1.5}},{"dest_code":"11410655","dest_name":"서울특별시 서대문구 홍제2동","dest_lat":37.584386176185454,"dest_lon":126.95251363483156,"total":5.5,"byHour":[0,0,0,0,0,0,0,0,0,0,0,0,2,0,0,2,0,1.5,0,0,0,0,0,0],"byMode":{"지하철":5.5}},{"dest_code":"11620605","dest_name":"서울특별시 관악구 은천동","dest_lat":37.48699909360007,"dest_lon":126.94209911030376,"total":5.5,"byHour":[0,0,0,0,0,0,1.5,0,0,0,0,0,0,0,0,2,0,0,2,0,0,0,0,0],"byMode":{"지하철":4,"차량":1.5}},{"dest_code":"11590540","dest_name":"서울특별시 동작구 상도2동","dest_lat":37.50368119978703,"dest_lon":126.94187036566096,"total":5.5,"byHour":[0,0,0,0,0,0,0,0,0,0,0,0,0,0,0,2,0,0,0,0,3.5,0,0,0],"byMode":{"차량":5.5}},{"dest_code":"11380640","dest_name":"서울특별시 은평구 증산동","dest_lat":37.5841279240836,"dest_lon":126.9059397715006,"total":5.5,"byHour":[0,0,0,0,0,0,0,0,0,2,0,0,0,1.5,0,0,0,0,2,0,0,0,0,0],"byMode":{"지하철":4,"차량":1.5}},{"dest_code":"11500570","dest_name":"서울특별시 강서구 화곡4동","dest_lat":37.53608099048408,"dest_lon":126.85859684945628,"total":5.5,"byHour":[0,0,0,0,0,0,0,0,0,0,0,0,0,0,0,0,0,0,4,0,0,1.5,0,0],"byMode":{"지하철":4,"차량":1.5}},{"dest_code":"11710532","dest_name":"서울특별시 송파구 거여2동","dest_lat":37.492297411111146,"dest_lon":127.14712937784984,"total":5.5,"byHour":[0,0,0,0,0,0,0,0,1.5,0,0,0,0,0,0,0,0,0,1,0,0,2,1,0],"byMode":{"지하철":4,"차량":1.5}},{"dest_code":"42150000","dest_name":"강원도 강릉시","dest_lat":37.62382066474987,"dest_lon":128.3400597919195,"total":5.5,"byHour":[0,0,0,0,0,2.5,0,0,0,0,1.5,0,0,0,0,0,0,0,1.5,0,0,0,0,0],"byMode":{"차량":5.5}},{"dest_code":"11740640","dest_name":"서울특별시 강동구 성내1동","dest_lat":37.52869171980002,"dest_lon":127.1255403314639,"total":5.5,"byHour":[0,0,0,0,0,0,0,1.5,0,0,0,0,0,0,0,0,0,1.5,1.5,0,0,0,1,0],"byMode":{"지하철":2.5,"차량":3}},