{"meta":{"origin":{"lat":37.56853537429577,"lon":127.02084550975484,"name":"서울시 중구 황학동"},"origin_code":"11140670","date":"20260417","label":"평일 (4/17 금)","day_type":"weekday","mode_labels":{"1":"항공","2":"기차","3":"고속버스","4":"광역버스","5":"일반버스","6":"지하철","7":"도보","8":"차량","9":"기타"},"hours":["00:00","01:00","02:00","03:00","04:00","05:00","06:00","07:00","08:00","09:00","10:00","11:00","12:00","13:00","14:00","15:00","16:00","17:00","18:00","19:00","20:00","21:00","22:00","23:00"],"generated_at":"2026-06-11T05:44:29.767Z"},"summary":{"total_pop":24622.41,"row_count":5803,"dest_count":490,"hour_totals":[564.27,276.58,170.47,166.5,164.49,425.8,769.94,1469.85,2030.62,1309.34,1149.76,1126.91,1259.83,1126.78,1169.75,1206.81,1425.54,1782.83,1500.62,1381.54,1354.86,1150.98,951.38,686.96],"mode_totals":{"4":10.57,"5":2681.27,"6":6607.43,"7":7174.53,"8":5381.15,"9":2767.46},"hour_mode":[{"5":63.47,"6":73.81,"7":123.72,"8":242.76,"9":60.51},{"5":32.78,"6":14,"7":91.35,"8":102.62,"9":35.83},{"5":14.99,"6":2.72,"7":56.19,"8":81.87,"9":14.7},{"5":18.26,"6":3.05,"7":62.68,"8":76.35,"9":6.16},{"5":16.34,"6":3.5,"7":69.52,"8":51.53,"9":23.6},{"5":63.91,"6":98.62,"7":72.83,"8":156.18,"9":34.26},{"5":77.47,"6":186.96,"7":138.91,"8":304.45,"9":62.15},{"4":3.62,"5":131.88,"6":627.5,"7":229.63,"8":288.64,"9":188.58},{"5":217.21,"6":835.48,"7":399.72,"8":369.18,"9":209.03},{"5":127.18,"6":430.81,"7":318.08,"8":300.81,"9":132.46},{"4":3.5,"5":132.22,"6":291.17,"7":315.51,"8":274.6,"9":132.76},{"5":138.7,"6":301.37,"7":337.69,"8":236.09,"9":113.06},{"5":181.65,"6":257.95,"7":413.51,"8":246.9,"9":159.82},{"5":148.18,"6":215.9,"7":341.96,"8":258.4,"9":162.34},{"5":152,"6":293.71,"7":314.29,"8":254.15,"9":155.6},{"4":3.45,"5":152.08,"6":265.76,"7":329.14,"8":319.28,"9":137.1},{"5":165.21,"6":421.16,"7":372.65,"8":232.42,"9":234.1},{"5":138.7,"6":590.04,"7":495.35,"8":314.2,"9":244.54},{"5":132.88,"6":547.81,"7":433.49,"8":246.64,"9":139.8},{"5":161.43,"6":307.69,"7":486.41,"8":271.31,"9":154.7},{"5":171.29,"6":306.98,"7":539.08,"8":229.79,"9":107.72},{"5":115.65,"6":262.34,"7":409.42,"8":233.71,"9":129.86},{"5":89.22,"6":189.33,"7":386.95,"8":195.61,"9":90.27},{"5":38.57,"6":79.77,"7":436.45,"8":93.66,"9":38.51}]},"destinations":[{"dest_code":"11200535","dest_name":"왕십리도선동","dest_lat":37.566853341720424,"dest_lon":127.02960478797033,"total":1823.2,"byHour":[30.39,40.64,12.81,9.97,9.02,31.96,27.64,46.2,71.79,70.3,95.61,86.54,71.88,96.28,87.43,89.87,97.22,111.39,135.73,87,113.93,143.21,131.63,124.76],"byMode":{"5":174.2,"6":51.35,"7":1352.44,"8":122.21,"9":123}},{"dest_code":"11140615","dest_name":"신당동","dest_lat":37.56569203810708,"dest_lon":127.01370437736729,"total":1485.77,"byHour":[26.01,24.67,5.51,9.27,19.97,23.65,31.13,58.48,79.44,54.78,41.08,70.81,98.41,85.63,79.17,64.37,60.11,97.4,73.12,122.19,136.66,62.62,83.06,78.23],"byMode":{"5":65.86,"6":17.99,"7":1286.79,"8":16.4,"9":98.73}},{"dest_code":"11140650","dest_name":"신당5동","dest_lat":37.563635446846554,"dest_lon":127.02186699672765,"total":1291.1,"byHour":[38.08,17.5,17.56,18.18,6.77,9.97,20.66,7,40.51,72.22,51.57,50.94,41.4,61.54,79.43,54.6,61.01,85.23,81.63,116.31,138.99,66.18,73.92,79.9],"byMode":{"5":74.73,"6":39.22,"7":1075.11,"8":35.31,"9":66.73}},{"dest_code":"11110640","dest_name":"이화동","dest_lat":37.579720415124406,"dest_lon":127.00302249905796,"total":654.4,"byHour":[25.09,3.5,0,9.95,0,7.37,44.78,23.8,65.42,33.5,31.24,23.71,37.77,28.84,30.35,37.12,56.22,29.12,21.06,58.63,15.16,43.46,22.03,6.28],"byMode":{"5":87.6,"6":53.92,"7":142.37,"8":231.78,"9":138.73}},{"dest_code":"11140590","dest_name":"광희동","dest_lat":37.56515667820614,"dest_lon":127.0037641565018,"total":569.65,"byHour":[5.97,0,3.5,6.79,10.52,9.5,12.69,18.72,57.07,34.72,25.34,31.83,72.65,57.22,30.83,31.95,25.11,19.5,20.59,25.45,26.47,9.88,23.13,10.22],"byMode":{"5":108.73,"6":65.76,"7":268.19,"8":58.16,"9":68.81}},{"dest_code":"11110710","dest_name":"숭인2동","dest_lat":37.57449028350606,"dest_lon":127.02034252028352,"total":555.2,"byHour":[3.04,8.35,0,0,7,7,6.47,4.27,33.5,19.2,36.78,10.74,42.05,16.42,34.42,37.37,21.49,22.9,19.48,42.75,23.06,64.87,32.99,61.05],"byMode":{"5":16.37,"6":3.5,"7":460.22,"8":17.92,"9":57.19}},{"dest_code":"11140665","dest_name":"동화동","dest_lat":37.56071034367642,"dest_lon":127.01865212037565,"total":510.9,"byHour":[3.5,2.71,2.71,3.5,3.87,3.5,3.5,14.8,36.16,9.96,25.73,29.92,31.58,44.3,18.15,17.42,41.99,37.89,48.21,47.05,45.68,10.93,6.31,21.53],"byMode":{"5":25.62,"6":3.64,"7":410.07,"8":23.76,"9":47.81}},{"dest_code":"11140550","dest_name":"명동","dest_lat":37.56395198524864,"dest_lon":126.9843039812854,"total":489.76,"byHour":[3.5,0,0,0,0,11.83,23.73,74.52,112.87,21.6,45.54,30.84,30.44,24.28,17.33,9.91,27.48,10.8,21.83,6.53,3.5,8.39,0,4.84],"byMode":{"5":132.5,"6":234.63,"7":39.31,"8":47.97,"9":35.35}},{"dest_code":"11200520","dest_name":"왕십리2동","dest_lat":37.56145032465671,"dest_lon":127.02772577618587,"total":422.63,"byHour":[11.11,0,3.5,0,0,0,14.18,19.54,11.19,18,7.21,20.33,33.01,18.51,17.06,29.38,35.15,45.78,17.03,35.48,32.45,37.32,9.23,7.17],"byMode":{"5":32.98,"6":14.87,"7":284.4,"8":44.34,"9":46.04}},{"dest_code":"11110615","dest_name":"종로1.2.3.4가동","dest_lat":37.5751851101178,"dest_lon":126.98986468781811,"total":396.69,"byHour":[10.5,0,0,2.54,0,13.43,10.5,44.11,46.33,41.3,33.53,38.77,25.26,12.73,7.4,7,18.15,13.8,13.28,2.72,14.93,21.93,15.58,2.9],"byMode":{"5":51.99,"6":213.36,"7":65.01,"8":27.28,"9":39.05}},{"dest_code":"11230515","dest_name":"신설동","dest_lat":37.582009248236886,"dest_lon":127.05487392733536,"total":385.18,"byHour":[11.35,0,12.93,0,0,8,3.41,13.27,28.58,20.72,6.43,26.86,24.65,9.41,13.72,27.25,27.64,34.7,23.83,30.31,23.01,22.04,11.2,5.87],"byMode":{"5":60.45,"6":14.25,"7":229.66,"8":22.89,"9":57.93}},{"dest_code":"41360000","dest_name":"","dest_lat":null,"dest_lon":null,"total":282.78,"byHour":[7.24,3.5,7,0,10.5,16.79,13.34,10.59,11.48,25.77,6.86,7.86,14.04,5.7,3.5,11.48,12.63,17.52,24.02,6.37,16.43,34.44,12.22,3.5],"byMode":{"5":17.77,"6":48.22,"8":216.79}},{"dest_code":"11140625","dest_name":"다산동","dest_lat":37.55493348743512,"dest_lon":127.00835522995278,"total":268.45,"byHour":[3.09,7.49,3.5,3.1,0,0,14.17,11.31,10.07,14.14,13.32,7.28,27.07,7.4,7.24,18.73,15.61,13.45,3.5,31.1,4.45,10.83,23.49,18.11],"byMode":{"5":37.34,"6":32.2,"7":133.94,"8":26.09,"9":38.88}},{"dest_code":"11200560","dest_name":"행당1동","dest_lat":37.55908846394766,"dest_lon":127.03617446091934,"total":266.81,"byHour":[6.38,0,0,0,0,3.5,8.78,21,21.7,9.98,12.83,24.72,35.45,17.78,12.66,9.34,10.47,13.67,19.53,6.53,13.78,10.13,8.58,0],"byMode":{"5":101.59,"6":41.76,"7":45.17,"8":54.48,"9":23.81}},{"dest_code":"11200540","dest_name":"마장동","dest_lat":37.567419343061054,"dest_lon":127.04059659160531,"total":238.44,"byHour":[7.15,0,0,0,6.94,7.73,3.5,10.75,17.92,14.48,0,15,8.72,4.07,14.45,2.74,0,24.15,31.94,26.65,8.24,22.85,0,11.16],"byMode":{"5":54.4,"6":32.61,"7":76.46,"8":33.38,"9":41.59}},{"dest_code":"11110670","dest_name":"창신1동","dest_lat":37.572369409740254,"dest_lon":127.0138035667275,"total":229.7,"byHour":[6.65,0,3.48,0,7.94,6.85,6.75,20.38,14.09,14.19,13.72,3.5,11.01,12.41,13.34,0,3.5,6.81,20.51,24.1,10.32,9.44,7,13.71],"byMode":{"5":3.98,"6":3.5,"7":180.79,"8":9.37,"9":32.06}},{"dest_code":"11200550","dest_name":"사근동","dest_lat":37.55812210462368,"dest_lon":127.04539498048129,"total":225.17,"byHour":[6.19,3.91,0,0,3.36,0,3.5,14.92,20.25,7.18,8.4,20.33,20.67,15.13,11.5,2.99,19.03,16.63,13.9,14,7.09,7.31,5.38,3.5],"byMode":{"5":65.56,"6":44.96,"7":45.98,"8":32.16,"9":36.51}},{"dest_code":"11140540","dest_name":"회현동","dest_lat":37.556941169823126,"dest_lon":126.97710184371687,"total":218.29,"byHour":[0,0,0,0,2.93,6.86,13.72,21.37,48.54,21.38,26.69,0,7.37,0,26.59,14.3,2.86,4.47,0,7.31,2.86,3.5,0,7.54],"byMode":{"4":10.57,"5":106.22,"6":84.3,"7":7,"8":6.89,"9":3.31}},{"dest_code":"11140605","dest_name":"을지로동","dest_lat":37.56662089067183,"dest_lon":126.99656106916466,"total":211.76,"byHour":[0,0,0,0,3.21,3.44,10.5,29.06,9.48,30.78,7.71,5.31,17.85,6.93,13.08,0,20.22,17.56,2.58,2.58,11.98,14.45,0,5.04],"byMode":{"5":35.34,"6":82.92,"7":48.3,"8":23.36,"9":21.84}},{"dest_code":"11140520","dest_name":"소공동","dest_lat":37.56425948239558,"dest_lon":126.974374701073,"total":202.86,"byHour":[0,0,0,0,0,7.14,16.36,19.41,50.2,10.5,7.14,7.8,8.3,26.66,0,9.85,7.46,13.68,7,6.89,0,0,0,4.47],"byMode":{"5":32.51,"6":133.3,"7":18.23,"8":9.36,"9":9.46}},{"dest_code":"11680640","dest_name":"역삼1동","dest_lat":37.50084456440553,"dest_lon":127.03549896919056,"total":194.31,"byHour":[2.82,0,0,7.31,0,7.08,7,41.59,36.82,27.69,7.14,7.28,0,3.71,0,7,7.8,8,8.22,9.4,0,5.45,0,0],"byMode":{"6":126.49,"8":49.32,"9":18.5}},{"dest_code":"11200570","dest_name":"행당2동","dest_lat":37.55667485645122,"dest_lon":127.0296559501475,"total":190.8,"byHour":[7.86,0,0,4.2,0,3.5,0,3.22,6.96,4.5,6.17,4.26,3.6,4.38,14.79,14.72,18.57,30.79,4.01,15.11,10.09,11.49,14.9,7.68],"byMode":{"5":51.02,"6":18.74,"7":78.3,"8":7.88,"9":34.86}},{"dest_code":"41135000","dest_name":"","dest_lat":null,"dest_lon":null,"total":183.87,"byHour":[3.5,0,0,0,0,7.07,24.51,24.02,17.08,10.02,23.99,3.5,7,3.5,7.28,8.25,0,9.37,12.29,3.26,5.82,6.41,3.5,3.5],"byMode":{"5":6.91,"6":52.39,"8":124.57}},{"dest_code":"11110630","dest_name":"종로5.6가동","dest_lat":37.57285780172435,"dest_lon":127.00439896298903,"total":183.72,"byHour":[7,0,0,3.5,0,3.5,10.29,10.36,31.84,14.14,3.5,18.31,6.42,12.15,10.87,18.1,20.12,0,0,0,13.62,0,0,0],"byMode":{"5":20.27,"6":10.64,"7":119.48,"8":10.5,"9":22.83}},{"dest_code":"11200690","dest_name":"성수2가3동","dest_lat":37.54557042563956,"dest_lon":127.05808300016021,"total":166.4,"byHour":[0,3.5,0,0,0,0,3.05,10.1,19.99,20.55,16.91,10.97,14,3.5,11.35,6.84,7.18,8.43,8.31,0,14.35,0,7.37,0],"byMode":{"5":23.55,"6":83.73,"7":14.21,"8":18.17,"9":26.74}},{"dest_code":"11230545","dest_name":"제기동","dest_lat":37.583749097632634,"dest_lon":127.03722489171301,"total":156.44,"byHour":[10.87,6.41,0,0,3.36,3.5,0,3.68,9.96,14.49,4.01,3.5,23.97,2.27,7.39,3.41,0,10.75,13.86,7.51,7,10.48,6.52,3.5],"byMode":{"5":26.55,"6":37.2,"7":47.91,"8":27.11,"9":17.67}},{"dest_code":"11290600","dest_name":"안암동","dest_lat":37.58772731341445,"dest_lon":127.0272202199731,"total":144.01,"byHour":[0,3.11,0,0,0,0,0,13.27,24.17,22.12,3.62,0,2.82,0,3.64,10.62,0,17.03,15.19,7.16,11.18,7,3.08,0],"byMode":{"5":19.39,"6":43.43,"7":52.6,"8":3.76,"9":24.83}},{"dest_code":"11680510","dest_name":"신사동","dest_lat":37.48582557530138,"dest_lon":126.91862482695264,"total":142.45,"byHour":[9.31,3.5,3.5,0,3.5,4.5,3.5,14.89,17.02,10.5,6.92,2.24,2.51,3.5,11.68,3.21,10.5,17.1,3.21,2.15,6.9,0,0,2.31],"byMode":{"5":14,"6":35.06,"7":10.26,"8":54.35,"9":28.78}},{"dest_code":"11170685","dest_name":"한남동","dest_lat":37.53752670451259,"dest_lon":127.00517642150817,"total":141.64,"byHour":[0,0,0,0,0,0,5.75,24.12,6.71,3.44,17.51,2.93,6.32,6.56,3.5,7.55,14.14,13.81,10.83,3.05,3.09,6.75,3.5,2.08],"byMode":{"5":37.06,"6":44.14,"7":2.42,"8":12.69,"9":45.33}},{"dest_code":"11140570","dest_name":"필동","dest_lat":37.556865527339994,"dest_lon":126.9937710670784,"total":135.68,"byHour":[0,0,0,0,0,0,0,0,45.72,14.04,6.06,10.97,7,7,11.67,0,5.78,3.17,11.3,0,3.5,6.3,0,3.17],"byMode":{"5":47.62,"6":40.75,"7":24.86,"8":8.08,"9":14.37}},{"dest_code":"41150000","dest_name":"","dest_lat":null,"dest_lon":null,"total":135.43,"byHour":[7,4.3,0,3.5,0,3.5,0,10.5,8,0,3.49,11.11,0,7.63,8.22,10.5,11.68,11.4,12.59,11.54,0,10.47,0,0],"byMode":{"6":59.04,"8":76.39}},{"dest_code":"11560540","dest_name":"여의동","dest_lat":37.528505789107804,"dest_lon":126.92847171849878,"total":130.99,"byHour":[0,0,0,0,0,0,11.39,36.19,22.72,16.05,0,20.64,0,0,3.5,3.95,3.5,8.51,2.43,0,0,0,2.11,0],"byMode":{"5":5.83,"6":87.1,"8":31.06,"9":7}},{"dest_code":"11290705","dest_name":"종암동","dest_lat":37.59744123601206,"dest_lon":127.03386559835234,"total":130.28,"byHour":[0,3.5,0,3.5,0,0,7.28,0,7.8,3.48,3.12,0,7.15,2.94,3.65,3.5,7.86,18.06,16.71,6.07,13.81,12.85,3.19,5.81],"byMode":{"5":21.82,"6":37.24,"7":11.32,"8":12.63,"9":47.27}},{"dest_code":"11680580","dest_name":"삼성1동","dest_lat":37.515304490815694,"dest_lon":127.06080229728146,"total":127.78,"byHour":[0,1.98,0,0,0,3.5,10.22,14.32,31.57,7.66,24.13,0,10.5,10.35,3.05,0,0,0,0,0,7,3.5,0,0],"byMode":{"5":7,"6":81.18,"8":15.38,"9":24.22}},{"dest_code":"41281000","dest_name":"","dest_lat":null,"dest_lon":null,"total":121.52,"byHour":[9.28,0,0,0,3.5,3.5,3.31,11.38,3.5,3.19,0,14.64,3.5,0,4.5,3.5,11.43,16.33,9.94,3.5,7,6.69,2.83,0],"byMode":{"6":42.95,"8":78.57}},{"dest_code":"11230560","dest_name":"전농1동","dest_lat":37.57921920382841,"dest_lon":127.05095444400315,"total":119.45,"byHour":[7.53,0,0,0,3.72,0,0,0,3.31,7.23,18.02,7.15,6.94,3.5,0,11.64,3.85,17.07,3.69,7.18,4.15,10.54,3.93,0],"byMode":{"5":29.04,"6":11.31,"7":29.27,"8":29.96,"9":19.87}},{"dest_code":"11200615","dest_name":"금호2.3가동","dest_lat":37.551403228517714,"dest_lon":127.01996841446868,"total":118.67,"byHour":[0,0,0,0,0,0,0,7.79,7,0,6.32,3.5,3.62,7.88,3.5,7.4,20.14,18.9,14.22,3.5,11.4,0,3.5,0],"byMode":{"5":18.01,"6":15.51,"7":41.62,"8":15.96,"9":27.57}},{"dest_code":"11200650","dest_name":"성수1가1동","dest_lat":37.54079129639183,"dest_lon":127.04226691493619,"total":117.95,"byHour":[0,0,0,0,0,0,0,10.12,16.41,10.04,10.98,10.44,2.25,10.5,0,10.95,3.5,7.81,0,3.5,10.87,3.5,3.58,3.5],"byMode":{"5":42.39,"6":39.03,"7":7,"8":6.94,"9":22.59}},{"dest_code":"11290610","dest_name":"보문동","dest_lat":37.58282567320133,"dest_lon":127.01913116701168,"total":117.52,"byHour":[0,0,7.59,4.09,0,0,0,0,10.56,0,7.08,1.24,7.51,0,6.45,11.97,14.39,21.54,6.96,3.5,0,11.14,3.5,0],"byMode":{"5":19.96,"6":9.68,"7":40.23,"8":10.76,"9":36.89}},{"dest_code":"11230533","dest_name":"용두동","dest_lat":37.582009248236886,"dest_lon":127.05487392733536,"total":115.16,"byHour":[0,0,0,0,0,4.3,8.04,0,2.93,0,10.27,16.06,7.7,0,4.5,10.04,23.88,8,0,3.91,7.53,8,0,0],"byMode":{"5":26.74,"6":14.66,"7":27,"8":7.77,"9":38.99}},{"dest_code":"11170625","dest_name":"한강로동","dest_lat":37.529126544010914,"dest_lon":126.96859195571265,"total":110.6,"byHour":[0,3.5,0,0,0,0,0,7.37,13.14,10.58,7.14,9.76,6.58,9.35,0,3.5,5.96,0,10.07,7,13.15,0,3.5,0],"byMode":{"5":3.5,"6":66.2,"7":3.5,"8":23.55,"9":13.85}},{"dest_code":"11440660","dest_name":"서교동","dest_lat":37.55474825664686,"dest_lon":126.9209373158581,"total":108.32,"byHour":[0,0,0,0,0,3.5,0,3.21,9.92,3.05,3.5,10.75,10.68,10.5,10.54,0,3.5,9.88,9.26,7,7,0,2.5,3.53],"byMode":{"6":84.75,"8":9.68,"9":13.89}},{"dest_code":"41450000","dest_name":"","dest_lat":null,"dest_lon":null,"total":108.01,"byHour":[0,2.67,0,0,0,0,7,7,3.31,7.12,7.4,0,10.5,3.5,9.84,0,2.79,9.23,16.56,11.49,3.21,0,6.39,0],"byMode":{"6":42.21,"8":65.8}},{"dest_code":"41310000","dest_name":"","dest_lat":null,"dest_lon":null,"total":107.18,"byHour":[3.81,0,3.5,3.5,0,7,0,0,6.96,3.87,4.01,0,3.5,2.95,3.5,7,6.78,6.82,6.3,10.11,3.68,11,9.39,3.5],"byMode":{"5":6.08,"6":24.54,"8":73.51,"9":3.05}},{"dest_code":"28110000","dest_name":"","dest_lat":null,"dest_lon":null,"total":105.89,"byHour":[7,3.5,0,0,0,7,25.81,6.93,3.5,3.39,0,10.44,0,7,6.04,6.97,4.6,0,3.21,10.5,0,0,0,0],"byMode":{"6":52.76,"8":53.13}},{"dest_code":"11710710","dest_name":"잠실6동","dest_lat":37.51977242300996,"dest_lon":127.09946333893738,"total":104.84,"byHour":[0,0,0,0,0,0,3.5,27.49,24.51,3.5,3.5,3.48,3.5,7.37,11.49,0,2.59,3.41,3.5,3.5,0,3.5,0,0],"byMode":{"5":3.64,"6":78.22,"8":16.65,"9":6.33}},{"dest_code":"11140580","dest_name":"장충동","dest_lat":37.55556223301621,"dest_lon":127.00216552652044,"total":104.79,"byHour":[3.83,0,0,0,0,0,7.71,3.87,3.39,6.86,0,10.78,27.09,7.13,0,3.76,3.5,11.25,0,2.67,9.45,0,0,3.5],"byMode":{"5":23.26,"6":21.3,"7":29.33,"8":12.41,"9":18.49}},{"dest_code":"11410585","dest_name":"신촌동","dest_lat":37.56407622470931,"dest_lon":126.94157870314548,"total":104.22,"byHour":[2.07,0,0,0,0,0,0,13.71,11.5,13.81,7.18,14,3.64,5.79,0,3.5,6.43,0,2.42,9.07,0,4.01,0,7.09],"byMode":{"5":5.57,"6":89.06,"8":3.21,"9":6.38}},{"dest_code":"11110700","dest_name":"숭인1동","dest_lat":37.57718293099928,"dest_lon":127.01689100283882,"total":103.6,"byHour":[3.5,0,0,0,3.5,0,3.5,3.39,7,0,7.2,0,3.5,6.71,0,4.5,0,18.47,3.62,3.5,9.74,3.5,3.92,18.05],"byMode":{"5":2.64,"6":6.71,"7":65.05,"8":3.5,"9":25.7}},{"dest_code":"11110530","dest_name":"사직동","dest_lat":37.573888361464974,"dest_lon":126.97037626951351,"total":101,"byHour":[0,0,0,0,0,0,3.05,6.83,16.67,3.5,10.03,6.14,7.14,7.38,3.06,0,13.33,2.88,3.64,6.65,4.11,0,3.64,2.95],"byMode":{"5":13.14,"6":54.97,"7":6.55,"8":12.79,"9":13.55}},{"dest_code":"11650530","dest_name":"서초3동","dest_lat":37.48551989312191,"dest_lon":127.00945377766683,"total":99.86,"byHour":[0,0,0,0,0,3.44,3.96,9.48,31.28,11.75,3.5,0,7.43,0,6.65,3.52,7,6.55,0,0,5.3,0,0,0],"byMode":{"5":2.93,"6":60.68,"8":29.25,"9":7}},{"dest_code":"11200660","dest_name":"성수1가2동","dest_lat":37.54901484449546,"dest_lon":127.0436492176911,"total":98.1,"byHour":[0,0,0,0,0,3.22,0,0,13.83,10.31,2.93,3.5,3.14,6.15,9.93,0,7.45,9.34,7.66,3.62,3.51,0,3.5,10.01],"byMode":{"5":37.99,"6":31.58,"7":9.9,"8":9.46,"9":9.17}},{"dest_code":"11200645","dest_name":"옥수동","dest_lat":37.5408468250741,"dest_lon":127.02058131269956,"total":97.23,"byHour":[7,0,0,0,0,0,3.39,3.5,3.5,6.44,3.31,3.5,3.44,3.42,3.5,7.66,14.33,11.54,0,15.31,0,4.18,3.21,0],"byMode":{"5":27.42,"6":25.97,"7":28.38,"8":11.11,"9":4.35}},{"dest_code":"11680531","dest_name":"논현2동","dest_lat":37.515240004514055,"dest_lon":127.03621131519049,"total":96.05,"byHour":[0,0,3.5,0,0,0,3.21,13.07,30.47,3.39,7.87,7.14,2.93,0,7.15,0,0,13.36,0,3.96,0,0,0,0],"byMode":{"5":7.14,"6":41.67,"8":21.27,"9":25.97}},{"dest_code":"11140635","dest_name":"약수동","dest_lat":37.55014909147207,"dest_lon":127.010287617014,"total":94.78,"byHour":[0,0,0,0,0,0,2.74,10.61,0,8,10.17,3.5,0,10.15,17.14,7,0,0,3.11,11.78,0,0,10.58,0],"byMode":{"5":18,"6":11.74,"7":41.97,"8":19.57,"9":3.5}},{"dest_code":"11290555","dest_name":"삼선동","dest_lat":37.58655334505262,"dest_lon":127.01170655968309,"total":91.23,"byHour":[0,0,3.63,10.99,0,0,0,6.44,7,3.57,0,0,0,3.38,7,4.46,11.38,6.95,6.93,6.24,3.38,3.31,3.45,3.12],"byMode":{"5":7.38,"6":11.46,"7":28.39,"8":16.8,"9":27.2}},{"dest_code":"11230650","dest_name":"장안1동","dest_lat":37.56623849893862,"dest_lon":127.06852139262412,"total":90.85,"byHour":[3.5,0,0,0,0,7.75,0,7.12,10.41,0,3.5,0,0,7.62,11.41,0,0,4.14,14.88,6.76,2.77,10.99,0,0],"byMode":{"5":7,"6":23.26,"8":25.3,"9":35.29}},{"dest_code":"11410565","dest_name":"충현동","dest_lat":37.563940986482365,"dest_lon":126.95831857068698,"total":86.21,"byHour":[0,0,0,0,0,7.51,14.07,17.1,19.51,10.64,0,2.73,0,2.35,0,2.71,0,4.04,0,0,5.55,0,0,0],"byMode":{"5":10.72,"6":55.1,"7":3.5,"8":5.85,"9":11.04}},{"dest_code":"11140645","dest_name":"청구동","dest_lat":37.556881523903606,"dest_lon":127.01518808451293,"total":84.29,"byHour":[7.28,0,0,0,0,0,0,11.18,3.96,7.04,3.68,7.12,6.06,4.5,3.78,11.92,0,0,0,0,6.99,0,0,10.78],"byMode":{"5":10.36,"6":6.23,"7":30.95,"8":15.85,"9":20.9}},{"dest_code":"11170650","dest_name":"이태원1동","dest_lat":37.53336138104397,"dest_lon":126.99324194029339,"total":83.95,"byHour":[3.5,2.63,0,0,0,0,0,0,7,3.5,9.91,0,0,3.5,3.06,0,3.21,0,8,0,10.5,10.1,15.54,3.5],"byMode":{"5":6.65,"6":40.87,"7":3.5,"8":17.64,"9":15.29}},{"dest_code":"41570000","dest_name":"","dest_lat":null,"dest_lon":null,"total":82.95,"byHour":[3.5,0,7,0,3.5,0,0,10.94,6.22,2.45,0,0,11.63,3.5,3.5,0,7.66,11.62,0,3.9,3.76,0,3.77,0],"byMode":{"6":14.33,"8":68.62}},{"dest_code":"11680630","dest_name":"대치4동","dest_lat":37.501565333685576,"dest_lon":127.05475390419,"total":82.73,"byHour":[0,0,0,0,0,3.31,6.92,20.72,6.69,7,0,4.3,6.7,5.76,0,8.8,7,0,0,2.75,0,2.78,0,0],"byMode":{"6":72.95,"9":9.78}},{"dest_code":"11290725","dest_name":"월곡2동","dest_lat":37.603228172961266,"dest_lon":127.04540282444947,"total":80.73,"byHour":[2.64,3.5,2.24,0,7,0,3.5,0,0,3.5,0,4.16,0,0,0,2.96,6.97,12.8,8.79,5.48,8.76,0,8.43,0],"byMode":{"6":41.13,"7":2.74,"8":18.39,"9":18.47}},{"dest_code":"11110650","dest_name":"혜화동","dest_lat":37.58747073793072,"dest_lon":126.99742981655449,"total":80.29,"byHour":[0,3.27,0,0,0,0,0,3.5,10.48,3.5,0,3.5,9.97,0,1.06,10.68,6.47,6.47,0,2.48,9.01,0,0,9.9],"byMode":{"5":18.92,"6":22.02,"7":10.5,"8":11.37,"9":17.48}},{"dest_code":"11680545","dest_name":"압구정동","dest_lat":37.52975201322973,"dest_lon":127.0343137422465,"total":79.87,"byHour":[0,0,0,3.5,0,0,0,0,0,10.05,10.05,7,17.73,7.92,3.5,3.05,3.68,3.21,6.89,0,0,0,3.29,0],"byMode":{"5":7.47,"6":19.89,"7":3.21,"8":30.7,"9":18.6}},{"dest_code":"11215710","dest_name":"화양동","dest_lat":37.543243915535506,"dest_lon":127.07320129238096,"total":78.45,"byHour":[0,3.5,0,0,0,6.07,0,0,14.42,3.04,8.06,0,0,3.31,3.5,3.5,6.04,0,6.72,10.17,3.36,3.33,0,3.43],"byMode":{"5":23.36,"6":34.98,"8":9.85,"9":10.26}},{"dest_code":"41131000","dest_name":"","dest_lat":null,"dest_lon":null,"total":78.32,"byHour":[3.5,0,0,0,0,0,7,20.69,7.18,2.46,0,3.5,3.68,3.5,3.5,4.06,0,6.55,0,7.73,1.52,0,3.45,0],"byMode":{"5":4.06,"6":39.6,"8":34.66}},{"dest_code":"11200590","dest_name":"금호1가동","dest_lat":37.55358521026265,"dest_lon":127.02498152648927,"total":77.88,"byHour":[0,0,0,0,0,0,0,3.36,3.5,0,3.59,14.07,0,0,13.25,14.04,0,17.39,2.59,0,0,0,6.09,0],"byMode":{"5":24.56,"7":36.96,"8":3.49,"9":12.87}},{"dest_code":"41480000","dest_name":"","dest_lat":null,"dest_lon":null,"total":75.51,"byHour":[8.24,0,0,0,0,0,3.96,6.41,3.68,0,6.71,13.14,3.5,8,3.5,3.31,7.06,4.5,0,0,0,3.5,0,0],"byMode":{"6":18.74,"8":56.77}},{"dest_code":"11230600","dest_name":"답십리1동","dest_lat":37.57127849359092,"dest_lon":127.05187621664231,"total":75.23,"byHour":[0,0,0,0,0,0,3.5,7.83,0,0,7.5,4.5,3.5,3.96,0,4.5,0,12.18,3.5,3.85,8.2,7.86,4.35,0],"byMode":{"5":28.89,"6":12,"7":3.5,"8":7,"9":23.84}},{"dest_code":"11215840","dest_name":"자양3동","dest_lat":37.531367300013436,"dest_lon":127.07101776119092,"total":74.49,"byHour":[0,0,0,0,0,0,0,3.5,10.22,8.9,7,0,3.5,0,10.99,0,6.45,7.22,3.57,7.19,0,2.38,3.57,0],"byMode":{"5":10.7,"6":47.21,"7":6,"8":10.58}},{"dest_code":"11260590","dest_name":"상봉2동","dest_lat":37.594321335650726,"dest_lon":127.08401526954532,"total":74.17,"byHour":[2.64,0,0,0,0,0,0,0,0,3.5,13.01,4.01,3.5,11.61,8,10.22,2.95,6.48,0,5.82,2.43,0,0,0],"byMode":{"5":32.58,"6":3.5,"8":12.28,"9":25.81}},{"dest_code":"11680521","dest_name":"논현1동","dest_lat":37.51187028229869,"dest_lon":127.0264993269889,"total":72.68,"byHour":[0,0,0,0,0,3.5,3.5,11,28.18,10.31,0,3.5,0,0,0,3.68,0,2.97,0,0,0,6.04,0,0],"byMode":{"5":3.5,"6":14.79,"8":30.47,"9":23.92}},{"dest_code":"41610000","dest_name":"","dest_lat":null,"dest_lon":null,"total":71.3,"byHour":[3.5,0,3.5,0,0,3.5,10.5,0,3.8,0,0,3.5,3.5,7.81,2.11,6.1,7,0,7.78,0,0,0,8.7,0],"byMode":{"6":11.5,"8":57.12,"9":2.68}},{"dest_code":"11230660","dest_name":"장안2동","dest_lat":37.575642244821466,"dest_lon":127.07207254160916,"total":68.41,"byHour":[0,0,0,0,3.5,3.5,10.22,0,6.55,0,0,0,0,3.5,0,3.5,0,3.5,10.5,0,0,13.7,6.28,3.66],"byMode":{"5":17.66,"6":6.38,"7":3.5,"8":26.57,"9":14.3}},{"dest_code":"11680565","dest_name":"청담동","dest_lat":37.52439200058359,"dest_lon":127.05046431883062,"total":66.02,"byHour":[0,0,0,0,0,0,3.39,13.84,10.21,0,7,3.21,0,7,0,4.43,3.5,10.23,0,0,0,0,3.21,0],"byMode":{"5":7.65,"6":17.21,"8":27.43,"9":13.73}},{"dest_code":"11305545","dest_name":"송중동","dest_lat":37.617672320592554,"dest_lon":127.03298289333249,"total":63.5,"byHour":[0,7,0,0,0,0,3.5,0,0,0,7.53,0,3.11,0,10.49,3.5,3.5,3.4,6.96,3.77,7.24,0,3.5,0],"byMode":{"5":3.5,"6":23.81,"8":18.11,"9":18.08}},{"dest_code":"11230705","dest_name":"청량리동","dest_lat":37.58884114906816,"dest_lon":127.0452159465382,"total":63.49,"byHour":[0,4.5,0,0,0,0,0,3.5,0,0,10.91,11.41,0,8.37,0,0,7.37,7,3.59,6.84,0,0,0,0],"byMode":{"5":18.5,"6":11.5,"7":7.41,"8":11.25,"9":14.83}},{"dest_code":"11200790","dest_name":"용답동","dest_lat":37.558916525187826,"dest_lon":127.0574723637532,"total":62.4,"byHour":[3.85,0,0,0,0,0,0,7,15.26,0,3.34,0,0,0,0,3.5,6.97,3.5,2.99,3.85,8.64,0,0,3.5],"byMode":{"5":5.69,"6":7.97,"7":10.64,"8":16.7,"9":21.4}},{"dest_code":"11680590","dest_name":"삼성2동","dest_lat":37.511857508899624,"dest_lon":127.04877731981904,"total":61.93,"byHour":[0,0,0,0,0,0,4.3,9.94,20.86,13.58,0,3.5,0,0,3.21,0,3.22,0,0,0,0,0,3.32,0],"byMode":{"5":6.54,"6":45.46,"8":3.21,"9":6.72}},{"dest_code":"41630000","dest_name":"","dest_lat":null,"dest_lon":null,"total":61.67,"byHour":[0,6.9,0,0,0,0,0,17.05,7.12,7.37,0,3.5,6.56,0,3.5,0,4.23,1.94,3.5,0,0,0,0,0],"byMode":{"6":15.84,"8":45.83}},{"dest_code":"11710680","dest_name":"잠실3동","dest_lat":37.513897495343485,"dest_lon":127.09423948416591,"total":60.26,"byHour":[0,0,0,0,0,0,0,3.5,3.5,17.83,3.39,0,3.39,0,0,5.58,0,4.32,3.94,3.55,11.26,0,0,0],"byMode":{"6":47.75,"8":9.01,"9":3.5}},{"dest_code":"11215847","dest_name":"자양4동","dest_lat":37.533751301916645,"dest_lon":127.06362060389492,"total":59.93,"byHour":[0,0,0,3.21,0,0,0,0,0,0,0,10.5,7.39,3.5,3.5,0,6.56,7.84,7,3.43,3.5,0,0,3.5],"byMode":{"5":6.93,"6":22.2,"8":27.3,"9":3.5}},{"dest_code":"11680650","dest_name":"역삼2동","dest_lat":37.49848371075801,"dest_lon":127.04489561333814,"total":59.48,"byHour":[0,0,0,0,0,0,3.5,3.05,9.58,0,3.5,3.5,10.59,0,0,0,7,4.14,0,0,11.26,0,3.36,0],"byMode":{"6":27.04,"8":13.72,"9":18.72}},{"dest_code":"28260000","dest_name":"","dest_lat":null,"dest_lon":null,"total":58.31,"byHour":[0,0,0,3.5,3.5,0,0,2.48,11.37,3.5,0,0,3.5,0,0,14.71,3.22,0,3.29,2.82,0,3.91,2.51,0],"byMode":{"6":20.26,"8":38.05}},{"dest_code":"41285000","dest_name":"","dest_lat":null,"dest_lon":null,"total":58.21,"byHour":[0,0,0,0,0,0,6.55,0,3.5,7.58,0,0,0,3.5,3.5,3.19,0,16.36,10.51,0,0,3.52,0,0],"byMode":{"5":4.1,"6":17.23,"8":36.88}},{"dest_code":"11680610","dest_name":"대치2동","dest_lat":37.500987478157654,"dest_lon":127.06565742574799,"total":57.75,"byHour":[0,0,0,0,0,0,6.71,3.31,10.31,10.35,0,6.55,3.5,3.7,0,0,3.5,3.5,0,0,3.53,0,2.79,0],"byMode":{"5":6.75,"6":33.79,"8":17.21}},{"dest_code":"11215870","dest_name":"구의3동","dest_lat":37.53695822874183,"dest_lon":127.0942221885227,"total":57.67,"byHour":[0,0,0,0,0,0,7.04,3.87,10.13,10.3,0,0,3.57,0,3.21,6.77,3.29,0,0,3.29,0,0,3.1,3.1],"byMode":{"5":6.78,"6":20.64,"8":20.37,"9":9.88}},{"dest_code":"11200580","dest_name":"응봉동","dest_lat":37.55088018231112,"dest_lon":127.03372254688416,"total":53.29,"byHour":[0,0,0,0,0,0,4.5,8,4.5,0,0,0,6.44,3.5,3.36,0,0,0,0,11.19,3.5,3.95,4.35,0],"byMode":{"5":22.69,"7":12.35,"8":6.44,"9":11.81}},{"dest_code":"41192000","dest_name":"","dest_lat":null,"dest_lon":null,"total":53.29,"byHour":[3.03,0,0,0,0,0,0,0,3.05,0,4.42,5.96,0,3.39,3.78,4.3,0,6.92,3.09,2.54,2.54,0,10.27,0],"byMode":{"5":2.52,"6":25.18,"8":25.59}},{"dest_code":"11200670","dest_name":"성수2가1동","dest_lat":37.53635415252142,"dest_lon":127.05530799237363,"total":53.14,"byHour":[0,0,0,0,0,3.78,0,10.44,10.04,3.48,7,6.71,0,0,0,0,0,11.69,0,0,0,0,0,0],"byMode":{"6":46.57,"8":3.21,"9":3.36}},{"dest_code":"11170530","dest_name":"남영동","dest_lat":37.54402977875616,"dest_lon":126.97482841022224,"total":51.9,"byHour":[0,0,0,0,2.93,0,0,0,17.61,3.36,3.5,0,3.5,0,3.5,3.5,0,7,3.5,0,0,3.5,0,0],"byMode":{"5":13.57,"6":27.85,"9":10.48}},{"dest_code":"11230740","dest_name":"이문1동","dest_lat":37.59736775775229,"dest_lon":127.06044645342561,"total":51.71,"byHour":[0,0,7,0,0,4.45,0,3.5,3.5,0,0,0,0,0,7,0,3.81,4.05,11.42,0,2.85,4.13,0,0],"byMode":{"5":22.81,"6":7.35,"7":3.5,"8":18.05}},{"dest_code":"11230570","dest_name":"전농2동","dest_lat":37.580697660564944,"dest_lon":127.06111802845243,"total":51.23,"byHour":[0,0,0,0,3.78,0,0,7,3.5,0,0,0,0,0,3.5,0,0,3.44,6.99,8,3.5,7.91,0,3.61],"byMode":{"5":14.93,"6":3.5,"7":7,"8":11.52,"9":14.28}},{"dest_code":"11260620","dest_name":"묵1동","dest_lat":37.61372612547999,"dest_lon":127.08253301501492,"total":51.22,"byHour":[3.5,0,0,0,0,0,0,3.5,3.55,0,0,4.17,4.42,0,4.5,0,4.5,11.56,7.58,0,3.94,0,0,0],"byMode":{"6":28.19,"8":4.14,"9":18.89}},{"dest_code":"11290575","dest_name":"동선동","dest_lat":37.5936493450371,"dest_lon":127.01851500591876,"total":50.79,"byHour":[0,0,0,0,0,0,0,3.5,4.19,10.28,0,0,3.5,0,3.68,0,7,0,0,0,6.26,9.71,0,2.67],"byMode":{"5":3.5,"6":16.5,"7":10.15,"8":7.69,"9":12.95}},{"dest_code":"41133000","dest_name":"","dest_lat":null,"dest_lon":null,"total":50.08,"byHour":[0,0,0,0,0,0,0,3.21,0,0,7.58,4.5,5.49,0,4.21,3.5,3.36,10.98,0,4.21,0,3.04,0,0],"byMode":{"6":28.88,"8":21.2}},{"dest_code":"11260610","dest_name":"중화2동","dest_lat":37.59918200919256,"dest_lon":127.07502865677067,"total":48.93,"byHour":[7.01,3.5,0,3.54,0,0,3.54,0,0,0,0,0,0,3.22,3.81,0,0,3.5,8.86,0,4.47,3.98,0,3.5],"byMode":{"5":11.29,"6":11.11,"8":3.54,"9":22.99}},{"dest_code":"11110690","dest_name":"창신3동","dest_lat":37.578954002650136,"dest_lon":127.01322200243023,"total":48.84,"byHour":[0,0,0,0,0,0,0,3.5,0,0,0,0,3.5,10.64,3.5,3.96,7,3.5,0,7,2.66,0,3.58,0],"byMode":{"6":10.13,"7":12.96,"8":10.5,"9":15.25}},{"dest_code":"11710670","dest_name":"잠실2동","dest_lat":37.51742878273864,"dest_lon":127.07934228766362,"total":47.9,"byHour":[7.41,0,0,0,0,3.5,0,3.54,0,0,0,9,0,3.5,0,0,3.5,10.69,2.68,0,0,0,4.08,0],"byMode":{"6":38.23,"8":9.67}},{"dest_code":"11560535","dest_name":"영등포동","dest_lat":37.5215927643813,"dest_lon":126.90759905216817,"total":47.57,"byHour":[0,0,0,0,0,0,0,3.31,0,3.5,0,0,10.03,3.5,7.9,0,0,8,11.33,0,0,0,0,0],"byMode":{"6":29.64,"8":17.93}},{"dest_code":"11290760","dest_name":"장위1동","dest_lat":37.61509907407851,"dest_lon":127.04465522374313,"total":47.53,"byHour":[3.2,0,0,3.11,0,0,0,0,7,4.5,0,0,3.5,3.5,0,4.35,6.91,4.12,7.34,0,0,0,0,0],"byMode":{"5":10.11,"6":20.01,"8":17.41}},{"dest_code":"11650581","dest_name":"반포4동","dest_lat":37.49955079316065,"dest_lon":127.00335326541664,"total":47.19,"byHour":[0,0,0,0,0,0,2.93,3.5,10.59,7.07,3.5,3.41,3.5,0,3.22,0,6.37,3.1,0,0,0,0,0,0],"byMode":{"5":3.5,"6":21.26,"8":12.84,"9":9.59}},{"dest_code":"41287000","dest_name":"","dest_lat":null,"dest_lon":null,"total":46.45,"byHour":[3.5,0,0,0,0,0,3.21,2.93,10.35,0,4.5,3.5,0,0,0,0,3.5,7.84,3.5,0,3.62,0,0,0],"byMode":{"6":21.96,"8":24.49}},{"dest_code":"11650510","dest_name":"서초1동","dest_lat":37.48693597480006,"dest_lon":127.02010086965181,"total":45.88,"byHour":[0,0,0,0,0,7,3.5,13.31,3.5,0,3.39,0,3.68,0,4.5,7,0,0,0,0,0,0,0,0],"byMode":{"6":28.38,"8":14,"9":3.5}},{"dest_code":"11350595","dest_name":"공릉1동","dest_lat":37.6242134099112,"dest_lon":127.07255426284723,"total":45.81,"byHour":[0,0,0,0,0,0,0,3.5,0,0,0,0,0,0,0,2.85,0,3.06,14.22,7.01,2.78,3.11,6.57,2.71],"byMode":{"6":29.76,"8":7.1,"9":8.95}},{"dest_code":"11320680","dest_name":"쌍문3동","dest_lat":37.64766314749173,"dest_lon":127.03058765843974,"total":45.79,"byHour":[4.5,0,0,0,3.5,3.5,3.5,0,0,0,10.21,0,0,0,4.5,7.83,0,3.97,0,0,4.28,0,0,0],"byMode":{"6":15.3,"8":22.49,"9":8}},{"dest_code":"11650531","dest_name":"서초4동","dest_lat":37.498946997152096,"dest_lon":127.01981424252563,"total":45.53,"byHour":[0,0,0,0,0,0,0,7,14.03,3.44,0,0,7.37,6.65,3.5,0,3.54,0,0,0,0,0,0,0],"byMode":{"5":3.5,"6":35.41,"8":3.08,"9":3.54}},{"dest_code":"11170520","dest_name":"용산2가동","dest_lat":37.537883593164416,"dest_lon":126.98508616804241,"total":44.88,"byHour":[0,0,0,0,0,0,0,0,0,3.31,8,0,0,0,6.72,6.71,3.5,0,3.5,6.86,0,2.94,3.34,0],"byMode":{"5":18.03,"6":3.02,"7":3.31,"8":6.84,"9":13.68}},{"dest_code":"11530540","dest_name":"구로3동","dest_lat":37.48487331436084,"dest_lon":126.89491415645763,"total":44.62,"byHour":[0,0,2.68,0,0,0,3.64,3.21,3.5,3.87,0,3.5,0,6.92,0,0,4.09,0,0,0,5.83,0,2.88,4.5],"byMode":{"5":3.05,"6":31.52,"8":10.05}},{"dest_code":"11710562","dest_name":"방이2동","dest_lat":37.51324706836732,"dest_lon":127.113892442997,"total":44.24,"byHour":[3,0,0,0,0,0,0,3.5,0,0,3.5,0,0,3.5,0,0,0,9.73,0,0,8.44,0,12.57,0],"byMode":{"6":28.79,"8":11.95,"9":3.5}},{"dest_code":"41650000","dest_name":"","dest_lat":null,"dest_lon":null,"total":43.79,"byHour":[3.5,0,3.5,0,0,0,0,0,3.5,0,3.94,0,7.62,3.5,0,10.8,0,4.5,2.93,0,0,0,0,0],"byMode":{"8":43.79}},{"dest_code":"41390000","dest_name":"","dest_lat":null,"dest_lon":null,"total":43.74,"byHour":[0,0,0,0,0,0,0,7.8,0,11.13,3.5,7.14,0,0,10.5,0,3.67,0,0,0,0,0,0,0],"byMode":{"6":3.67,"8":40.07}},{"dest_code":"11290630","dest_name":"정릉2동","dest_lat":37.60367473957296,"dest_lon":127.00849918964211,"total":43.19,"byHour":[0,0,0,0,0,0,0,3.17,0,3.5,0,0,0,0,6.75,11.4,7.83,0,10.54,0,0,0,0,0],"byMode":{"6":10.43,"8":11.36,"9":21.4}},{"dest_code":"11560560","dest_name":"당산2동","dest_lat":37.53410769973474,"dest_lon":126.90237135958655,"total":42.98,"byHour":[0,0,0,0,0,3.5,0,0,0,0,4.5,3.54,3.05,0,0,3.5,8,0,1.73,8.16,7,0,0,0],"byMode":{"6":29.47,"8":13.51}},{"dest_code":"41117000","dest_name":"","dest_lat":null,"dest_lon":null,"total":42.98,"byHour":[0,0,0,0,0,0,3.5,3.68,3.68,0,0,3.93,3.44,9.66,0,7.5,0,0,3.5,4.09,0,0,0,0],"byMode":{"5":4.09,"6":3.5,"8":35.39}},{"dest_code":"28185000","dest_name":"","dest_lat":null,"dest_lon":null,"total":42.89,"byHour":[0,0,0,0,3.5,0,0,3.5,10.5,0,0,4.5,0,0,0,0,0,7,0,7.31,3.28,3.3,0,0],"byMode":{"6":21.78,"8":21.11}},{"dest_code":"11440565","dest_name":"공덕동","dest_lat":37.54931836441306,"dest_lon":126.95794521589359,"total":42.6,"byHour":[3.3,3.68,0,0,0,0,0,0,3.22,3.5,0,0,0,0,3.58,3.5,3.5,6.55,0,8.06,0,3.71,0,0],"byMode":{"5":28.42,"6":7,"8":7.18}},{"dest_code":"11290650","dest_name":"정릉4동","dest_lat":37.62394777143803,"dest_lon":126.99489715361847,"total":42.1,"byHour":[0,0,0,0,0,0,0,3.36,0,3.5,3.5,0,0,4.24,0,0,7.75,4.24,0,7.69,0,7.82,0,0],"byMode":{"5":8.48,"6":11.83,"7":3.5,"8":3.36,"9":14.93}},{"dest_code":"11170555","dest_name":"청파동","dest_lat":37.547581894335494,"dest_lon":126.96684283775078,"total":41.9,"byHour":[0,2.74,0,0,0,0,0,0,0,0,0,0,7.45,7,7,0,3.5,3.5,3.54,3.5,3.67,0,0,0],"byMode":{"5":10.04,"6":14.04,"8":9.74,"9":8.08}},{"dest_code":"11290580","dest_name":"돈암1동","dest_lat":37.59975117045915,"dest_lon":127.02439790431146,"total":41.48,"byHour":[7,3.5,0,0,0,0,0,0,0,0,0,0,0,0,0,0,6.76,14.01,0,3.69,3.26,3.26,0,0],"byMode":{"5":6.76,"6":10.21,"7":3.5,"8":13.7,"9":7.31}},{"dest_code":"41173000","dest_name":"","dest_lat":null,"dest_lon":null,"total":41.3,"byHour":[0,0,0,7,0,2.93,0,3.87,0,3.57,0,0,0,0,0,3.5,0,3.84,0,3.5,0,2.67,10.42,0],"byMode":{"6":24.63,"8":16.67}},{"dest_code":"11290715","dest_name":"월곡1동","dest_lat":37.60783377708155,"dest_lon":127.03655107111472,"total":41.22,"byHour":[3.5,0,0,0,0,0,0,0,3.5,3.5,0,7,0,4.19,0,4.19,3.5,0,7.34,0,0,4.5,0,0],"byMode":{"5":10.5,"6":7.34,"8":15,"9":8.38}},{"dest_code":"11560720","dest_name":"대림3동","dest_lat":37.50000124220351,"dest_lon":126.8971418249189,"total":40.99,"byHour":[0,0,0,0,0,0,0,0,1.94,0,0,0,0,0,7,0,3.5,10.5,14.55,3.5,0,0,0,0],"byMode":{"6":28.44,"7":3.61,"8":8.94}},{"dest_code":"11215850","dest_name":"구의1동","dest_lat":37.54163206971925,"dest_lon":127.08571874350099,"total":40.51,"byHour":[7.83,0,0,0,0,0,0,0,0,3.05,4.5,0,0,0,4.03,0,0,0,7.38,0,6.93,6.79,0,0],"byMode":{"6":34.06,"8":3.05,"9":3.4}},{"dest_code":"11710642","dest_name":"문정2동","dest_lat":37.481196589583,"dest_lon":127.11914118070631,"total":40.3,"byHour":[2.73,0,0,3.5,0,0,3.5,0,14.48,3.5,0,0,0,0,0,3.21,0,0,0,6.28,0,0,3.1,0],"byMode":{"6":12.11,"8":28.19}},{"dest_code":"41465000","dest_name":"","dest_lat":null,"dest_lon":null,"total":40.04,"byHour":[3.97,0,0,0,0,0,3.5,0,0,0,0,3.5,0,0,8,0,0,0,10.98,3.5,6.59,0,0,0],"byMode":{"6":17.98,"8":22.06}},{"dest_code":"11350600","dest_name":"공릉2동","dest_lat":37.63162259238021,"dest_lon":127.09432196669059,"total":39.84,"byHour":[0,0,0,0,0,3.5,7.04,0,0,0,3.5,0,0,0,2.28,3.5,0,5.4,0,6.61,0,2.89,2.72,2.4],"byMode":{"6":19.9,"8":16.44,"9":3.5}},{"dest_code":"11230710","dest_name":"회기동","dest_lat":37.59371693617452,"dest_lon":127.05151154165343,"total":39.32,"byHour":[0,0,0,0,0,3.36,0,4.5,3.39,0,0,3.06,10.5,4.01,0,0,0,7,0,0,0,0,3.5,0],"byMode":{"5":3.5,"6":9.92,"7":4.5,"8":7.51,"9":13.89}},{"dest_code":"11290660","dest_name":"길음1동","dest_lat":37.608223678293655,"dest_lon":127.01974268027502,"total":39.05,"byHour":[0,0,0,0,0,0,0,3.57,3.21,3.48,0,3.78,0,0,0,3.22,7.51,7.28,7,0,0,0,0,0],"byMode":{"5":3.5,"6":10.9,"8":9.79,"9":14.86}},{"dest_code":"11440655","dest_name":"서강동","dest_lat":37.546730302214776,"dest_lon":126.92603119134738,"total":39.04,"byHour":[0,0,0,0,0,0,0,7.06,0,3.5,8.47,3.68,2.37,3.66,0,0,0,0,3.38,0,3.21,0,0,3.71],"byMode":{"6":31.71,"8":7.33}},{"dest_code":"11440740","dest_name":"상암동","dest_lat":37.57072643445334,"dest_lon":126.87990132971456,"total":39.04,"byHour":[3.5,0,0,0,0,3.5,0,7.51,6.85,3.5,3.68,0,0,0,0,0,3.5,3.5,3.5,0,0,0,0,0],"byMode":{"6":20.56,"8":18.48}},{"dest_code":"11740685","dest_name":"길동","dest_lat":37.53969617665487,"dest_lon":127.14596636282657,"total":38.28,"byHour":[0,4.94,0,0,0,0,3.5,6.89,0,3.5,3.36,0,0,6.57,0,6.75,0,0,0,0,2.77,0,0,0],"byMode":{"5":2.4,"6":24.44,"8":11.44}},{"dest_code":"11215830","dest_name":"자양2동","dest_lat":37.529103216756376,"dest_lon":127.08275137179692,"total":38.16,"byHour":[0,0,3.24,0,0,0,3.5,0,3.5,0,0,3.22,0,3.17,0,2.53,0,0,0,0,12.84,3.02,3.14,0],"byMode":{"5":11.78,"6":10.72,"8":9.27,"9":6.39}},{"dest_code":"11110600","dest_name":"가회동","dest_lat":37.58251427458714,"dest_lon":126.986547119483,"total":37.5,"byHour":[0,0,0,0,0,0,0,3.62,6.94,3.5,10.31,3.22,0,0,0,0,0,2.87,0,0,3.54,0,3.5,0],"byMode":{"5":3.62,"6":20.12,"7":6.72,"9":7.04}},{"dest_code":"11305625","dest_name":"수유2동","dest_lat":37.645421219695294,"dest_lon":127.01936445955646,"total":37.5,"byHour":[0,0,0,0,0,0,0,0,0,0,0,0,0,9.63,3.99,0,3.93,4.42,0,3.59,8.01,3.93,0,0],"byMode":{"6":23.52,"8":7.85,"9":6.13}},{"dest_code":"41210000","dest_name":"","dest_lat":null,"dest_lon":null,"total":37.34,"byHour":[0,0,0,3.5,0,0,0,0,0,0,0,0,0,0,3.6,3.5,0,4.5,0,8.17,3.9,10.17,0,0],"byMode":{"6":26.74,"8":10.6}},{"dest_code":"28237000","dest_name":"","dest_lat":null,"dest_lon":null,"total":36.7,"byHour":[0,0,0,0,0,3.5,0,0,4.01,0,0,0,3.13,0,0,7,0,10.39,0,4.24,4.43,0,0,0],"byMode":{"6":29.7,"8":7}},{"dest_code":"11350560","dest_name":"월계1동","dest_lat":37.62192632316921,"dest_lon":127.05833892768435,"total":36.52,"byHour":[0,0,0,0,0,0,0,0,10.98,0,0,0,0,15.06,0,0,0,3.57,0,0,3.63,3.28,0,0],"byMode":{"5":3.98,"6":14.21,"8":11.03,"9":7.3}},{"dest_code":"11380690","dest_name":"진관동","dest_lat":37.63967752919758,"dest_lon":126.93782340570208,"total":36.31,"byHour":[0,0,0,0,3.5,3.21,0,0,0,0,4.5,7,0,0,0,0,0,4.02,0,0,3.46,3.5,7.12,0],"byMode":{"6":17.85,"8":18.46}},{"dest_code":"11545510","dest_name":"가산동","dest_lat":37.47666082069989,"dest_lon":126.88379132868765,"total":35.98,"byHour":[0,0,0,0,0,3.41,3.5,3.22,3.5,3.54,7.23,0,0,0,0,0,3.5,8.08,0,0,0,0,0,0],"byMode":{"6":18.34,"8":17.64}},{"dest_code":"11350580","dest_name":"월계3동","dest_lat":37.62445820424424,"dest_lon":127.06482891187626,"total":35.83,"byHour":[3.38,0,0,0,0,0,0,0,3.5,0,0,3.94,3.36,0,0,0,3.5,3.94,0,10.71,0,0,3.5,0],"byMode":{"6":18.69,"8":10.36,"9":6.78}},{"dest_code":"11290810","dest_name":"석관동","dest_lat":37.6082777586919,"dest_lon":127.06135785311591,"total":35.52,"byHour":[3.5,0,0,0,0,0,0,0,0,3.5,0,0,4.46,0,0,4.36,4.36,0,0,4.19,0,7.65,3.5,0],"byMode":{"5":8,"6":16.51,"8":3.5,"9":7.51}},{"dest_code":"11200620","dest_name":"금호4가동","dest_lat":37.545391282678345,"dest_lon":127.02415996011806,"total":34.56,"byHour":[3.9,3.6,4.35,0,0,0,0,0,0,3.22,0,0,0,0,0,0,4.01,0,0,4.07,4.41,3.5,3.5,0],"byMode":{"5":22.58,"6":3.5,"8":4.41,"9":4.07}},{"dest_code":"11260565","dest_name":"면목본동","dest_lat":37.588316246211484,"dest_lon":127.08937929154322,"total":34.27,"byHour":[3.5,0,0,0,0,0,3.58,0,0,0,0,3.5,0,0,0,0,6.65,10.67,0,3.5,2.87,0,0,0],"byMode":{"5":10.15,"8":9.95,"9":14.17}},{"dest_code":"11215730","dest_name":"군자동","dest_lat":37.55304249812136,"dest_lon":127.07370753061319,"total":34.2,"byHour":[0,0,0,0,0,0,0,0,0,7,0,5.43,0,0,3.41,0,3.55,7.7,0,3.5,0,3.61,0,0],"byMode":{"5":6.63,"6":11.31,"7":3.5,"8":3.5,"9":9.26}},{"dest_code":"11110680","dest_name":"창신2동","dest_lat":37.576027279824935,"dest_lon":127.01018845877414,"total":33.77,"byHour":[0,4.38,0,0,0,0,0,0,7.48,0,0,0,0,3.87,0,3.48,3.99,0,3.57,0,3.5,3.5,0,0],"byMode":{"5":7.87,"7":25.9}},{"dest_code":"11305635","dest_name":"수유3동","dest_lat":37.64050078144628,"dest_lon":127.02344785512155,"total":33.48,"byHour":[0,0,0,0,0,0,0,0,0,0,2.32,0,0,0,0,4.42,0,4.5,3.25,7.46,0,11.53,0,0],"byMode":{"6":11.36,"8":7.95,"9":14.17}},{"dest_code":"41430000","dest_name":"","dest_lat":null,"dest_lon":null,"total":33.4,"byHour":[0,0,0,3.58,0,0,0,2.93,0,3.5,6.25,0,0,0,0,0,0,6.77,6.36,0,0,0,4.01,0],"byMode":{"6":16.33,"8":17.07}},{"dest_code":"11215860","dest_name":"구의2동","dest_lat":37.55110372309933,"dest_lon":127.09485666743477,"total":33.37,"byHour":[0,0,0,0,0,0,0,4.5,7.69,0,0,3.5,0,0,0,6.35,0,0,0,0,4.03,0,7.3,0],"byMode":{"5":3.36,"6":19.22,"8":7.8,"9":2.99}},{"dest_code":"11710520","dest_name":"풍납2동","dest_lat":37.5301666178514,"dest_lon":127.10816320640797,"total":33.36,"byHour":[0,0,0,0,0,4.5,6.6,0,4.5,3.5,2.76,0,0,4.5,0,0,0,7,0,0,0,0,0,0],"byMode":{"5":2.76,"6":14.89,"8":15.71}},{"dest_code":"11140680","dest_name":"중림동","dest_lat":37.55734682440728,"dest_lon":126.96603667235034,"total":32.77,"byHour":[0,1.54,0,0,0,0,0,0,4.12,3.81,0,7.31,3.5,2.72,0,0,0,2.77,0,0,7,0,0,0],"byMode":{"5":9.16,"6":17.39,"7":2.72,"9":3.5}},{"dest_code":"41290000","dest_name":"","dest_lat":null,"dest_lon":null,"total":32.61,"byHour":[0,0,0,0,0,3.5,0,8,0,0,0,0,8.23,0,0,0,3.5,0,0,0,0,0,0,9.38],"byMode":{"5":3.5,"6":15.85,"8":13.26}},{"dest_code":"11440600","dest_name":"대흥동","dest_lat":37.552036738302874,"dest_lon":126.941465433121,"total":32.35,"byHour":[0,0,0,0,0,0,0,4.3,3.05,5.9,0,0,0,0,7.81,0,0,0,0,4.01,7.28,0,0,0],"byMode":{"5":4.3,"6":28.05}},{"dest_code":"11650570","dest_name":"반포2동","dest_lat":37.50722482634657,"dest_lon":126.99596200627936,"total":32.01,"byHour":[0,0,0,0,0,4.3,0,3.21,0,0,3.5,0,0,0,0,3.54,3.21,7.14,0,3.35,0,0,3.76,0],"byMode":{"6":18.19,"8":10.61,"9":3.21}},{"dest_code":"11440555","dest_name":"아현동","dest_lat":37.551851292486674,"dest_lon":126.95270610587647,"total":30.93,"byHour":[7.22,0,0,0,0,0,0,0,0,0,0,3.5,0,0,3.44,0,6.42,3.61,0,0,2.93,0,3.81,0],"byMode":{"6":20.78,"8":7.22,"9":2.93}},{"dest_code":"11410700","dest_name":"남가좌2동","dest_lat":37.577927893744075,"dest_lon":126.92134583020304,"total":30.75,"byHour":[0,0,0,0,0,0,0,0,3.5,0,0,0,5.98,0,0,0,0,3.73,3.5,0,3.35,6.7,3.99,0],"byMode":{"6":30.75}},{"dest_code":"11440680","dest_name":"합정동","dest_lat":37.54696313264598,"dest_lon":126.90895734464794,"total":30.65,"byHour":[0,0,0,0,0,0,0,0,6.43,3.64,0,0,0,0,0,0,6.97,0,6.64,3.81,0,3.16,0,0],"byMode":{"6":20.43,"8":2.72,"9":7.5}},{"dest_code":"41463000","dest_name":"","dest_lat":null,"dest_lon":null,"total":30.63,"byHour":[0,0,0,0,0,0,6.55,3.21,0,4.16,0,0,0,3.5,0,6.8,3.5,0,0,0,0,2.91,0,0],"byMode":{"6":10.05,"8":20.58}},{"dest_code":"11650520","dest_name":"서초2동","dest_lat":37.48882759709113,"dest_lon":127.0279086854325,"total":30.5,"byHour":[0,0,0,3.5,0,0,6.86,3.05,6.85,6.74,0,0,0,0,0,0,0,3.5,0,0,0,0,0,0],"byMode":{"6":20.11,"8":10.39}},{"dest_code":"11260520","dest_name":"면목2동","dest_lat":37.58928761522088,"dest_lon":127.0778399396376,"total":30.33,"byHour":[3.43,0,3.5,0,0,0,3.5,0,0,0,0,0,0,0,3.9,4.22,0,7.56,4.22,0,0,0,0,0],"byMode":{"5":14.89,"6":4.22,"8":7.72,"9":3.5}},{"dest_code":"11650652","dest_name":"양재2동","dest_lat":37.45115190053303,"dest_lon":127.04575266779253,"total":30.26,"byHour":[0,0,0,0,0,0,7,7,3.5,0,0,0,0,3.5,0,0,2.98,0,2.78,0,0,0,0,3.5],"byMode":{"6":6.28,"8":20.48,"9":3.5}},{"dest_code":"11305575","dest_name":"삼각산동","dest_lat":37.61715932760559,"dest_lon":127.0165245795677,"total":30.13,"byHour":[0,0,0,0,0,0,0,0,0,0,3.41,0,0,0,3.51,3.5,0,3.87,7.32,0,0,0,8.52,0],"byMode":{"5":3.5,"6":8.01,"8":11.39,"9":7.23}},{"dest_code":"11260540","dest_name":"면목4동","dest_lat":37.573618445205234,"dest_lon":127.08537359110592,"total":30.1,"byHour":[7.33,0,0,0,0,0,0,0,0,3.05,0,4.3,0,0,0,4.05,3.5,7.87,0,0,0,0,0,0],"byMode":{"5":7.8,"8":15.45,"9":6.85}},{"dest_code":"41194000","dest_name":"","dest_lat":null,"dest_lon":null,"total":29.9,"byHour":[0,2.73,2.81,0,0,0,3.5,0,0,0,0,0,0,0,0,7,0,3.5,0,3.5,0,3.5,0,3.36],"byMode":{"5":2.73,"6":20.86,"8":6.31}},{"dest_code":"11650651","dest_name":"양재1동","dest_lat":37.46950069861567,"dest_lon":127.0224963501131,"total":29.64,"byHour":[2.49,0,0,0,0,3.5,0,3.05,6.27,3.39,0,0,3.5,7.44,0,0,0,0,0,0,0,0,0,0],"byMode":{"6":19.71,"8":9.93}},{"dest_code":"11290525","dest_name":"성북동","dest_lat":37.59668268834572,"dest_lon":126.9941320143127,"total":29.3,"byHour":[0,0,0,0,0,0,7,3.5,0,3.39,0,3.21,0,0,0,0,0,2.49,3.5,0,0,3.5,2.71,0],"byMode":{"6":6.89,"7":5.99,"8":10.21,"9":6.21}},{"dest_code":"41171000","dest_name":"","dest_lat":null,"dest_lon":null,"total":29.15,"byHour":[0,0,0,0,0,3.5,0,0,0,0,0,3.5,0,0,0,4.5,0,7,0,3.84,0,6.81,0,0],"byMode":{"5":3.84,"6":8,"8":17.31}},{"dest_code":"11215820","dest_name":"자양1동","dest_lat":37.535590623776066,"dest_lon":127.08045420792878,"total":29.11,"byHour":[0,0,3.64,0,0,0,0,3.64,0,0,0,0,3.5,4.5,0,0,3.5,4,0,0,0,3.5,2.83,0],"byMode":{"5":7.14,"6":3.5,"8":2.83,"9":15.64}},{"dest_code":"11305595","dest_name":"번1동","dest_lat":37.63755655490044,"dest_lon":127.0306106449884,"total":28.98,"byHour":[0,0,0,0,0,0,0,0,0,0,0,0,0,0,0,3.39,3.5,3.4,7.64,0,0,11.05,0,0],"byMode":{"6":15.19,"8":7,"9":6.79}},{"dest_code":"11230610","dest_name":"답십리2동","dest_lat":37.57077961957078,"dest_lon":127.061035791701,"total":28.9,"byHour":[0,0,0,0,0,0,0,0,4.5,0,0,0,0,0,0,0,0,4.26,4.5,7.76,0,0,7.88,0],"byMode":{"5":7.76,"8":9,"9":12.14}},{"dest_code":"11170510","dest_name":"후암동","dest_lat":37.54990604425638,"dest_lon":126.9806148822003,"total":28.79,"byHour":[0,0,0,0,0,0,0,0,4.5,0,0,0,0,0,0,0,0,0,3.5,0,9,11.79,0,0],"byMode":{"5":12.25,"6":4.5,"8":12.04}},{"dest_code":"11350640","dest_name":"상계2동","dest_lat":37.65665170508147,"dest_lon":127.06709982703664,"total":28.71,"byHour":[0,0,5.77,0,0,0,0,0,0,0,0,3.5,3.5,3.5,0,7.95,0,4.49,0,0,0,0,0,0],"byMode":{"5":3.5,"6":7.99,"7":3.5,"8":13.72}},{"dest_code":"11380600","dest_name":"응암3동","dest_lat":37.588925739690374,"dest_lon":126.9175543119417,"total":28.46,"byHour":[0,0,0,0,0,0,0,0,0,0,0,0,0,8,8,0,4.5,4.46,3.5,0,0,0,0,0],"byMode":{"6":28.46}},{"dest_code":"11440710","dest_name":"연남동","dest_lat":37.563017872295696,"dest_lon":126.92153721770806,"total":28.22,"byHour":[0,0,0,0,3.36,0,3.5,0,6.43,0,2.81,0,0,0,0,0,1.34,3.13,3.7,0,0,0,3.95,0],"byMode":{"5":2.81,"6":14.85,"8":3.36,"9":7.2}},{"dest_code":"11560620","dest_name":"양평2동","dest_lat":37.54350560446898,"dest_lon":126.89059120594035,"total":27.64,"byHour":[0,7,0,0,0,3.04,0,3.5,0,3.44,3.67,0,0,0,0,0,3.67,0,0,0,0,0,0,3.32],"byMode":{"5":3.04,"6":3.44,"8":21.16}},{"dest_code":"11290770","dest_name":"장위2동","dest_lat":37.61234879180564,"dest_lon":127.05189848383364,"total":27.56,"byHour":[3.5,0,0,0,0,6.69,0,3.05,0,0,0,0,0,0,3.5,0,0,7.32,3.5,0,0,0,0,0],"byMode":{"6":17.37,"8":6.69,"9":3.5}},{"dest_code":"11710566","dest_name":"오륜동","dest_lat":37.51742909164448,"dest_lon":127.12883529004347,"total":27.54,"byHour":[0,0,0,0,0,0,0,0,3.62,3.5,0,10.5,0,3.21,0,0,3.21,0,0,0,3.5,0,0,0],"byMode":{"5":6.83,"6":13.71,"8":3.5,"9":3.5}},{"dest_code":"28177000","dest_name":"","dest_lat":null,"dest_lon":null,"total":27.19,"byHour":[0,0,0,0,0,0,0,0,0,2.78,3.5,0,0,3.41,7,0,0,3.5,3.5,0,3.5,0,0,0],"byMode":{"6":3.41,"8":23.78}},{"dest_code":"11410555","dest_name":"북아현동","dest_lat":37.55929069227892,"dest_lon":126.95501974771389,"total":27.16,"byHour":[0,0,0,0,0,0,0,3.5,12.69,0,3.22,0,0,0,0,3.5,0,0,4.25,0,0,0,0,0],"byMode":{"5":3.5,"6":20.61,"8":3.05}},{"dest_code":"11440585","dest_name":"도화동","dest_lat":37.538644433810624,"dest_lon":126.9491081749089,"total":27.12,"byHour":[0,0,0,0,0,0,0,10.5,10.02,0,0,0,0,0,0,0,0,6.6,0,0,0,0,0,0],"byMode":{"6":23.62,"9":3.5}},{"dest_code":"11680655","dest_name":"도곡1동","dest_lat":37.488887657674894,"dest_lon":127.04101114838811,"total":26.63,"byHour":[0,0,0,0,0,0,7,10.2,0,0,0,3.5,0,0,0,0,0,3.44,0,0,0,0,2.49,0],"byMode":{"5":7,"6":13.64,"8":5.99}},{"dest_code":"11110515","dest_name":"청운효자동","dest_lat":37.58441429722301,"dest_lon":126.96991655860823,"total":26.4,"byHour":[0,0,0,0,0,0,0,10.05,0,3.05,0,6.49,0,0,3.31,3.5,0,0,0,0,0,0,0,0],"byMode":{"5":3.5,"6":6.55,"7":13.36,"9":2.99}},{"dest_code":"11215810","dest_name":"광장동","dest_lat":37.5478230736146,"dest_lon":127.10471379457802,"total":26.37,"byHour":[0,0,0,0,0,0,0,0,3.5,0,0,0,3.5,0,0,0,0,3.5,0,0,2.93,0,12.94,0],"byMode":{"8":22.87,"9":3.5}},{"dest_code":"11290780","dest_name":"장위3동","dest_lat":37.6182582111975,"dest_lon":127.05344990971862,"total":26.29,"byHour":[3.99,0,0,0,0,0,0,0,0,0,3.52,0,3.5,0,0,0,0,0,7.41,0,3.79,4.08,0,0],"byMode":{"6":11.67,"8":7.58,"9":7.04}},{"dest_code":"11305660","dest_name":"인수동","dest_lat":37.63740468445943,"dest_lon":127.00354840273707,"total":26.21,"byHour":[3.5,0,0,0,0,0,0,0,0,2.68,0,0,0,0,0,0,3.5,8.84,3.5,0,0,0,0,4.19],"byMode":{"5":7.89,"6":11.32,"8":3.5,"9":3.5}},{"dest_code":"11230730","dest_name":"휘경2동","dest_lat":37.58664122719281,"dest_lon":127.06582204957047,"total":26.19,"byHour":[0,4.23,3.5,0,0,0,0,0,0,0,0,0,0,3.5,0,0,3.39,0,2.25,0,0,9.32,0,0],"byMode":{"5":6.89,"6":4.57,"7":3.5,"8":7,"9":4.23}},{"dest_code":"11380552","dest_name":"갈현2동","dest_lat":37.61798039239918,"dest_lon":126.91245240262893,"total":26.13,"byHour":[0,0,0,0,0,0,0,0,0,0,0,0,0,0,0,0,0,4.22,11.41,10.5,0,0,0,0],"byMode":{"6":14.91,"8":11.22}},{"dest_code":"11650540","dest_name":"잠원동","dest_lat":37.517079012399016,"dest_lon":127.0127367711114,"total":26.08,"byHour":[0,0,0,0,0,0,0,0,3.64,0,3.68,0,6.29,0,0,0,0,0,3.5,8.97,0,0,0,0],"byMode":{"6":3.68,"7":3.5,"8":13.8,"9":5.1}},{"dest_code":"41271000","dest_name":"","dest_lat":null,"dest_lon":null,"total":26.06,"byHour":[0,0,0,0,0,0,0,0,0,0,6.72,0,0,0,0,12.34,0,3.5,0,0,0,3.5,0,0],"byMode":{"6":7.84,"8":18.22}},{"dest_code":"11680700","dest_name":"세곡동","dest_lat":37.470658793453936,"dest_lon":127.10430477063893,"total":26.02,"byHour":[0,0,0,0,3.5,0,0,0,0,3.98,3.92,0,3.5,0,0,0,0,4.45,3.17,3.5,0,0,0,0],"byMode":{"6":19.02,"8":7}},{"dest_code":"41410000","dest_name":"","dest_lat":null,"dest_lon":null,"total":26.01,"byHour":[0,0,3.5,0,0,0,0,0,0,3.5,0,3.5,0,0,4.3,3.5,0,0,2.92,0,1.29,3.5,0,0],"byMode":{"6":4.21,"8":21.8}},{"dest_code":"11620595","dest_name":"청룡동","dest_lat":37.47805691041308,"dest_lon":126.94581028099184,"total":25.31,"byHour":[0,0,0,0,0,0,0,0,0,0,0,4.47,7.07,4.3,0,0,6.88,0,0,0,2.59,0,0,0],"byMode":{"6":13.94,"8":11.37}},{"dest_code":"11440610","dest_name":"염리동","dest_lat":37.549897792767865,"dest_lon":126.94753731943501,"total":25.02,"byHour":[0,0,0,0,0,0,0,0,3.5,3.68,3.5,0,0,0,0,3.51,3.83,0,0,7,0,0,0,0],"byMode":{"6":25.02}},{"dest_code":"51130000","dest_name":"","dest_lat":null,"dest_lon":null,"total":25.01,"byHour":[0,3.5,0,0,0,0,0,3.77,0,0,0,0,0,0,4.36,3.74,0,0,6.14,0,3.5,0,0,0],"byMode":{"8":25.01}},{"dest_code":"11260680","dest_name":"신내1동","dest_lat":37.61316286799043,"dest_lon":127.1040401674988,"total":24.88,"byHour":[7.39,0,0,0,2.74,0,0,3.41,0,0,0,0,0,0,2.21,0,2.74,0,2.21,4.18,0,0,0,0],"byMode":{"5":15.99,"6":2.74,"8":2.74,"9":3.41}},{"dest_code":"11530510","dest_name":"신도림동","dest_lat":37.51003038058756,"dest_lon":126.88217457888476,"total":24.88,"byHour":[0,0,0,0,0,0,0,3.21,3.64,7,0,0,0,0,4.5,0,3.33,0,0,3.2,0,0,0,0],"byMode":{"6":17.88,"8":7}},{"dest_code":"11410720","dest_name":"북가좌2동","dest_lat":37.58117691780368,"dest_lon":126.91333898837377,"total":24.81,"byHour":[0,0,0,0,0,0,0,0,0,0,0,3.64,0,6.61,0,0,0,4.24,3.32,0,3.5,0,3.5,0],"byMode":{"6":7.74,"7":3.5,"8":13.57}},{"dest_code":"41500000","dest_name":"","dest_lat":null,"dest_lon":null,"total":24.61,"byHour":[0,3.24,0,0,0,0,6.43,0,4.3,0,0,0,0,0,0,0,0,0,0,3.5,7.14,0,0,0],"byMode":{"8":24.61}},{"dest_code":"11380650","dest_name":"수색동","dest_lat":37.585590423507476,"dest_lon":126.89453127260626,"total":24.57,"byHour":[0,7.4,0,0,0,6.43,0,0,3.05,0,0,0,0,0,0,4.19,0,3.5,0,0,0,0,0,0],"byMode":{"5":6.63,"6":10.74,"8":7.2}},{"dest_code":"11110540","dest_name":"삼청동","dest_lat":37.58836360344821,"dest_lon":126.98120563602257,"total":24.39,"byHour":[0,0,0,0,0,3.5,3.68,6.71,0,0,0,0,3.5,0,0,3.5,0,0,3.5,0,0,0,0,0],"byMode":{"6":17.21,"7":3.5,"9":3.68}},{"dest_code":"11560605","dest_name":"문래동","dest_lat":37.516531097074875,"dest_lon":126.89105913725835,"total":24.3,"byHour":[0,0,0,0,0,0,0,3.21,7.07,0,0,0,0,3.21,0,0,10.81,0,0,0,0,0,0,0],"byMode":{"6":20.8,"8":3.5}},{"dest_code":"11380530","dest_name":"불광2동","dest_lat":37.624278541092735,"dest_lon":126.92869863673612,"total":24.17,"byHour":[7.68,0,0,0,0,0,0,0,0,0,0,0,0,0,0,8.54,0,4.45,0,3.5,0,0,0,0],"byMode":{"5":3.99,"6":7.81,"8":12.37}},{"dest_code":"11215750","dest_name":"중곡2동","dest_lat":37.55890878945523,"dest_lon":127.08457880017404,"total":23.61,"byHour":[0,0,0,0,0,0,0,0,0,0,0,0,0,0,4.27,4.06,4.14,0,0,0,3.5,0,4.14,3.5],"byMode":{"6":4.27,"8":7,"9":12.34}},{"dest_code":"11440720","dest_name":"성산1동","dest_lat":37.562001970808,"dest_lon":126.91184564810614,"total":23.33,"byHour":[0,0,0,0,0,0,0,0,3.5,0,0,0,0,0,4.22,2.93,0,0,0,0,0,0,9.74,2.94],"byMode":{"5":6.44,"6":9.74,"8":7.15}},{"dest_code":"41273000","dest_name":"","dest_lat":null,"dest_lon":null,"total":23.3,"byHour":[2.88,0,0,0,0,0,3.5,3.5,0,0,3.44,3.5,3.39,3.09,0,0,0,0,0,0,0,0,0,0],"byMode":{"8":23.3}},{"dest_code":"11305534","dest_name":"삼양동","dest_lat":37.623804265225246,"dest_lon":127.01492956330208,"total":23.24,"byHour":[3.79,0,0,0,0,0,3.5,0,0,0,0,0,0,0,4.45,0,7,4.5,0,0,0,0,0,0],"byMode":{"5":4.5,"6":7.29,"9":11.45}},{"dest_code":"43770000","dest_name":"","dest_lat":null,"dest_lon":null,"total":22.95,"byHour":[0,0,0,0,0,0,3.22,0,4.23,0,9.26,0,2.93,3.31,0,0,0,0,0,0,0,0,0,0],"byMode":{"8":22.95}},{"dest_code":"11500593","dest_name":"화곡8동","dest_lat":37.53426695337341,"dest_lon":126.84877256833798,"total":22.91,"byHour":[0,0,0,0,0,0,0,3.21,3.5,0,0,0,3.5,0,0,4.5,3.44,2.38,0,0,2.38,0,0,0],"byMode":{"6":19.41,"8":3.5}},{"dest_code":"11260655","dest_name":"망우본동","dest_lat":37.60213706842387,"dest_lon":127.10744223116808,"total":22.82,"byHour":[0,0,0,0,0,0,3.22,0,0,0,0,0,0,0,4.5,0,7.91,3.96,0,0,0,0,0,3.23],"byMode":{"5":3.22,"6":7.91,"8":7.73,"9":3.96}},{"dest_code":"11590510","dest_name":"노량진1동","dest_lat":37.5122360275928,"dest_lon":126.94895754101175,"total":22.52,"byHour":[0,0,0,0,3.5,0,7,3.5,0,0,0,0,0,0,0,0,2.3,3.46,0,0,0,0,2.76,0],"byMode":{"6":5.76,"8":13.26,"9":3.5}},{"dest_code":"11710620","dest_name":"가락본동","dest_lat":37.497019334997894,"dest_lon":127.12165359074712,"total":22.51,"byHour":[0,2.78,0,0,0,0,3.5,3.62,0,0,0,3.5,2.62,0,0,0,0,0,0,0,0,2.69,3.8,0],"byMode":{"6":16.11,"7":3.62,"8":2.78}},{"dest_code":"11320522","dest_name":"도봉2동","dest_lat":37.68125464671829,"dest_lon":127.0477027712937,"total":22.02,"byHour":[0,0,0,0,0,3.5,0,0,3.5,0,0,0,3.5,3.78,0,0,0,0,3.51,0,0,0,0,4.23],"byMode":{"6":3.78,"8":18.24}},{"dest_code":"11380570","dest_name":"대조동","dest_lat":37.612256262753604,"dest_lon":126.9231543891736,"total":21.99,"byHour":[0,0,0,0,0,0,0,0,0,3.5,0,0,0,0,3.5,3.5,7.99,0,0,3.5,0,0,0,0],"byMode":{"6":7.67,"8":10.5,"9":3.82}},{"dest_code":"28245000","dest_name":"","dest_lat":null,"dest_lon":null,"total":21.94,"byHour":[0,0,0,3.5,0,0,0,0,0,0,0,3.5,0,2.72,0,0,0,4.15,0,3.73,4.34,0,0,0],"byMode":{"6":8.49,"8":13.45}},{"dest_code":"11350700","dest_name":"상계8동","dest_lat":37.66652471977377,"dest_lon":127.05350427757749,"total":21.92,"byHour":[0,3.5,0,0,0,0,0,3.5,0,0,0,0,0,0,0,3.5,4.17,0,0,3.75,3.5,0,0,0],"byMode":{"6":7.67,"8":10.75,"9":3.5}},{"dest_code":"11500630","dest_name":"방화1동","dest_lat":37.568606318338276,"dest_lon":126.81757799691684,"total":21.82,"byHour":[0,0,0,0,0,0,3.21,3.5,0,0,0,0,0,0,0,0,4.08,0,0,6.53,0,4.5,0,0],"byMode":{"6":18.32,"8":3.5}},{"dest_code":"11680690","dest_name":"개포4동","dest_lat":37.47533332020373,"dest_lon":127.05341069324228,"total":21.79,"byHour":[0,0,0,0,0,3.5,0,0,3.5,0,0,0,3.5,0,0,0,0,0,0,7.34,0,3.95,0,0],"byMode":{"6":3.95,"8":17.84}},{"dest_code":"11740660","dest_name":"성내3동","dest_lat":37.52834784600046,"dest_lon":127.13377221408268,"total":21.75,"byHour":[2.51,0,0,0,0,0,0,0,3.5,3.5,3.5,3.22,0,0,0,0,3.13,0,0,0,0,0,2.39,0],"byMode":{"6":2.39,"8":15.86,"9":3.5}},{"dest_code":"11680656","dest_name":"도곡2동","dest_lat":37.48827562630961,"dest_lon":127.04979801350092,"total":21.62,"byHour":[0,0,0,0,0,0,0,0,0,7.18,0,0,0,3.5,0,3.94,3.5,3.5,0,0,0,0,0,0],"byMode":{"6":14.62,"8":3.5,"9":3.5}},{"dest_code":"11350570","dest_name":"월계2동","dest_lat":37.633974259066136,"dest_lon":127.05129552388732,"total":21.56,"byHour":[0,0,0,0,3.57,3.5,0,0,3.5,0,0,0,0,0,3.62,0,3.82,0,0,0,3.55,0,0,0],"byMode":{"6":10.94,"8":10.62}},{"dest_code":"11680600","dest_name":"대치1동","dest_lat":37.493363194399585,"dest_lon":127.05908993466304,"total":21.16,"byHour":[0,0,0,0,0,0,0,0,3.54,7.78,0,3.5,0,0,0,0,3.39,0,0,0,0,0,2.95,0],"byMode":{"6":6.89,"8":10.73,"9":3.54}},{"dest_code":"41820000","dest_name":"","dest_lat":null,"dest_lon":null,"total":20.88,"byHour":[0,3.5,0,0,0,0,7,6.94,0,0,0,3.44,0,0,0,0,0,0,0,0,0,0,0,0],"byMode":{"6":3.5,"8":17.38}},{"dest_code":"41461000","dest_name":"","dest_lat":null,"dest_lon":null,"total":20.79,"byHour":[0,0,0,0,0,0,0,3.5,2.66,0,0,7.63,0,0,0,3.5,3.5,0,0,0,0,0,0,0],"byMode":{"6":4.13,"8":16.66}},{"dest_code":"11320512","dest_name":"창2동","dest_lat":37.642511711898955,"dest_lon":127.03676720651606,"total":20.78,"byHour":[0,0,0,0,0,0,0,0,0,0,0,0,0,0,0,0,4.32,4.48,4,7.98,0,0,0,0],"byMode":{"6":12.96,"7":3.5,"9":4.32}},{"dest_code":"11545610","dest_name":"독산1동","dest_lat":37.46430767232536,"dest_lon":126.89249564631804,"total":20.67,"byHour":[0,0,0,3.5,0,0,3.05,0,0,0,0,0,0,3.78,3.5,0,6.84,0,0,0,0,0,0,0],"byMode":{"5":3.5,"6":9.89,"8":7.28}},{"dest_code":"11710650","dest_name":"잠실본동","dest_lat":37.50598801506433,"dest_lon":127.08262032317404,"total":20.67,"byHour":[0,0,0,0,0,0,3.22,0,3.5,0,0,4.15,0,0,3.5,2.8,0,0,3.5,0,0,0,0,0],"byMode":{"6":14.37,"8":6.3}},{"dest_code":"11620725","dest_name":"조원동","dest_lat":37.48282396573309,"dest_lon":126.90734827169659,"total":20.53,"byHour":[0,0,0,0,0,0,0,3.5,0,0,0,0,0,0,3.1,0,3.1,0,0,0,0,4.08,6.75,0],"byMode":{"6":6.2,"8":14.33}},{"dest_code":"11710570","dest_name":"오금동","dest_lat":37.50400495130691,"dest_lon":127.13402058316142,"total":20.47,"byHour":[0,0,0,0,0,0,0,0,0,0,3.5,0,0,3.53,0,0,0,0,3.04,0,3.45,3.45,0,3.5],"byMode":{"8":20.47}},{"dest_code":"28200000","dest_name":"","dest_lat":null,"dest_lon":null,"total":20.32,"byHour":[0,0,0,0,0,0,0,0,0,0,0,0,0,0,0,0,0,9.82,3.5,0,0,7,0,0],"byMode":{"6":16.82,"8":3.5}},{"dest_code":"11500603","dest_name":"가양1동","dest_lat":37.57187746731984,"dest_lon":126.83490847348327,"total":20.02,"byHour":[0,0,0,0,0,0,0,6.71,6.7,0,0,0,0,0,0,0,0,0,0,6.61,0,0,0,0],"byMode":{"6":16.52,"8":3.5}},{"dest_code":"11305555","dest_name":"송천동","dest_lat":37.61818602699557,"dest_lon":127.02490811255753,"total":19.96,"byHour":[0,0,0,0,0,0,0,3.5,0,0,0,0,4.01,0,0,0,3.5,0,3.55,0,0,0,5.4,0],"byMode":{"5":3.5,"6":6.25,"8":6.2,"9":4.01}},{"dest_code":"11290590","dest_name":"돈암2동","dest_lat":37.59708178772487,"dest_lon":127.0116005523684,"total":19.94,"byHour":[0,0,0,0,0,0,0,0,3.5,0,0,0,0,0,4.08,0,0,4.49,0,0,0,0,0,7.87],"byMode":{"6":4.49,"7":7.29,"9":8.16}},{"dest_code":"11110550","dest_name":"부암동","dest_lat":37.59696135988294,"dest_lon":126.9635444879494,"total":19.75,"byHour":[0,0,0,0,0,0,0,0,7,0,3.5,0,3.5,0,0,2.25,3.5,0,0,0,0,0,0,0],"byMode":{"8":3.5,"9":16.25}},{"dest_code":"11170660","dest_name":"이태원2동","dest_lat":37.54176099713294,"dest_lon":126.99205543091885,"total":19.68,"byHour":[0,0,0,3.21,0,0,0,0,0,0,0,0,0,3.67,3.41,3.09,0,0,0,0,6.3,0,0,0],"byMode":{"6":3.09,"7":3.09,"8":4.93,"9":8.57}},{"dest_code":"11500611","dest_name":"발산1동","dest_lat":37.55050719249973,"dest_lon":126.82526217896871,"total":19.42,"byHour":[0,0,2.82,0,0,0,0,0,0,3.79,0,2.61,0,0,0,0,7.59,2.61,0,0,0,0,0,0],"byMode":{"6":5.22,"8":14.2}},{"dest_code":"11380520","dest_name":"불광1동","dest_lat":37.61687033066227,"dest_lon":126.93865920467827,"total":19.39,"byHour":[0,0,0,0,0,0,0,0,0,0,0,0,0,0,0,3.5,4.38,3.5,4.23,3.78,0,0,0,0],"byMode":{"6":8.61,"8":10.78}},{"dest_code":"11710580","dest_name":"송파1동","dest_lat":37.50717835993431,"dest_lon":127.1103660800039,"total":19.04,"byHour":[0,0,0,0,0,0,0,0,0,0,3.5,0,0,0,0,0,0,0,12.04,3.5,0,0,0,0],"byMode":{"6":15.54,"8":3.5}},{"dest_code":"11740700","dest_name":"둔촌2동","dest_lat":37.531308450368925,"dest_lon":127.14724337088715,"total":19.04,"byHour":[3.5,0,0,0,0,0,0,0,4.5,0,0,0,0,0,0,3.81,0,3.73,3.5,0,0,0,0,0],"byMode":{"6":4.5,"8":14.54}},{"dest_code":"11320511","dest_name":"창1동","dest_lat":37.64709093129404,"dest_lon":127.04354230346514,"total":18.92,"byHour":[3.1,0,0,0,0,0,0,0,0,0,0,0,0,0,0,0,7.92,4.19,0,0,0,3.71,0,0],"byMode":{"6":18.92}},{"dest_code":"41113000","dest_name":"","dest_lat":null,"dest_lon":null,"total":18.62,"byHour":[0,0,0,0,0,0,0,0,0,3.5,0,0,0,0,3.5,0,0,0,8,0,0,0,3.62,0],"byMode":{"6":3.5,"8":15.12}},{"dest_code":"11590620","dest_name":"사당1동","dest_lat":37.47978703194504,"dest_lon":126.97751804689942,"total":18.55,"byHour":[0,0,0,0,0,0,0,0,0,0,0,0,0,0,0,4.5,2.77,0,7.14,0,0,0,4.14,0],"byMode":{"6":14.41,"9":4.14}},{"dest_code":"41196000","dest_name":"","dest_lat":null,"dest_lon":null,"total":18.5,"byHour":[3.5,0,0,0,0,0,0,0,0,0,0,0,0,0,3.5,0,0,0,0,8,3.5,0,0,0],"byMode":{"6":11.5,"8":7}},{"dest_code":"11500605","dest_name":"가양3동","dest_lat":37.56080688286481,"dest_lon":126.86109864446476,"total":18.46,"byHour":[0,0,0,0,0,0,3.5,0,0,0,0,0,0,0,0,0,0,0,11.91,0,3.05,0,0,0],"byMode":{"6":14.96,"8":3.5}},{"dest_code":"11380625","dest_name":"역촌동","dest_lat":37.60457169193162,"dest_lon":126.91462022253239,"total":18.42,"byHour":[0,0,0,0,0,0,0,0,3.5,0,0,0,0,0,0,0,0,7.02,0,0,7.9,0,0,0],"byMode":{"6":11.42,"8":3.5,"9":3.5}},{"dest_code":"11500620","dest_name":"공항동","dest_lat":37.55586440196673,"dest_lon":126.79489910642057,"total":18.3,"byHour":[0,0,0,0,0,0,0,0,0,0,7.8,0,0,0,0,3.5,0,0,7,0,0,0,0,0],"byMode":{"8":18.3}},{"dest_code":"11740600","dest_name":"천호1동","dest_lat":37.5463252427156,"dest_lon":127.13854822874764,"total":18.22,"byHour":[3.5,0,0,0,0,0,0,0,0,0,0,0,0,0,0,0,0,3.73,3.94,0,7.05,0,0,0],"byMode":{"6":7.28,"8":10.94}},{"dest_code":"41597000","dest_name":"","dest_lat":null,"dest_lon":null,"total":18.05,"byHour":[4.5,3.5,0,0,0,0,0,3.05,0,0,0,0,0,0,3.5,0,0,0,0,0,0,0,3.5,0],"byMode":{"5":3.5,"8":14.55}},{"dest_code":"11620630","dest_name":"남현동","dest_lat":37.464112163050295,"dest_lon":126.97776837084699,"total":18.01,"byHour":[0,0,0,0,0,0,0,0,0,4.01,3.5,0,0,0,3.5,0,0,3.5,0,3.5,0,0,0,0],"byMode":{"6":14.51,"8":3.5}},{"dest_code":"11440690","dest_name":"망원1동","dest_lat":37.55361948433182,"dest_lon":126.89975173517158,"total":17.98,"byHour":[0,0,0,0,0,0,0,0,3.5,0,0,3.5,0,0,0,7.48,0,3.5,0,0,0,0,0,0],"byMode":{"5":3.5,"6":10.98,"8":3.5}},{"dest_code":"11110560","dest_name":"평창동","dest_lat":37.61568630251399,"dest_lon":126.96812566774555,"total":17.96,"byHour":[3.5,0,0,0,0,0,0,0,0,0,0,0,0,0,0,0,0,0,3.5,0,3.5,3.73,3.73,0],"byMode":{"5":3.5,"6":3.5,"8":10.96}},{"dest_code":"11380510","dest_name":"녹번동","dest_lat":37.60530749347024,"dest_lon":126.93457412417989,"total":17.87,"byHour":[0,0,0,3.24,3.5,0,0,0,0,0,0,0,0,0,0,0,3.21,0,4.24,0,3.68,0,0,0],"byMode":{"5":3.5,"6":7.45,"8":6.92}},{"dest_code":"11215780","dest_name":"능동","dest_lat":37.550590491833674,"dest_lon":127.08179050874378,"total":17.86,"byHour":[3.05,0,0,0,0,0,0,0,3.87,0,4.5,0,0,0,0,3.5,0,0,2.94,0,0,0,0,0],"byMode":{"6":7.44,"8":3.87,"9":6.55}},{"dest_code":"11440590","dest_name":"용강동","dest_lat":37.541528802126415,"dest_lon":126.94221265006838,"total":17.82,"byHour":[0,0,0,0,0,3.5,3.57,0,7,0,0,0,0,0,0,0,0,3.75,0,0,0,0,0,0],"byMode":{"6":10.75,"9":7.07}},{"dest_code":"11440630","dest_name":"신수동","dest_lat":37.545655989935085,"dest_lon":126.9347934259029,"total":17.78,"byHour":[0,0,0,0,0,0,0,3.5,0,7.28,0,0,3.5,0,0,3.5,0,0,0,0,0,0,0,0],"byMode":{"6":17.78}},{"dest_code":"11350695","dest_name":"상계6.7동","dest_lat":37.64866170644932,"dest_lon":127.06010082071658,"total":17.64,"byHour":[3.5,3.64,0,0,0,0,3.5,3.5,0,0,0,0,0,0,0,0,0,0,0,3.5,0,0,0,0],"byMode":{"6":14,"8":3.64}},{"dest_code":"11650621","dest_name":"방배4동","dest_lat":37.48983219519618,"dest_lon":126.990978616156,"total":17.5,"byHour":[0,0,0,0,0,0,0,6.83,3.64,0,0,0,0,3.5,0,0,0,0,0,0,0,3.53,0,0],"byMode":{"6":7.15,"8":10.35}},{"dest_code":"11350625","dest_name":"중계2.3동","dest_lat":37.64343981053121,"dest_lon":127.06589372902808,"total":17.16,"byHour":[0,0,0,0,0,0,0,3.64,0,3.5,0,0,0,0,0,0,0,3.34,3.34,3.34,0,0,0,0],"byMode":{"6":6.98,"8":10.18}},{"dest_code":"11200720","dest_name":"송정동","dest_lat":37.55237277778798,"dest_lon":127.06426341681593,"total":17.07,"byHour":[0,0,0,0,0,0,0,0,0,2.77,0,0,0,0,0,0,7.98,0,3.5,0,0,0,2.82,0],"byMode":{"5":7.57,"8":2.77,"9":6.73}},{"dest_code":"11650560","dest_name":"반포1동","dest_lat":37.50552851610613,"dest_lon":127.01676253207259,"total":17.07,"byHour":[0,0,0,0,0,3.44,0,0,0,0,0,0,3.21,0,0,6.88,0,0,3.54,0,0,0,0,0],"byMode":{"6":6.98,"8":6.45,"9":3.64}},{"dest_code":"44825000","dest_name":"","dest_lat":null,"dest_lon":null,"total":17.06,"byHour":[0,0,0,0,0,0,0,6.32,0,7.43,3.31,0,0,0,0,0,0,0,0,0,0,0,0,0],"byMode":{"8":17.06}},{"dest_code":"41115000","dest_name":"","dest_lat":null,"dest_lon":null,"total":16.7,"byHour":[0,0,0,0,0,0,0,0,0,0,6.48,3.5,0,0,0,0,0,3.5,0,0,3.22,0,0,0],"byMode":{"6":6.44,"8":10.26}},{"dest_code":"51150000","dest_name":"","dest_lat":null,"dest_lon":null,"total":16.64,"byHour":[0,0,0,0,0,2.49,0,3.5,2.93,0,7.72,0,0,0,0,0,0,0,0,0,0,0,0,0],"byMode":{"8":16.64}},{"dest_code":"11260575","dest_name":"면목3.8동","dest_lat":37.58448873711785,"dest_lon":127.09834881069246,"total":16.61,"byHour":[0,0,0,0,0,0,0,0,3.21,0,0,0,0,0,0,0,3.15,3.5,3.25,0,3.5,0,0,0],"byMode":{"5":3.25,"6":6.65,"8":3.5,"9":3.21}},{"dest_code":"11230720","dest_name":"휘경1동","dest_lat":37.59195524614219,"dest_lon":127.062600743137,"total":16.47,"byHour":[0,0,0,0,0,0,0,0,0,4.01,0,0,0,0,0,3.05,0,3.54,0,0,3.57,2.3,0,0],"byMode":{"5":9.41,"7":3.05,"9":4.01}},{"dest_code":"11650660","dest_name":"내곡동","dest_lat":37.455858973062995,"dest_lon":127.07063192337948,"total":16.46,"byHour":[0,3.5,0,0,0,7,3.22,2.74,0,0,0,0,0,0,0,0,0,0,0,0,0,0,0,0],"byMode":{"5":3.5,"6":2.74,"8":10.22}},{"dest_code":"11305608","dest_name":"번3동","dest_lat":37.623687055768,"dest_lon":127.04218511039487,"total":16.35,"byHour":[0,0,0,0,0,0,0,0,0,0,0,0,0,3.68,0,0,0,0,4.5,4.5,0,3.67,0,0],"byMode":{"6":9,"8":3.68,"9":3.67}},{"dest_code":"11710610","dest_name":"삼전동","dest_lat":37.50190257761887,"dest_lon":127.09188809234622,"total":16.24,"byHour":[0,0,0,0,0,0,0,0,0,0,0,0,3.87,3.21,6.29,0,0,0,0,0,0,0,2.87,0],"byMode":{"6":2.79,"8":10.58,"9":2.87}},{"dest_code":"11680750","dest_name":"수서동","dest_lat":37.48692072548294,"dest_lon":127.10014331040334,"total":16.22,"byHour":[2.4,0,0,0,0,0,3.5,0,3.64,3.5,0,0,0,0,3.18,0,0,0,0,0,0,0,0,0],"byMode":{"6":10.32,"8":2.4,"9":3.5}},{"dest_code":"11500560","dest_name":"화곡3동","dest_lat":37.54399420314511,"dest_lon":126.83430514445965,"total":15.98,"byHour":[0,0,0,0,0,0,0,0,0,3.5,0,0,0,0,0,3.5,3.5,0,0,0,0,0,5.48,0],"byMode":{"6":15.98}},{"dest_code":"11305535","dest_name":"미아동","dest_lat":37.62864302072378,"dest_lon":127.02638883236091,"total":15.82,"byHour":[0,0,3.82,0,0,0,0,0,0,4.3,3.44,0,0,0,0,0,0,0,0,4.26,0,0,0,0],"byMode":{"6":4.26,"8":3.82,"9":7.74}},{"dest_code":"11740620","dest_name":"천호3동","dest_lat":37.53969320294497,"dest_lon":127.13330927913835,"total":15.81,"byHour":[2.48,0,0,0,0,0,0,0,0,3.5,0,0,0,0,0,0,7.07,0,0,0,2.76,0,0,0],"byMode":{"6":13.05,"8":2.76}},{"dest_code":"11290620","dest_name":"정릉1동","dest_lat":37.60327976637659,"dest_lon":127.01698172006311,"total":15.5,"byHour":[0,0,0,0,0,0,0,0,0,0,0,0,0,0,0,0,0,7.28,8.22,0,0,0,0,0],"byMode":{"6":3.22,"8":4.33,"9":7.95}},{"dest_code":"11320700","dest_name":"방학2동","dest_lat":37.669186234537605,"dest_lon":127.03269154692809,"total":15.44,"byHour":[0,0,0,0,0,0,0,0,0,0,0,0,0,0,4.3,0,4.09,0,3.55,0,0,3.5,0,0],"byMode":{"6":7.05,"8":8.39}},{"dest_code":"11380551","dest_name":"갈현1동","dest_lat":37.625194351134994,"dest_lon":126.91473683285207,"total":15.29,"byHour":[0,0,0,0,0,0,0,0,0,0,0,0,0,0,4.42,0,0,0,2.16,5.21,0,3.5,0,0],"byMode":{"6":13.13,"8":2.16}},{"dest_code":"41591000","dest_name":"","dest_lat":null,"dest_lon":null,"total":15.14,"byHour":[0,0,0,0,0,0,3.5,0,0,2.5,6,0,0,0,0,0,3.14,0,0,0,0,0,0,0],"byMode":{"8":15.14}},{"dest_code":"11560515","dest_name":"영등포본동","dest_lat":37.513675026593795,"dest_lon":126.90953128957892,"total":15.13,"byHour":[0,0,0,0,0,0,0,0,3.87,0,0,0,0,0,0,0,7.45,3.81,0,0,0,0,0,0],"byMode":{"6":11.32,"8":3.81}},{"dest_code":"11530550","dest_name":"구로4동","dest_lat":37.491607785028386,"dest_lon":126.89030917334667,"total":15.05,"byHour":[0,0,0,0,0,0,0,0,0,0,3.5,0,4.08,0,3.5,0,0,0,3.97,0,0,0,0,0],"byMode":{"6":11.08,"8":3.97}},{"dest_code":"11260600","dest_name":"중화1동","dest_lat":37.60259303945304,"dest_lon":127.08307073246407,"total":14.97,"byHour":[0,3.57,0,0,0,0,0,2.93,0,0,0,0,0,0,0,0,0,3.13,0,0,0,0,2.67,2.67],"byMode":{"5":2.67,"6":2.67,"8":3.57,"9":6.06}},{"dest_code":"11380560","dest_name":"구산동","dest_lat":37.611069000619466,"dest_lon":126.90730854008929,"total":14.94,"byHour":[0,0,0,0,0,0,0,0,0,0,0,0,0,0,7.94,0,0,0,3.5,0,0,0,3.5,0],"byMode":{"6":7.94,"8":7}},{"dest_code":"11170630","dest_name":"이촌1동","dest_lat":37.515173168570264,"dest_lon":126.97175838068603,"total":14.92,"byHour":[0,0,0,0,0,0,0,0,0,0,0,0,0,3.16,0,7.27,0,4.49,0,0,0,0,0,0],"byMode":{"6":8.89,"8":6.03}},{"dest_code":"11290640","dest_name":"정릉3동","dest_lat":37.61209700278061,"dest_lon":126.99458959683868,"total":14.92,"byHour":[0,0,0,0,0,0,0,3.5,0,0,0,0,4.5,0,0,0,0,0,0,0,3.5,3.42,0,0],"byMode":{"6":3.42,"9":11.5}},{"dest_code":"11320690","dest_name":"방학1동","dest_lat":37.665044547358484,"dest_lon":127.04347666289463,"total":14.88,"byHour":[3.5,0,0,0,0,3.5,0,0,3.5,0,0,0,0,0,0,0,0,0,0,0,0,0,4.38,0],"byMode":{"6":4.38,"8":10.5}},{"dest_code":"41370000","dest_name":"","dest_lat":null,"dest_lon":null,"total":14.82,"byHour":[0,0,0,0,0,0,0,0,0,0,0,0,0,0,3.66,3.5,4.16,0,3.5,0,0,0,0,0],"byMode":{"8":14.82}},{"dest_code":"41250000","dest_name":"","dest_lat":null,"dest_lon":null,"total":14.76,"byHour":[0,0,0,0,0,0,0,0,0,0,0,0,0,7.23,0,0,0,0,3.61,0,3.92,0,0,0],"byMode":{"6":11.26,"8":3.5}},{"dest_code":"11620625","dest_name":"인헌동","dest_lat":37.46970047790657,"dest_lon":126.96756094704558,"total":14.73,"byHour":[0,0,0,0,0,0,0,0,0,0,0,0,0,0,3.5,0,2.31,0,0,0,5.76,3.16,0,0],"byMode":{"6":11.23,"8":3.5}},{"dest_code":"11470520","dest_name":"목2동","dest_lat":37.54363229277754,"dest_lon":126.87428702518918,"total":14.56,"byHour":[0,0,0,0,0,0,0,0,0,0,0,0,3.5,0,0,3.65,0,0,0,0,2.92,0,4.49,0],"byMode":{"6":11.06,"8":3.5}},{"dest_code":"11170690","dest_name":"서빙고동","dest_lat":37.519621880140356,"dest_lon":126.98891969879323,"total":14.51,"byHour":[0,0,0,0,0,0,0,0,0,3.21,0,3.5,4.3,0,3.5,0,0,0,0,0,0,0,0,0],"byMode":{"6":3.5,"9":11.01}},{"dest_code":"11410655","dest_name":"홍제2동","dest_lat":37.584386176185454,"dest_lon":126.95251363483155,"total":14.5,"byHour":[0,0,0,0,0,0,0,3.5,0,0,0,0,0,0,0,0,0,0,3.5,0,7.5,0,0,0],"byMode":{"5":3.5,"6":7,"9":4}},{"dest_code":"11290685","dest_name":"길음2동","dest_lat":37.608286947215745,"dest_lon":127.02716361321961,"total":14.42,"byHour":[3.47,0,0,0,0,0,0,0,0,0,0,0,0,0,3.89,0,0,3.41,3.65,0,0,0,0,0],"byMode":{"6":3.89,"8":3.47,"9":7.06}},{"dest_code":"11320521","dest_name":"도봉1동","dest_lat":37.685321407832404,"dest_lon":127.02679827026442,"total":14.42,"byHour":[0,0,0,0,0,3.78,0,0,0,0,0,0,0,4.13,0,0,0,3.16,0,3.35,0,0,0,0],"byMode":{"6":11.07,"8":3.35}},{"dest_code":"11740610","dest_name":"천호2동","dest_lat":37.54499240788589,"dest_lon":127.12200908898424,"total":14.3,"byHour":[0,0,0,0,0,0,0,0,0,0,0,3.64,0,0,0,0,0,0,0,0,7.31,0,3.35,0],"byMode":{"6":14.3}},{"dest_code":"11350630","dest_name":"상계1동","dest_lat":37.68338646996146,"dest_lon":127.06511513804952,"total":14.28,"byHour":[3.5,0,0,3.5,0,0,3.78,0,0,0,0,0,0,0,0,0,0,0,0,0,3.5,0,0,0],"byMode":{"8":14.28}},{"dest_code":"11560710","dest_name":"대림2동","dest_lat":37.48962033751955,"dest_lon":126.90050284330509,"total":14,"byHour":[0,0,0,0,0,0,0,0,3.5,0,0,0,0,0,0,0,0,0,10.5,0,0,0,0,0],"byMode":{"6":14}},{"dest_code":"11215760","dest_name":"중곡3동","dest_lat":37.567910703899884,"dest_lon":127.08201715844399,"total":13.92,"byHour":[0,0,0,0,0,0,0,0,0,0,0,0,0,0,3.81,7,0,0,3.11,0,0,0,0,0],"byMode":{"8":3.11,"9":10.81}},{"dest_code":"51820000","dest_name":"","dest_lat":null,"dest_lon":null,"total":13.89,"byHour":[0,0,0,0,0,0,0,0,3.5,0,0,0,0,0,0,0,0,0,3.39,0,7,0,0,0],"byMode":{"8":13.89}},{"dest_code":"11305615","dest_name":"수유1동","dest_lat":37.629736694097595,"dest_lon":127.01001782948444,"total":13.87,"byHour":[0,0,0,0,0,0,0,0,0,3.5,0,0,0,0,0,3.5,0,3.48,3.39,0,0,0,0,0],"byMode":{"5":3.5,"6":3.39,"9":6.98}},{"dest_code":"11215770","dest_name":"중곡4동","dest_lat":37.56387396940858,"dest_lon":127.09449412530624,"total":13.78,"byHour":[0,0,0,0,0,0,0,0,0,3.5,0,0,0,0,0,0,3.9,0,0,0,6.38,0,0,0],"byMode":{"5":3.9,"6":3.55,"8":6.33}},{"dest_code":"11350621","dest_name":"중계1동","dest_lat":37.65014907056829,"dest_lon":127.07370051549012,"total":13.63,"byHour":[0,3.5,0,0,0,0,0,3.5,3.78,0,0,0,0,2.85,0,0,0,0,0,0,0,0,0,0],"byMode":{"6":7.28,"8":6.35}},{"dest_code":"41111000","dest_name":"","dest_lat":null,"dest_lon":null,"total":13.59,"byHour":[0,0,0,0,0,0,3.54,0,0,0,0,0,3.5,0,0,0,0,0,3.05,0,3.5,0,0,0],"byMode":{"8":13.59}},{"dest_code":"11470650","dest_name":"신정4동","dest_lat":37.525410551296865,"dest_lon":126.85761807645274,"total":13.55,"byHour":[0,0,0,0,0,0,0,0,3.05,3.5,0,0,3.5,0,0,3.5,0,0,0,0,0,0,0,0],"byMode":{"6":10.05,"8":3.5}},{"dest_code":"11590560","dest_name":"상도4동","dest_lat":37.49742138615788,"dest_lon":126.94066964463084,"total":13.48,"byHour":[0,0,0,0,0,0,0,0,3.5,0,3.16,0,3.66,0,0,0,0,0,3.16,0,0,0,0,0],"byMode":{"6":3.66,"8":3.5,"9":6.32}},{"dest_code":"51720000","dest_name":"","dest_lat":null,"dest_lon":null,"total":13.37,"byHour":[0,0,0,0,0,0,0,0,3.5,0,0,0,0,0,0,9.87,0,0,0,0,0,0,0,0],"byMode":{"8":13.37}},{"dest_code":"11500535","dest_name":"등촌3동","dest_lat":37.561203675763885,"dest_lon":126.84619497284451,"total":13.12,"byHour":[0,0,0,0,0,0,2.93,3.21,0,0,0,6.98,0,0,0,0,0,0,0,0,0,0,0,0],"byMode":{"6":3.48,"8":9.64}},{"dest_code":"11680675","dest_name":"개포3동","dest_lat":37.496288055464696,"dest_lon":127.07882839297903,"total":13.09,"byHour":[0,0,0,0,0,0,0,0,0,0,0,0,2.94,0,0,0,0,3.5,3.21,0,0,3.44,0,0],"byMode":{"6":6.38,"8":3.5,"9":3.21}},{"dest_code":"41220000","dest_name":"","dest_lat":null,"dest_lon":null,"total":13.03,"byHour":[0,0,0,0,0,3.87,0,0,0,0,2.96,0,0,0,0,0,3.22,0,2.98,0,0,0,0,0],"byMode":{"6":2.98,"8":10.05}},{"dest_code":"11410620","dest_name":"홍제1동","dest_lat":37.583404549321585,"dest_lon":126.94431972762148,"total":12.95,"byHour":[0,0,0,0,0,0,0,0,0,0,0,0,0,3.69,0,3.58,0,0,0,2.18,3.5,0,0,0],"byMode":{"6":9.37,"8":3.58}},{"dest_code":"11560610","dest_name":"양평1동","dest_lat":37.525457119495414,"dest_lon":126.88671756480686,"total":12.94,"byHour":[0,0,0,0,0,0,0,0,2.93,4.01,0,0,0,0,0,0,0,0,0,0,3.26,0,2.74,0],"byMode":{"5":2.93,"6":10.01}},{"dest_code":"11260690","dest_name":"신내2동","dest_lat":37.610983653054106,"dest_lon":127.09158736207435,"total":12.87,"byHour":[0,0,0,0,0,0,0,0,3.36,0,0,0,0,0,0,0,0,3.5,0,3.19,0,0,2.82,0],"byMode":{"5":3.19,"6":9.68}},{"dest_code":"11170560","dest_name":"원효로1동","dest_lat":37.537495373192954,"dest_lon":126.96655767638731,"total":12.72,"byHour":[0,0,0,0,0,0,0,0,3.21,0,2.51,0,0,0,0,0,0,3.5,3.5,0,0,0,0,0],"byMode":{"7":2.51,"8":3.21,"9":7}},{"dest_code":"11410640","dest_name":"홍제3동","dest_lat":37.59238563329103,"dest_lon":126.95161456142748,"total":12.62,"byHour":[0,0,0,0,0,0,0,0,0,0,0,9.12,0,3.5,0,0,0,0,0,0,0,0,0,0],"byMode":{"6":2.85,"8":6.27,"9":3.5}},{"dest_code":"11260550","dest_name":"면목5동","dest_lat":37.58251779356648,"dest_lon":127.07887986158896,"total":11.98,"byHour":[3.5,0,0,0,0,0,0,0,0,0,0,0,0,0,0,0,0,0,4.31,0,0,0,4.17,0],"byMode":{"5":4.17,"6":4.31,"8":3.5}},{"dest_code":"11320670","dest_name":"쌍문2동","dest_lat":37.65710965130868,"dest_lon":127.03691772548196,"total":11.89,"byHour":[0,0,0,0,0,0,0,0,0,3.57,0,0,0,0,0,0,0,2.87,2.44,0,0,3.01,0,0],"byMode":{"6":3.57,"8":2.87,"9":5.45}},{"dest_code":"11260570","dest_name":"면목7동","dest_lat":37.57713876078811,"dest_lon":127.09279824137629,"total":11.77,"byHour":[0,0,0,0,0,0,0,0,3.5,0,0,0,0,0,0,0,0,0,4.05,4.22,0,0,0,0],"byMode":{"8":4.05,"9":7.72}},{"dest_code":"11410520","dest_name":"천연동","dest_lat":37.57131965007134,"dest_lon":126.9566540266542,"total":11.68,"byHour":[0,0,0,0,0,0,3.5,0,0,0,0,0,0,0,0,0,3.95,4.23,0,0,0,0,0,0],"byMode":{"6":4.23,"8":3.5,"9":3.95}},{"dest_code":"11545680","dest_name":"시흥2동","dest_lat":37.45090382022978,"dest_lon":126.91982352271677,"total":11.62,"byHour":[0,0,0,0,0,0,0,0,0,0,0,0,0,0,0,7.12,0,0,0,0,4.5,0,0,0],"byMode":{"6":4.5,"8":7.12}},{"dest_code":"11230750","dest_name":"이문2동","dest_lat":37.60284072913704,"dest_lon":127.06751568293369,"total":11.61,"byHour":[0,0,0,0,0,0,0,0,0,0,0,0,0,3.97,0,0,0,4.5,0,3.14,0,0,0,0],"byMode":{"6":3.97,"9":7.64}},{"dest_code":"11710561","dest_name":"방이1동","dest_lat":37.50985491489405,"dest_lon":127.1224540097014,"total":11.51,"byHour":[0,0,0,0,0,0,0,0,7.94,0,0,0,0,0,0,0,0,0,0,0,3.57,0,0,0],"byMode":{"8":11.51}},{"dest_code":"11500540","dest_name":"화곡1동","dest_lat":37.53377324482262,"dest_lon":126.84092197413597,"total":11.49,"byHour":[0,0,0,0,0,0,0,0,0,0,0,0,0,0,0,0,0,0,3.06,4.08,0,4.35,0,0],"byMode":{"6":11.49}},{"dest_code":"11110580","dest_name":"교남동","dest_lat":37.57106499942922,"dest_lon":126.96411821359327,"total":11.48,"byHour":[0,0,0,0,0,0,0,0,0,0,0,0,0,0,0,0,0,2.16,3.11,0,0,2.71,3.5,0],"byMode":{"5":2.71,"8":3.5,"9":5.27}},{"dest_code":"11470640","dest_name":"신정3동","dest_lat":37.51180589991826,"dest_lon":126.84109344783093,"total":11.3,"byHour":[0,0,0,0,0,0,0,0,0,0,0,0,0,0,0,0,3.84,3.62,0,0,3.84,0,0,0],"byMode":{"6":3.62,"8":7.68}},{"dest_code":"11320710","dest_name":"방학3동","dest_lat":37.663189624864266,"dest_lon":127.02356311366161,"total":11.26,"byHour":[0,0,0,0,0,0,0,0,0,0,0,0,0,0,0,0,0,0,0,0,0,3.79,7.47,0],"byMode":{"6":7.76,"8":3.5}},{"dest_code":"11590540","dest_name":"상도2동","dest_lat":37.503681199787025,"dest_lon":126.94187036566095,"total":11.12,"byHour":[3.5,0,0,0,0,0,0,0,0,0,0,0,0,0,0,0,0,3.84,0,3.78,0,0,0,0],"byMode":{"8":11.12}},{"dest_code":"28140000","dest_name":"","dest_lat":null,"dest_lon":null,"total":11.06,"byHour":[0,0,0,0,0,0,0,0,0,0,0,0,0,0,7.56,0,0,3.5,0,0,0,0,0,0],"byMode":{"6":7.56,"8":3.5}},{"dest_code":"44270000","dest_name":"","dest_lat":null,"dest_lon":null,"total":11.01,"byHour":[0,0,0,0,0,0,4.01,0,3.5,0,0,0,0,0,0,0,0,0,0,3.5,0,0,0,0],"byMode":{"8":11.01}},{"dest_code":"11440730","dest_name":"성산2동","dest_lat":37.56832883553491,"dest_lon":126.90196767073063,"total":10.98,"byHour":[0,0,0,0,0,0,0,0,0,0,0,0,0,0,0,0,0,0,0,4.27,3.21,3.5,0,0],"byMode":{"6":10.98}},{"dest_code":"11320515","dest_name":"창5동","dest_lat":37.655371937488496,"dest_lon":127.0427893433785,"total":10.93,"byHour":[0,0,0,0,0,0,0,0,0,0,0,0,0,0,0,0,0,4.22,3.5,0,3.21,0,0,0],"byMode":{"6":4.22,"8":6.71}},{"dest_code":"11620665","dest_name":"서림동","dest_lat":37.47286139637797,"dest_lon":126.94149180275379,"total":10.9,"byHour":[0,0,0,0,0,0,0,0,0,0,0,0,0,0,0,0,3.7,0,3.7,3.5,0,0,0,0],"byMode":{"6":7.4,"8":3.5}},{"dest_code":"11305645","dest_name":"우이동","dest_lat":37.66035298208114,"dest_lon":127.00048707352931,"total":10.78,"byHour":[0,0,0,0,0,0,0,0,0,3.5,0,0,3.78,0,3.5,0,0,0,0,0,0,0,0,0],"byMode":{"6":7.28,"9":3.5}},{"dest_code":"11530520","dest_name":"구로1동","dest_lat":37.49314067151572,"dest_lon":126.8753978836315,"total":10.72,"byHour":[0,0,0,0,0,0,0,0,0,0,0,0,0,0,0,0,0,3.5,0,0,7.22,0,0,0],"byMode":{"6":3.72,"8":7}},{"dest_code":"11650580","dest_name":"반포3동","dest_lat":37.51232734794036,"dest_lon":127.00397631455911,"total":10.69,"byHour":[0,0,0,0,0,0,0,0,0,3.41,0,0,3.78,0,3.5,0,0,0,0,0,0,0,0,0],"byMode":{"6":7.19,"9":3.5}},{"dest_code":"11410660","dest_name":"홍은1동","dest_lat":37.600634867740176,"dest_lon":126.94693487801828,"total":10.64,"byHour":[0,0,0,0,0,0,0,0,0,0,0,0,0,0,3.5,0,0,3.64,0,0,0,0,0,3.5],"byMode":{"6":10.64}},{"dest_code":"51830000","dest_name":"","dest_lat":null,"dest_lon":null,"total":10.64,"byHour":[0,0,0,0,0,0,0,0,0,0,0,0,0,7.07,0,0,0,3.57,0,0,0,0,0,0],"byMode":{"8":10.64}},{"dest_code":"11170580","dest_name":"효창동","dest_lat":37.5428121998644,"dest_lon":126.96094385659588,"total":10.6,"byHour":[0,0,0,0,0,0,0,0,0,0,0,0,0,0,3.5,0,3.5,0,0,3.6,0,0,0,0],"byMode":{"5":3.6,"8":3.5,"9":3.5}},{"dest_code":"11710690","dest_name":"잠실4동","dest_lat":37.52069986201153,"dest_lon":127.10916169551092,"total":10.6,"byHour":[0,0,0,0,0,0,0,0,0,0,0,0,0,0,3.32,0,0,3.64,3.64,0,0,0,0,0],"byMode":{"6":7.28,"8":3.32}},{"dest_code":"11530530","dest_name":"구로2동","dest_lat":37.49687628698088,"dest_lon":126.8799181309095,"total":10.57,"byHour":[3.5,0,0,0,0,3.5,0,3.57,0,0,0,0,0,0,0,0,0,0,0,0,0,0,0,0],"byMode":{"6":7,"8":3.57}},{"dest_code":"11740525","dest_name":"상일1동","dest_lat":37.550638313480455,"dest_lon":127.16478735017907,"total":10.56,"byHour":[0,0,0,0,0,0,6.98,0,0,0,0,0,0,0,0,0,0,0,0,3.58,0,0,0,0],"byMode":{"6":7.06,"8":3.5}},{"dest_code":"11560700","dest_name":"대림1동","dest_lat":37.49367863683426,"dest_lon":126.9052163410804,"total":10.5,"byHour":[0,0,0,0,0,0,3.5,0,3.5,0,0,0,3.5,0,0,0,0,0,0,0,0,0,0,0],"byMode":{"6":7,"8":3.5}},{"dest_code":"11740570","dest_name":"암사1동","dest_lat":37.551848367771946,"dest_lon":127.1345954774132,"total":10.5,"byHour":[0,0,0,0,0,0,0,0,0,0,0,0,0,3.5,0,0,0,0,7,0,0,0,0,0],"byMode":{"6":7,"8":3.5}},{"dest_code":"11740640","dest_name":"성내1동","dest_lat":37.52869171980002,"dest_lon":127.1255403314639,"total":10.5,"byHour":[0,0,0,0,0,0,0,0,3.5,0,0,0,0,0,0,7,0,0,0,0,0,0,0,0],"byMode":{"6":3.5,"8":7}},{"dest_code":"51110000","dest_name":"","dest_lat":null,"dest_lon":null,"total":10.31,"byHour":[0,0,0,0,0,0,0,0,0,0,3.5,6.81,0,0,0,0,0,0,0,0,0,0,0,0],"byMode":{"8":10.31}},{"dest_code":"11320514","dest_name":"창4동","dest_lat":37.65271901329207,"dest_lon":127.05090900345418,"total":10.21,"byHour":[0,0,0,0,0,0,0,0,0,0,0,3.21,3.5,0,0,0,0,0,0,0,0,3.5,0,0],"byMode":{"8":10.21}},{"dest_code":"41830000","dest_name":"","dest_lat":null,"dest_lon":null,"total":10.21,"byHour":[0,0,0,0,0,0,0,0,0,0,0,4.5,2.35,0,0,0,0,0,0,0,0,3.36,0,0],"byMode":{"6":4.5,"8":5.71}},{"dest_code":"11590680","dest_name":"신대방2동","dest_lat":37.494578685611096,"dest_lon":126.92166848882296,"total":10.11,"byHour":[0,0,0,0,0,0,0,7.28,0,0,2.83,0,0,0,0,0,0,0,0,0,0,0,0,0],"byMode":{"6":10.11}},{"dest_code":"11530560","dest_name":"구로5동","dest_lat":37.501992406102005,"dest_lon":126.88855063913385,"total":10.1,"byHour":[0,0,0,0,0,0,0,3.05,0,3.5,0,0,0,0,0,0,0,3.55,0,0,0,0,0,0],"byMode":{"6":6.55,"8":3.55}},{"dest_code":"11560550","dest_name":"당산1동","dest_lat":37.523902456055296,"dest_lon":126.89677920846194,"total":10.03,"byHour":[0,0,0,0,0,0,0,0,0,3.48,3.5,0,0,0,0,0,0,0,3.05,0,0,0,0,0],"byMode":{"6":6.53,"8":3.5}},{"dest_code":"11740590","dest_name":"암사3동","dest_lat":37.56118661306365,"dest_lon":127.13863777415891,"total":9.26,"byHour":[0,0,2.88,0,0,0,0,0,3.5,0,0,0,0,0,0,0,0,2.88,0,0,0,0,0,0],"byMode":{"5":3.5,"8":2.88,"9":2.88}},{"dest_code":"11590651","dest_name":"사당5동","dest_lat":37.48579905640394,"dest_lon":126.96495943005131,"total":9.16,"byHour":[2.77,0,0,0,0,0,0,0,0,0,0,0,0,3.5,0,0,0,0,0,0,0,2.89,0,0],"byMode":{"6":6.39,"8":2.77}},{"dest_code":"11560670","dest_name":"신길5동","dest_lat":37.50096043195493,"dest_lon":126.90551182316325,"total":8.46,"byHour":[0,0,0,0,0,0,0,0,0,0,0,0,4.23,0,0,0,0,0,4.23,0,0,0,0,0],"byMode":{"6":8.46}},{"dest_code":"11350665","dest_name":"상계3.4동","dest_lat":37.6757801445397,"dest_lon":127.0842190173459,"total":8.3,"byHour":[0,0,0,0,0,0,0,0,0,0,0,0,0,0,0,0,4.14,4.16,0,0,0,0,0,0],"byMode":{"6":8.3}},{"dest_code":"11620775","dest_name":"난곡동","dest_lat":37.47063724580372,"dest_lon":126.9211377542852,"total":8.27,"byHour":[0,0,0,0,0,0,0,0,0,0,0,0,0,0,0,0,3.77,0,4.5,0,0,0,0,0],"byMode":{"6":4.5,"8":3.77}},{"dest_code":"11680720","dest_name":"일원본동","dest_lat":37.4823085068982,"dest_lon":127.0845473617676,"total":8.1,"byHour":[0,0,0,0,0,0,0,0,0,4.3,0,0,0,0,0,0,0,0,0,0,0,3.8,0,0],"byMode":{"6":4.3,"8":3.8}},{"dest_code":"11380631","dest_name":"신사1동","dest_lat":37.599139604497964,"dest_lon":126.90850630017171,"total":7.98,"byHour":[0,0,0,0,0,0,0,0,0,0,0,0,0,0,0,0,0,0,3.74,0,0,0,0,4.24],"byMode":{"6":7.98}},{"dest_code":"11620685","dest_name":"신사동","dest_lat":37.48582557530138,"dest_lon":126.91862482695264,"total":7.92,"byHour":[0,0,0,0,0,0,0,0,0,0,0,0,0,0,0,0,3.63,0,4.29,0,0,0,0,0],"byMode":{"8":7.92}},{"dest_code":"11500615","dest_name":"우장산동","dest_lat":37.550612077121365,"dest_lon":126.84113168643053,"total":7.91,"byHour":[0,0,0,0,0,0,0,3.5,0,0,0,0,0,0,0,0,4.41,0,0,0,0,0,0,0],"byMode":{"6":4.41,"8":3.5}},{"dest_code":"11500550","dest_name":"화곡2동","dest_lat":37.532261887349534,"dest_lon":126.85438256155751,"total":7.88,"byHour":[0,0,0,0,0,0,0,0,0,0,0,0,0,0,0,0,3.94,3.94,0,0,0,0,0,0],"byMode":{"6":7.88}},{"dest_code":"11350720","dest_name":"상계10동","dest_lat":37.65971816335463,"dest_lon":127.05838376138938,"total":7.84,"byHour":[0,0,0,4.22,0,0,0,0,0,0,0,0,0,0,0,0,0,0,3.62,0,0,0,0,0],"byMode":{"5":4.22,"6":3.62}},{"dest_code":"11650620","dest_name":"방배3동","dest_lat":37.47437227162922,"dest_lon":126.99792245892475,"total":7.82,"byHour":[0,0,0,0,0,0,0,0,0,0,0,0,0,0,3.73,0,0,0,4.09,0,0,0,0,0],"byMode":{"6":4.09,"8":3.73}},{"dest_code":"11620615","dest_name":"중앙동","dest_lat":37.4841515011671,"dest_lon":126.95065911204493,"total":7.67,"byHour":[0,0,0,0,0,0,0,0,4.17,0,0,0,0,0,3.5,0,0,0,0,0,0,0,0,0],"byMode":{"8":7.67}},{"dest_code":"11650600","dest_name":"방배1동","dest_lat":37.48487654628929,"dest_lon":126.99625988652642,"total":7.5,"byHour":[0,0,0,0,0,0,0,3.05,0,0,0,0,0,0,4.45,0,0,0,0,0,0,0,0,0],"byMode":{"6":7.5}},{"dest_code":"11560690","dest_name":"신길7동","dest_lat":37.505941364994584,"dest_lon":126.91956241744654,"total":7.44,"byHour":[0,0,0,0,0,0,0,7.44,0,0,0,0,0,0,0,0,0,0,0,0,0,0,0,0],"byMode":{"6":7.44}},{"dest_code":"11500591","dest_name":"화곡6동","dest_lat":37.55172114803463,"dest_lon":126.85123082314595,"total":7.37,"byHour":[0,0,0,0,0,0,0,0,0,0,7.37,0,0,0,0,0,0,0,0,0,0,0,0,0],"byMode":{"8":7.37}},{"dest_code":"11215740","dest_name":"중곡1동","dest_lat":37.562099793267585,"dest_lon":127.07768465357911,"total":7.33,"byHour":[3.4,0,0,0,0,0,0,0,0,0,0,0,0,0,0,0,0,0,3.93,0,0,0,0,0],"byMode":{"5":3.93,"6":3.4}},{"dest_code":"11560585","dest_name":"도림동","dest_lat":37.50911103838436,"dest_lon":126.90055834501898,"total":7.31,"byHour":[0,0,0,0,0,0,0,0,0,0,0,0,0,0,3.29,0,0,0,4.02,0,0,0,0,0],"byMode":{"6":3.29,"8":4.02}},{"dest_code":"11710632","dest_name":"가락2동","dest_lat":37.495853177386486,"dest_lon":127.13076636683432,"total":7.27,"byHour":[7.27,0,0,0,0,0,0,0,0,0,0,0,0,0,0,0,0,0,0,0,0,0,0,0],"byMode":{"8":7.27}},{"dest_code":"11710646","dest_name":"장지동","dest_lat":37.482973920923705,"dest_lon":127.13150452137991,"total":7.24,"byHour":[0,0,0,0,0,0,0,0,0,0,0,0,0,0,0,0,0,0,4.17,0,0,0,3.07,0],"byMode":{"6":4.17,"8":3.07}},{"dest_code":"11545700","dest_name":"시흥4동","dest_lat":37.46006930273669,"dest_lon":126.90930854255717,"total":7.16,"byHour":[0,0,0,0,0,0,0,0,0,0,0,0,0,0,0,0,0,3.96,0,0,0,3.2,0,0],"byMode":{"6":3.96,"8":3.2}},{"dest_code":"11710510","dest_name":"풍납1동","dest_lat":37.53843743078575,"dest_lon":127.11465989451312,"total":7.14,"byHour":[0,0,0,0,0,0,0,0,0,0,0,0,0,0,0,0,0,0,0,3.64,3.5,0,0,0],"byMode":{"8":7.14}},{"dest_code":"11170590","dest_name":"용문동","dest_lat":37.53797895957467,"dest_lon":126.95851292087413,"total":7.08,"byHour":[3.44,0,0,0,0,0,0,0,0,0,0,0,0,0,0,0,0,0,0,0,3.64,0,0,0],"byMode":{"6":3.64,"8":3.44}},{"dest_code":"11260630","dest_name":"묵2동","dest_lat":37.6108262711771,"dest_lon":127.07462292207424,"total":7,"byHour":[0,0,3.5,0,0,0,0,0,0,0,0,0,0,3.5,0,0,0,0,0,0,0,0,0,0],"byMode":{"8":7}},{"dest_code":"11305603","dest_name":"번2동","dest_lat":37.62948794177119,"dest_lon":127.03474522007014,"total":7,"byHour":[0,0,0,0,0,0,0,0,0,3.5,0,0,0,0,0,0,0,0,0,0,0,3.5,0,0],"byMode":{"6":3.5,"9":3.5}},{"dest_code":"11350624","dest_name":"중계4동","dest_lat":37.65936386768401,"dest_lon":127.08251558546104,"total":7,"byHour":[0,0,0,0,0,0,0,3.5,0,0,0,0,0,0,0,0,0,0,0,0,3.5,0,0,0],"byMode":{"6":7}},{"dest_code":"11380632","dest_name":"신사2동","dest_lat":37.592855159379226,"dest_lon":126.90619972620343,"total":7,"byHour":[0,0,0,0,0,0,3.5,0,0,0,0,0,0,0,0,0,0,3.5,0,0,0,0,0,0],"byMode":{"6":7}},{"dest_code":"11470510","dest_name":"목1동","dest_lat":37.52751904097061,"dest_lon":126.87443491547334,"total":7,"byHour":[0,0,0,0,0,3.5,0,0,0,0,0,0,0,0,3.5,0,0,0,0,0,0,0,0,0],"byMode":{"8":7}},{"dest_code":"11470630","dest_name":"신정2동","dest_lat":37.51940749286847,"dest_lon":126.8747941940831,"total":7,"byHour":[0,0,0,0,0,0,3.5,3.5,0,0,0,0,0,0,0,0,0,0,0,0,0,0,0,0],"byMode":{"8":7}},{"dest_code":"11620695","dest_name":"신림동","dest_lat":37.4871415005715,"dest_lon":126.92716843915657,"total":7,"byHour":[0,0,0,0,0,0,0,0,0,0,0,0,0,0,0,7,0,0,0,0,0,0,0,0],"byMode":{"8":7}},{"dest_code":"11740550","dest_name":"고덕1동","dest_lat":37.56170532192555,"dest_lon":127.15093601669223,"total":7,"byHour":[0,0,0,0,0,0,0,0,3.5,0,0,0,0,0,0,0,0,0,0,0,3.5,0,0,0],"byMode":{"6":7}},{"dest_code":"36110000","dest_name":"","dest_lat":null,"dest_lon":null,"total":7,"byHour":[0,0,0,0,0,0,0,0,0,0,0,3.5,0,0,0,0,0,0,0,0,3.5,0,0,0],"byMode":{"8":7}},{"dest_code":"41670000","dest_name":"","dest_lat":null,"dest_lon":null,"total":7,"byHour":[0,0,0,0,0,0,0,0,0,7,0,0,0,0,0,0,0,0,0,0,0,0,0,0],"byMode":{"8":7}},{"dest_code":"52140000","dest_name":"","dest_lat":null,"dest_lon":null,"total":7,"byHour":[0,0,0,0,0,0,0,0,0,0,0,0,3.5,0,0,0,3.5,0,0,0,0,0,0,0],"byMode":{"8":7}},{"dest_code":"11590605","dest_name":"흑석동","dest_lat":37.50542550562058,"dest_lon":126.96223687937673,"total":6.98,"byHour":[0,0,0,0,0,0,0,6.98,0,0,0,0,0,0,0,0,0,0,0,0,0,0,0,0],"byMode":{"6":6.98}},{"dest_code":"11590660","dest_name":"대방동","dest_lat":37.506904126207175,"dest_lon":126.9280462203087,"total":6.96,"byHour":[0,0,0,0,0,0,0,3.5,0,0,0,0,0,0,0,0,0,0,0,0,3.46,0,0,0],"byMode":{"5":3.46,"6":3.5}},{"dest_code":"11590550","dest_name":"상도3동","dest_lat":37.49756508302333,"dest_lon":126.9329331821373,"total":6.94,"byHour":[0,3.5,0,0,0,0,0,0,0,0,0,0,0,0,0,0,0,0,0,0,0,0,3.44,0],"byMode":{"8":6.94}},{"dest_code":"11650610","dest_name":"방배2동","dest_lat":37.4732060607648,"dest_lon":126.98842374274712,"total":6.92,"byHour":[0,0,0,0,0,0,3.05,0,0,0,0,0,0,0,0,0,0,3.87,0,0,0,0,0,0],"byMode":{"6":6.92}},{"dest_code":"44131000","dest_name":"","dest_lat":null,"dest_lon":null,"total":6.79,"byHour":[0,0,0,0,0,0,0,0,0,0,0,0,0,0,3.5,0,0,3.29,0,0,0,0,0,0],"byMode":{"8":6.79}},{"dest_code":"11320660","dest_name":"쌍문1동","dest_lat":37.65306893249887,"dest_lon":127.01951564530228,"total":6.71,"byHour":[0,0,0,0,0,0,0,3.5,0,0,0,0,0,0,0,0,3.21,0,0,0,0,0,0,0],"byMode":{"9":6.71}},{"dest_code":"11380580","dest_name":"응암1동","dest_lat":37.59834495324267,"dest_lon":126.92706516937618,"total":6.7,"byHour":[0,0,0,0,0,0,0,0,0,0,0,0,0,0,0,0,3.5,0,3.2,0,0,0,0,0],"byMode":{"6":6.7}},{"dest_code":"11560680","dest_name":"신길6동","dest_lat":37.498790784897466,"dest_lon":126.91358762911487,"total":6.7,"byHour":[0,0,3.5,0,0,0,0,0,0,0,0,0,0,0,0,0,0,0,0,3.2,0,0,0,0],"byMode":{"6":3.2,"8":3.5}},{"dest_code":"11260580","dest_name":"상봉1동","dest_lat":37.60172209475368,"dest_lon":127.08944588823316,"total":6.67,"byHour":[0,0,0,0,0,0,0,0,0,0,3.17,0,0,0,0,0,0,0,0,0,0,0,3.5,0],"byMode":{"9":6.67}},{"dest_code":"11650590","dest_name":"방배본동","dest_lat":37.495050793874505,"dest_lon":126.98772523527354,"total":6.66,"byHour":[0,3.28,0,0,0,0,0,0,0,0,0,0,0,0,0,3.38,0,0,0,0,0,0,0,0],"byMode":{"8":6.66}},{"dest_code":"11500520","dest_name":"등촌1동","dest_lat":37.55585907387817,"dest_lon":126.85960959745549,"total":6.55,"byHour":[0,0,0,0,0,0,0,3.5,0,0,0,0,0,0,0,0,0,0,0,0,0,0,3.05,0],"byMode":{"6":6.55}},{"dest_code":"11500640","dest_name":"방화2동","dest_lat":37.58271423824387,"dest_lon":126.80402677763085,"total":6.55,"byHour":[0,0,0,0,0,3.05,0,0,3.5,0,0,0,0,0,0,0,0,0,0,0,0,0,0,0],"byMode":{"8":6.55}},{"dest_code":"44800000","dest_name":"","dest_lat":null,"dest_lon":null,"total":6.55,"byHour":[0,0,0,0,0,0,0,6.55,0,0,0,0,0,0,0,0,0,0,0,0,0,0,0,0],"byMode":{"8":6.55}},{"dest_code":"52111000","dest_name":"","dest_lat":null,"dest_lon":null,"total":6.53,"byHour":[0,0,0,0,0,0,0,0,0,0,3.22,0,0,3.31,0,0,0,0,0,0,0,0,0,0],"byMode":{"8":6.53}},{"dest_code":"30200000","dest_name":"","dest_lat":null,"dest_lon":null,"total":6.49,"byHour":[0,0,0,0,0,0,0,0,0,0,0,0,0,0,0,0,0,3.5,2.99,0,0,0,0,0],"byMode":{"8":6.49}},{"dest_code":"11410615","dest_name":"연희동","dest_lat":37.57222900345364,"dest_lon":126.9327932236587,"total":6.35,"byHour":[0,0,0,0,0,0,0,0,3.31,0,3.04,0,0,0,0,0,0,0,0,0,0,0,0,0],"byMode":{"6":3.31,"8":3.04}},{"dest_code":"11740515","dest_name":"강일동","dest_lat":37.568941079825045,"dest_lon":127.1733563199527,"total":6.31,"byHour":[0,0,0,0,0,0,0,0,0,0,0,3.42,0,0,0,0,0,0,0,2.89,0,0,0,0],"byMode":{"8":6.31}},{"dest_code":"11590650","dest_name":"사당4동","dest_lat":37.48053910124022,"dest_lon":126.97075896361933,"total":6.19,"byHour":[0,3.29,0,0,0,0,0,0,0,0,0,0,0,0,0,0,0,0,0,0,0,0,0,2.9],"byMode":{"8":6.19}},{"dest_code":"11590530","dest_name":"상도1동","dest_lat":37.49837077818583,"dest_lon":126.9533526303038,"total":6.17,"byHour":[0,0,0,0,0,0,0,0,0,0,0,0,0,0,0,0,0,2.68,0,0,3.49,0,0,0],"byMode":{"6":2.68,"8":3.49}},{"dest_code":"11500530","dest_name":"등촌2동","dest_lat":37.54584405769225,"dest_lon":126.86002721392335,"total":6.15,"byHour":[0,0,3.5,0,0,0,0,0,0,0,0,0,0,0,0,0,0,0,0,2.65,0,0,0,0],"byMode":{"5":2.65,"8":3.5}},{"dest_code":"41550000","dest_name":"","dest_lat":null,"dest_lon":null,"total":6.08,"byHour":[0,0,0,0,0,0,0,0,0,0,0,0,0,0,0,0,6.08,0,0,0,0,0,0,0],"byMode":{"6":2.22,"8":3.86}},{"dest_code":"11620765","dest_name":"미성동","dest_lat":37.47592782983057,"dest_lon":126.91547491932535,"total":5.83,"byHour":[3.5,0,0,0,0,0,0,0,0,0,0,0,0,0,0,0,0,0,2.33,0,0,0,0,0],"byMode":{"6":2.33,"8":3.5}},{"dest_code":"11110570","dest_name":"무악동","dest_lat":37.577110679906056,"dest_lon":126.95858596490397,"total":5.8,"byHour":[0,0,0,0,0,0,3.22,0,0,0,2.58,0,0,0,0,0,0,0,0,0,0,0,0,0],"byMode":{"6":2.58,"8":3.22}},{"dest_code":"11740526","dest_name":"상일2동","dest_lat":37.551855925649704,"dest_lon":127.17747417503182,"total":5.6,"byHour":[0,0,0,0,0,0,0,3.15,0,0,0,0,0,0,0,0,0,2.45,0,0,0,0,0,0],"byMode":{"6":2.45,"8":3.15}},{"dest_code":"11590630","dest_name":"사당2동","dest_lat":37.497195989262906,"dest_lon":126.9748305493792,"total":5.04,"byHour":[2.59,0,0,0,0,0,0,0,0,0,0,0,0,0,0,2.45,0,0,0,0,0,0,0,0],"byMode":{"6":2.45,"8":2.59}},{"dest_code":"11380640","dest_name":"증산동","dest_lat":37.584127924083596,"dest_lon":126.9059397715006,"total":4.39,"byHour":[0,0,0,0,0,0,0,0,0,0,0,0,0,0,0,0,0,0,0,0,0,4.39,0,0],"byMode":{"6":4.39}},{"dest_code":"43150000","dest_name":"","dest_lat":null,"dest_lon":null,"total":4.3,"byHour":[0,0,0,0,0,4.3,0,0,0,0,0,0,0,0,0,0,0,0,0,0,0,0,0,0],"byMode":{"8":4.3}},{"dest_code":"47850000","dest_name":"","dest_lat":null,"dest_lon":null,"total":4.3,"byHour":[0,0,0,0,0,0,0,0,0,0,0,0,4.3,0,0,0,0,0,0,0,0,0,0,0],"byMode":{"8":4.3}},{"dest_code":"11470611","dest_name":"신월7동","dest_lat":37.5190539608265,"dest_lon":126.83060443905575,"total":4.22,"byHour":[0,0,0,0,0,0,0,0,0,0,0,0,0,0,0,0,0,0,0,0,4.22,0,0,0],"byMode":{"6":4.22}},{"dest_code":"11530750","dest_name":"개봉2동","dest_lat":37.49257208153012,"dest_lon":126.85648509520686,"total":4.18,"byHour":[0,0,0,0,0,0,0,0,0,0,0,0,0,0,0,0,0,4.18,0,0,0,0,0,0],"byMode":{"6":4.18}},{"dest_code":"11350619","dest_name":"중계본동","dest_lat":37.64862942471432,"dest_lon":127.08602025148559,"total":4.14,"byHour":[0,0,0,0,0,0,0,0,0,0,0,0,0,0,0,0,0,0,0,0,0,4.14,0,0],"byMode":{"6":4.14}},{"dest_code":"11545710","dest_name":"시흥5동","dest_lat":37.447461984983654,"dest_lon":126.91235706757439,"total":4.07,"byHour":[0,0,0,0,0,0,0,0,0,0,0,0,0,0,0,0,0,0,0,0,0,0,4.07,0],"byMode":{"9":4.07}},{"dest_code":"11530770","dest_name":"오류1동","dest_lat":37.4968684057227,"dest_lon":126.84164833495923,"total":4.06,"byHour":[0,0,0,0,0,0,0,0,0,0,0,0,0,0,0,0,0,0,0,4.06,0,0,0,0],"byMode":{"8":4.06}},{"dest_code":"11620745","dest_name":"삼성동","dest_lat":37.46085074977381,"dest_lon":126.9300890822937,"total":4.06,"byHour":[0,0,0,0,0,0,0,0,0,0,0,0,0,0,0,0,0,0,0,0,0,4.06,0,0],"byMode":{"6":4.06}},{"dest_code":"11350612","dest_name":"하계2동","dest_lat":37.63504657876006,"dest_lon":127.06496551885495,"total":4.01,"byHour":[0,0,0,0,0,0,0,0,0,0,0,0,0,0,0,0,0,0,0,4.01,0,0,0,0],"byMode":{"8":4.01}},{"dest_code":"11530595","dest_name":"가리봉동","dest_lat":37.482693847192856,"dest_lon":126.88806000798643,"total":4.01,"byHour":[0,0,0,0,0,0,0,0,0,0,0,0,0,0,0,0,4.01,0,0,0,0,0,0,0],"byMode":{"8":4.01}},{"dest_code":"11530740","dest_name":"개봉1동","dest_lat":37.500003575772105,"dest_lon":126.84912655135653,"total":3.97,"byHour":[0,0,0,0,0,0,0,0,0,0,0,0,0,0,0,0,0,3.97,0,0,0,0,0,0],"byMode":{"6":3.97}},{"dest_code":"30230000","dest_name":"","dest_lat":null,"dest_lon":null,"total":3.96,"byHour":[0,0,0,0,0,0,0,3.96,0,0,0,0,0,0,0,0,0,0,0,0,0,0,0,0],"byMode":{"8":3.96}},{"dest_code":"11710550","dest_name":"마천2동","dest_lat":37.50053191987888,"dest_lon":127.1506488302742,"total":3.91,"byHour":[0,0,0,0,0,0,0,0,0,0,0,0,0,3.91,0,0,0,0,0,0,0,0,0,0],"byMode":{"8":3.91}},{"dest_code":"11740650","dest_name":"성내2동","dest_lat":37.53440211933332,"dest_lon":127.12770532534651,"total":3.87,"byHour":[3.87,0,0,0,0,0,0,0,0,0,0,0,0,0,0,0,0,0,0,0,0,0,0,0],"byMode":{"8":3.87}},{"dest_code":"11320681","dest_name":"쌍문4동","dest_lat":37.65542903791273,"dest_lon":127.03042068070711,"total":3.71,"byHour":[0,0,0,0,0,0,0,0,0,0,0,0,0,0,0,0,0,0,0,0,0,0,3.71,0],"byMode":{"9":3.71}},{"dest_code":"31140000","dest_name":"","dest_lat":null,"dest_lon":null,"total":3.71,"byHour":[0,0,0,0,0,0,0,0,0,0,3.71,0,0,0,0,0,0,0,0,0,0,0,0,0],"byMode":{"8":3.71}},{"dest_code":"47190000","dest_name":"","dest_lat":null,"dest_lon":null,"total":3.68,"byHour":[0,0,0,0,0,0,0,0,0,0,0,0,0,0,0,3.68,0,0,0,0,0,0,0,0],"byMode":{"8":3.68}},{"dest_code":"43114000","dest_name":"","dest_lat":null,"dest_lon":null,"total":3.64,"byHour":[0,0,0,0,0,0,0,0,0,0,0,0,0,0,0,0,0,0,3.64,0,0,0,0,0],"byMode":{"8":3.64}},{"dest_code":"11530800","dest_name":"항동","dest_lat":37.48103531384191,"dest_lon":126.82459585275235,"total":3.63,"byHour":[0,0,0,0,0,0,0,0,0,0,0,0,0,0,0,0,0,0,0,3.63,0,0,0,0],"byMode":{"5":3.63}},{"dest_code":"11560660","dest_name":"신길4동","dest_lat":37.506880491960956,"dest_lon":126.91282913998464,"total":3.62,"byHour":[0,0,0,0,0,0,0,0,0,0,0,0,0,0,0,0,0,0,0,0,3.62,0,0,0],"byMode":{"6":3.62}},{"dest_code":"44200000","dest_name":"","dest_lat":null,"dest_lon":null,"total":3.62,"byHour":[0,0,0,0,0,0,0,0,0,3.62,0,0,0,0,0,0,0,0,0,0,0,0,0,0],"byMode":{"8":3.62}},{"dest_code":"11350670","dest_name":"상계5동","dest_lat":37.66600955926868,"dest_lon":127.06999865156484,"total":3.6,"byHour":[0,0,0,0,0,0,0,0,0,0,0,0,3.6,0,0,0,0,0,0,0,0,0,0,0],"byMode":{"8":3.6}},{"dest_code":"44210000","dest_name":"","dest_lat":null,"dest_lon":null,"total":3.59,"byHour":[0,0,0,0,0,0,0,0,3.59,0,0,0,0,0,0,0,0,0,0,0,0,0,0,0],"byMode":{"8":3.59}},{"dest_code":"11500641","dest_name":"방화3동","dest_lat":37.582115045052305,"dest_lon":126.81759007551284,"total":3.58,"byHour":[0,0,0,0,0,0,0,0,0,0,0,0,0,0,0,0,0,0,0,0,0,0,0,3.58],"byMode":{"8":3.58}},{"dest_code":"11545670","dest_name":"시흥1동","dest_lat":37.45241027086715,"dest_lon":126.90014751611682,"total":3.54,"byHour":[0,0,0,0,0,0,0,0,0,0,0,0,0,0,0,0,3.54,0,0,0,0,0,0,0],"byMode":{"8":3.54}},{"dest_code":"51760000","dest_name":"","dest_lat":null,"dest_lon":null,"total":3.53,"byHour":[0,0,0,0,0,0,0,0,0,0,0,0,0,0,0,0,0,0,0,0,0,3.53,0,0],"byMode":{"8":3.53}},{"dest_code":"11740530","dest_name":"명일1동","dest_lat":37.55034957453017,"dest_lon":127.14594542077988,"total":3.52,"byHour":[0,0,0,0,0,0,0,0,0,0,0,0,0,0,0,0,0,0,0,3.52,0,0,0,0],"byMode":{"6":3.52}},{"dest_code":"11740560","dest_name":"고덕2동","dest_lat":37.5651037879116,"dest_lon":127.16275604487758,"total":3.51,"byHour":[0,0,0,0,0,0,0,0,0,0,0,0,0,0,0,0,3.51,0,0,0,0,0,0,0],"byMode":{"6":3.51}},{"dest_code":"11170700","dest_name":"보광동","dest_lat":37.52688649842343,"dest_lon":127.00090084800838,"total":3.5,"byHour":[0,0,0,0,0,0,0,0,0,0,0,0,0,3.5,0,0,0,0,0,0,0,0,0,0],"byMode":{"8":3.5}},{"dest_code":"11350611","dest_name":"하계1동","dest_lat":37.63851375656488,"dest_lon":127.07506774532479,"total":3.5,"byHour":[0,0,0,0,0,0,0,0,0,0,0,0,0,0,0,0,0,0,0,3.5,0,0,0,0],"byMode":{"6":3.5}},{"dest_code":"11410690","dest_name":"남가좌1동","dest_lat":37.57181729704554,"dest_lon":126.91627890035964,"total":3.5,"byHour":[0,0,0,0,0,0,0,0,0,0,0,0,0,0,0,0,0,0,0,0,0,0,3.5,0],"byMode":{"8":3.5}},